[
  {
	"Item Type Name": "Temporary Oil Tank (above ground)",
	"JFNPermitNumber": "M00154808-I1-LA",
	"FilingNumber": "I1",
	"Created On Date": "04/15/2019 00:00:00-0400",
	"Work Type Name": "Oil Work",
	"Filing Type Name": "New Job Filing",
	"LocationBIN": "1000007",
	"Address": "4 NEW YORK PLAZA",
	"CommunityBoardNumber": 101,
	"LocationBoroughName": "MANHATTAN",
	"Longitude": -74.0107192993164,
	"Latitude": 40.702781677246094
 },
 {
	"Item Type Name": "Temporary DOB registered oil fired mobile boiler",
	"JFNPermitNumber": "M00178122-I1-LA",
	"FilingNumber": "I1",
	"Created On Date": "06/10/2019 00:00:00-0400",
	"Work Type Name": "Oil Work",
	"Filing Type Name": "New Job Filing",
	"LocationBIN": "1001416",
	"Address": "240 GREENWICH STREET",
	"CommunityBoardNumber": 101,
	"LocationBoroughName": "MANHATTAN",
	"Longitude": -74.01223754882812,
	"Latitude": 40.71451187133789
 },
 {
	"Item Type Name": "Temporary DOB registered oil fired mobile boiler",
	"JFNPermitNumber": "M00158303-S1-LA",
	"FilingNumber": "S1",
	"Created On Date": "06/27/2019 00:00:00-0400",
	"Work Type Name": "Oil Work",
	"Filing Type Name": "Subsequent Filing",
	"LocationBIN": "1001531",
	"Address": "166 DUANE STREET",
	"CommunityBoardNumber": 101,
	"LocationBoroughName": "MANHATTAN",
	"Longitude": -74.0094223022461,
	"Latitude": 40.716739654541016
 },
 {
	"Item Type Name": "Temporary DOB registered oil fired mobile boiler",
	"JFNPermitNumber": "M00158303-I1-LA",
	"FilingNumber": "I1",
	"Created On Date": "04/23/2019 00:00:00-0400",
	"Work Type Name": "Oil Work",
	"Filing Type Name": "New Job Filing",
	"LocationBIN": "1001531",
	"Address": "166 DUANE STREET",
	"CommunityBoardNumber": 101,
	"LocationBoroughName": "MANHATTAN",
	"Longitude": -74.0094223022461,
	"Latitude": 40.716739654541016
 },
 {
	"Item Type Name": "Temporary DOB registered oil fired mobile boiler",
	"JFNPermitNumber": "M00217534-I1-LA",
	"FilingNumber": "I1",
	"Created On Date": "08/27/2019 00:00:00-0400",
	"Work Type Name": "Oil Work",
	"Filing Type Name": "New Job Filing",
	"LocationBIN": "1001874",
	"Address": "80 LEONARD STREET",
	"CommunityBoardNumber": 101,
	"LocationBoroughName": "MANHATTAN",
	"Longitude": -74.00525665283203,
	"Latitude": 40.717079162597656
 },
 {
	"Item Type Name": "Temporary DOB registered oil fired mobile boiler",
	"JFNPermitNumber": "M00090177-I1-LA",
	"FilingNumber": "I1",
	"Created On Date": "10/19/2018 00:00:00-0400",
	"Work Type Name": "Oil Work",
	"Filing Type Name": "New Job Filing",
	"LocationBIN": "1002831",
	"Address": "67 VESTRY STREET",
	"CommunityBoardNumber": 101,
	"LocationBoroughName": "MANHATTAN",
	"Longitude": -74.0112075805664,
	"Latitude": 40.722740173339844
 },
 {
	"Item Type Name": "Temporary Oil Tank (above ground)",
	"JFNPermitNumber": "M00157816-I1-LA",
	"FilingNumber": "I1",
	"Created On Date": "04/22/2019 00:00:00-0400",
	"Work Type Name": "Oil Work",
	"Filing Type Name": "New Job Filing",
	"LocationBIN": "1004645",
	"Address": "55 AVENUE C",
	"CommunityBoardNumber": 103,
	"LocationBoroughName": "MANHATTAN",
	"Longitude": -73.98027038574219,
	"Latitude": 40.72261047363281
 },
 {
	"Item Type Name": "Temporary DOB registered oil fired mobile boiler",
	"JFNPermitNumber": "M00118211-I1-LA",
	"FilingNumber": "I1",
	"Created On Date": "01/10/2019 00:00:00-0500",
	"Work Type Name": "Oil Work",
	"Filing Type Name": "New Job Filing",
	"LocationBIN": "1004968",
	"Address": "184 EAST    3 STREET",
	"CommunityBoardNumber": 103,
	"LocationBoroughName": "MANHATTAN",
	"Longitude": -73.9839096069336,
	"Latitude": 40.722808837890625
 },
 {
	"Item Type Name": "Temporary Oil Tank (above ground)",
	"JFNPermitNumber": "M00115489-I1-LA",
	"FilingNumber": "I1",
	"Created On Date": "01/03/2019 00:00:00-0500",
	"Work Type Name": "Oil Work",
	"Filing Type Name": "New Job Filing",
	"LocationBIN": "1005201",
	"Address": "204 AVENUE A",
	"CommunityBoardNumber": 103,
	"LocationBoroughName": "MANHATTAN",
	"Longitude": -73.98075103759766,
	"Latitude": 40.7293815612793
 },
 {
	"Item Type Name": "Temporary Oil Tank (above ground)",
	"JFNPermitNumber": "M00090131-I1-LA",
	"FilingNumber": "I1",
	"Created On Date": "10/19/2018 00:00:00-0400",
	"Work Type Name": "Oil Work",
	"Filing Type Name": "New Job Filing",
	"LocationBIN": "1005528",
	"Address": "164 ALLEN STREET",
	"CommunityBoardNumber": 103,
	"LocationBoroughName": "MANHATTAN",
	"Longitude": -73.98902130126953,
	"Latitude": 40.72101974487305
 },
 {
	"Item Type Name": "Temporary Oil Tank (above ground)",
	"JFNPermitNumber": "M00114837-I1-LA",
	"FilingNumber": "I1",
	"Created On Date": "01/02/2019 00:00:00-0500",
	"Work Type Name": "Oil Work",
	"Filing Type Name": "New Job Filing",
	"LocationBIN": "1005562",
	"Address": "102 FORSYTH STREET",
	"CommunityBoardNumber": 103,
	"LocationBoroughName": "MANHATTAN",
	"Longitude": -73.99256896972656,
	"Latitude": 40.71831130981445
 },
 {
	"Item Type Name": "Temporary DOB registered oil fired mobile boiler",
	"JFNPermitNumber": "M00091230-I1-LA",
	"FilingNumber": "I1",
	"Created On Date": "10/23/2018 00:00:00-0400",
	"Work Type Name": "Oil Work",
	"Filing Type Name": "New Job Filing",
	"LocationBIN": "1005563",
	"Address": "104 FORSYTH STREET",
	"CommunityBoardNumber": 103,
	"LocationBoroughName": "MANHATTAN",
	"Longitude": -73.99253845214844,
	"Latitude": 40.718379974365234
 },
 {
	"Item Type Name": "Temporary DOB registered oil fired mobile boiler",
	"JFNPermitNumber": "M00219688-I1-LA",
	"FilingNumber": "I1",
	"Created On Date": "08/29/2019 00:00:00-0400",
	"Work Type Name": "Oil Work",
	"Filing Type Name": "New Job Filing",
	"LocationBIN": "1005591",
	"Address": "135 ELDRIDGE STREET",
	"CommunityBoardNumber": 103,
	"LocationBoroughName": "MANHATTAN",
	"Longitude": -73.99176025390625,
	"Latitude": 40.71910858154297
 },
 {
	"Item Type Name": "Temporary DOB registered oil fired mobile boiler",
	"JFNPermitNumber": "M00160849-I1-LA",
	"FilingNumber": "I1",
	"Created On Date": "04/30/2019 00:00:00-0400",
	"Work Type Name": "Oil Work",
	"Filing Type Name": "New Job Filing",
	"LocationBIN": "1006463",
	"Address": "219 EAST   10 STREET",
	"CommunityBoardNumber": 103,
	"LocationBoroughName": "MANHATTAN",
	"Longitude": -73.9856185913086,
	"Latitude": 40.72951126098633
 },
 {
	"Item Type Name": "Temporary DOB registered oil fired mobile boiler",
	"JFNPermitNumber": "Permit Not Yet Issued",
	"FilingNumber": "I1",
	"Created On Date": "08/21/2019 00:00:00-0400",
	"Work Type Name": "Oil Work",
	"Filing Type Name": "New Job Filing",
	"LocationBIN": "1007048",
	"Address": "483 BROADWAY",
	"CommunityBoardNumber": 102,
	"LocationBoroughName": "MANHATTAN",
	"Longitude": -74.00045013427734,
	"Latitude": 40.7218017578125
 },
 {
	"Item Type Name": "Temporary DOB registered oil fired mobile boiler",
	"JFNPermitNumber": "M00181550-I1-LA",
	"FilingNumber": "I1",
	"Created On Date": "06/20/2019 00:00:00-0400",
	"Work Type Name": "Oil Work",
	"Filing Type Name": "New Job Filing",
	"LocationBIN": "1008471",
	"Address": "682 BROADWAY",
	"CommunityBoardNumber": 102,
	"LocationBoroughName": "MANHATTAN",
	"Longitude": -73.9945297241211,
	"Latitude": 40.727569580078125
 },
 {
	"Item Type Name": "Temporary DOB registered oil fired mobile boiler",
	"JFNPermitNumber": "M00184197-I1-LA",
	"FilingNumber": "I1",
	"Created On Date": "06/24/2019 00:00:00-0400",
	"Work Type Name": "Oil Work",
	"Filing Type Name": "New Job Filing",
	"LocationBIN": "1008507",
	"Address": "686 BROADWAY",
	"CommunityBoardNumber": 102,
	"LocationBoroughName": "MANHATTAN",
	"Longitude": -73.99424743652344,
	"Latitude": 40.727909088134766
 },
 {
	"Item Type Name": "Temporary DOB registered oil fired mobile boiler",
	"JFNPermitNumber": "M00096948-I1-LA",
	"FilingNumber": "I1",
	"Created On Date": "11/06/2018 00:00:00-0500",
	"Work Type Name": "Oil Work",
	"Filing Type Name": "New Job Filing",
	"LocationBIN": "1008633",
	"Address": "222 THOMPSON STREET",
	"CommunityBoardNumber": 102,
	"LocationBoroughName": "MANHATTAN",
	"Longitude": -73.99883270263672,
	"Latitude": 40.72908020019531
 },
 {
	"Item Type Name": "Temporary DOB registered oil fired mobile boiler",
	"JFNPermitNumber": "M00196207-I1-LA",
	"FilingNumber": "I1",
	"Created On Date": "07/18/2019 00:00:00-0400",
	"Work Type Name": "Oil Work",
	"Filing Type Name": "New Job Filing",
	"LocationBIN": "1008731",
	"Address": "103 MACDOUGAL STREET",
	"CommunityBoardNumber": 102,
	"LocationBoroughName": "MANHATTAN",
	"Longitude": -74.00106048583984,
	"Latitude": 40.729801177978516
 },
 {
	"Item Type Name": "Temporary DOB registered oil fired mobile boiler",
	"JFNPermitNumber": "M00093537-I1-LA",
	"FilingNumber": "I1",
	"Created On Date": "10/29/2018 00:00:00-0400",
	"Work Type Name": "Oil Work",
	"Filing Type Name": "New Job Filing",
	"LocationBIN": "1008817",
	"Address": "2 WASHINGTON PLACE",
	"CommunityBoardNumber": 102,
	"LocationBoroughName": "MANHATTAN",
	"Longitude": -73.99413299560547,
	"Latitude": 40.72901153564453
 },
 {
	"Item Type Name": "Temporary DOB registered oil fired mobile boiler",
	"JFNPermitNumber": "M00087985-I1-LA",
	"FilingNumber": "I1",
	"Created On Date": "10/16/2018 00:00:00-0400",
	"Work Type Name": "Oil Work",
	"Filing Type Name": "New Job Filing",
	"LocationBIN": "1009134",
	"Address": "817 BROADWAY",
	"CommunityBoardNumber": 102,
	"LocationBoroughName": "MANHATTAN",
	"Longitude": -73.99152374267578,
	"Latitude": 40.73320007324219
 },
 {
	"Item Type Name": "Temporary DOB registered oil fired mobile boiler",
	"JFNPermitNumber": "M00087985-I1-LA",
	"FilingNumber": "I1",
	"Created On Date": "10/15/2018 00:00:00-0400",
	"Work Type Name": "Oil Work",
	"Filing Type Name": "New Job Filing",
	"LocationBIN": "1009134",
	"Address": "817 BROADWAY",
	"CommunityBoardNumber": 102,
	"LocationBoroughName": "MANHATTAN",
	"Longitude": -73.99152374267578,
	"Latitude": 40.73320007324219
 },
 {
	"Item Type Name": "Temporary DOB registered oil fired mobile boiler",
	"JFNPermitNumber": "M00121381-I1-LA",
	"FilingNumber": "I1",
	"Created On Date": "01/18/2019 00:00:00-0500",
	"Work Type Name": "Oil Work",
	"Filing Type Name": "New Job Filing",
	"LocationBIN": "1009204",
	"Address": "39 EAST   12 STREET",
	"CommunityBoardNumber": 102,
	"LocationBoroughName": "MANHATTAN",
	"Longitude": -73.99179077148438,
	"Latitude": 40.733760833740234
 },
 {
	"Item Type Name": "Temporary DOB registered oil fired mobile boiler",
	"JFNPermitNumber": "M00091422-I1-LA",
	"FilingNumber": "I1",
	"Created On Date": "10/23/2018 00:00:00-0400",
	"Work Type Name": "Oil Work",
	"Filing Type Name": "New Job Filing",
	"LocationBIN": "1009270",
	"Address": "5 EAST   10 STREET",
	"CommunityBoardNumber": 102,
	"LocationBoroughName": "MANHATTAN",
	"Longitude": -73.99468994140625,
	"Latitude": 40.733341217041016
 },
 {
	"Item Type Name": "Temporary DOB registered oil fired mobile boiler",
	"JFNPermitNumber": "M00088130-S1-LA",
	"FilingNumber": "S1",
	"Created On Date": "04/26/2019 00:00:00-0400",
	"Work Type Name": "Oil Work",
	"Filing Type Name": "Subsequent Filing",
	"LocationBIN": "1009722",
	"Address": "55 WEST   13 STREET",
	"CommunityBoardNumber": 102,
	"LocationBoroughName": "MANHATTAN",
	"Longitude": -73.99649810791016,
	"Latitude": 40.7365608215332
 },
 {
	"Item Type Name": "Temporary DOB registered oil fired mobile boiler",
	"JFNPermitNumber": "M00088130-I1-LA",
	"FilingNumber": "I1",
	"Created On Date": "10/15/2018 00:00:00-0400",
	"Work Type Name": "Oil Work",
	"Filing Type Name": "New Job Filing",
	"LocationBIN": "1009722",
	"Address": "55 WEST   13 STREET",
	"CommunityBoardNumber": 102,
	"LocationBoroughName": "MANHATTAN",
	"Longitude": -73.99649810791016,
	"Latitude": 40.7365608215332
 },
 {
	"Item Type Name": "Temporary DOB registered oil fired mobile boiler",
	"JFNPermitNumber": "M00177190-I1-LA",
	"FilingNumber": "I1",
	"Created On Date": "06/06/2019 00:00:00-0400",
	"Work Type Name": "Oil Work",
	"Filing Type Name": "New Job Filing",
	"LocationBIN": "1010258",
	"Address": "129 WASHINGTON PLACE",
	"CommunityBoardNumber": 102,
	"LocationBoroughName": "MANHATTAN",
	"Longitude": -74.00173950195312,
	"Latitude": 40.73313903808594
 },
 {
	"Item Type Name": "Temporary Oil Tank (above ground)",
	"JFNPermitNumber": "M00208054-I1-LA",
	"FilingNumber": "I1",
	"Created On Date": "08/09/2019 00:00:00-0400",
	"Work Type Name": "Oil Work",
	"Filing Type Name": "New Job Filing",
	"LocationBIN": "1011302",
	"Address": "286 WEST   11 STREET",
	"CommunityBoardNumber": 102,
	"LocationBoroughName": "MANHATTAN",
	"Longitude": -74.00495147705078,
	"Latitude": 40.73585891723633
 },
 {
	"Item Type Name": "Temporary DOB registered oil fired mobile boiler",
	"JFNPermitNumber": "M00192471-I1-LA",
	"FilingNumber": "I1",
	"Created On Date": "07/12/2019 00:00:00-0400",
	"Work Type Name": "Oil Work",
	"Filing Type Name": "New Job Filing",
	"LocationBIN": "1012136",
	"Address": "84 HORATIO STREET",
	"CommunityBoardNumber": 102,
	"LocationBoroughName": "MANHATTAN",
	"Longitude": -74.0074462890625,
	"Latitude": 40.73857116699219
 },
 {
	"Item Type Name": "Temporary Oil Tank (above ground)",
	"JFNPermitNumber": "M00160706-I1-LA",
	"FilingNumber": "I1",
	"Created On Date": "05/14/2019 00:00:00-0400",
	"Work Type Name": "Oil Work",
	"Filing Type Name": "New Job Filing",
	"LocationBIN": "1012541",
	"Address": "75 9 AVENUE",
	"CommunityBoardNumber": 104,
	"LocationBoroughName": "MANHATTAN",
	"Longitude": -74.00605773925781,
	"Latitude": 40.742549896240234
 },
 {
	"Item Type Name": "Temporary DOB registered oil fired mobile boiler",
	"JFNPermitNumber": "M00089009-I1-LA",
	"FilingNumber": "I1",
	"Created On Date": "10/17/2018 00:00:00-0400",
	"Work Type Name": "Oil Work",
	"Filing Type Name": "New Job Filing",
	"LocationBIN": "1013561",
	"Address": "481 8 AVENUE",
	"CommunityBoardNumber": 104,
	"LocationBoroughName": "MANHATTAN",
	"Longitude": -73.99363708496094,
	"Latitude": 40.75271987915039
 },
 {
	"Item Type Name": "Temporary DOB registered oil fired mobile boiler",
	"JFNPermitNumber": "M00092963-I1-LA",
	"FilingNumber": "I1",
	"Created On Date": "10/26/2018 00:00:00-0400",
	"Work Type Name": "Oil Work",
	"Filing Type Name": "New Job Filing",
	"LocationBIN": "1015198",
	"Address": "131 WEST   33 STREET",
	"CommunityBoardNumber": 105,
	"LocationBoroughName": "MANHATTAN",
	"Longitude": -73.98967742919922,
	"Latitude": 40.749969482421875
 },
 {
	"Item Type Name": "Temporary Oil Tank (above ground)",
	"JFNPermitNumber": "M00194569-I1-LA",
	"FilingNumber": "I1",
	"Created On Date": "07/16/2019 00:00:00-0400",
	"Work Type Name": "Oil Work",
	"Filing Type Name": "New Job Filing",
	"LocationBIN": "1020570",
	"Address": "321 EAST   22 STREET",
	"CommunityBoardNumber": 106,
	"LocationBoroughName": "MANHATTAN",
	"Longitude": -73.98023223876953,
	"Latitude": 40.73698043823242
 },
 {
	"Item Type Name": "Temporary Oil Tank (above ground)",
	"JFNPermitNumber": "M00173659-I1-LA",
	"FilingNumber": "I1",
	"Created On Date": "05/29/2019 00:00:00-0400",
	"Work Type Name": "Oil Work",
	"Filing Type Name": "New Job Filing",
	"LocationBIN": "1020570",
	"Address": "321 EAST   22 STREET",
	"CommunityBoardNumber": 106,
	"LocationBoroughName": "MANHATTAN",
	"Longitude": -73.98023223876953,
	"Latitude": 40.73698043823242
 },
 {
	"Item Type Name": "Temporary DOB registered oil fired mobile boiler",
	"JFNPermitNumber": "M00129743-I1-LA",
	"FilingNumber": "I1",
	"Created On Date": "02/11/2019 00:00:00-0500",
	"Work Type Name": "Oil Work",
	"Filing Type Name": "New Job Filing",
	"LocationBIN": "1024739",
	"Address": "205 WEST   46 STREET",
	"CommunityBoardNumber": 105,
	"LocationBoroughName": "MANHATTAN",
	"Longitude": -73.98592376708984,
	"Latitude": 40.759178161621094
 },
 {
	"Item Type Name": "Temporary DOB registered oil fired mobile boiler",
	"JFNPermitNumber": "M00202743-I1-LA",
	"FilingNumber": "I1",
	"Created On Date": "07/31/2019 00:00:00-0400",
	"Work Type Name": "Oil Work",
	"Filing Type Name": "New Job Filing",
	"LocationBIN": "1027463",
	"Address": "30 WEST   63 STREET",
	"CommunityBoardNumber": 107,
	"LocationBoroughName": "MANHATTAN",
	"Longitude": -73.9815673828125,
	"Latitude": 40.77077102661133
 },
 {
	"Item Type Name": "Temporary DOB registered oil fired mobile boiler",
	"JFNPermitNumber": "M00090834-I1-LA",
	"FilingNumber": "I1",
	"Created On Date": "10/22/2018 00:00:00-0400",
	"Work Type Name": "Oil Work",
	"Filing Type Name": "New Job Filing",
	"LocationBIN": "1040138",
	"Address": "439 EAST   51 STREET",
	"CommunityBoardNumber": 106,
	"LocationBoroughName": "MANHATTAN",
	"Longitude": -73.96410369873047,
	"Latitude": 40.75407028198242
 },
 {
	"Item Type Name": "Temporary DOB registered oil fired mobile boiler",
	"JFNPermitNumber": "M00112144-I1-LA",
	"FilingNumber": "I1",
	"Created On Date": "12/19/2018 00:00:00-0500",
	"Work Type Name": "Oil Work",
	"Filing Type Name": "New Job Filing",
	"LocationBIN": "1052774",
	"Address": "312 EAST  106 STREET",
	"CommunityBoardNumber": 111,
	"LocationBoroughName": "MANHATTAN",
	"Longitude": -73.94175720214844,
	"Latitude": 40.79003143310547
 },
 {
	"Item Type Name": "Temporary DOB registered oil fired mobile boiler",
	"JFNPermitNumber": "M00169206-I1-LA",
	"FilingNumber": "I1",
	"Created On Date": "05/17/2019 00:00:00-0400",
	"Work Type Name": "Oil Work",
	"Filing Type Name": "New Job Filing",
	"LocationBIN": "1059836",
	"Address": "3041 BROADWAY",
	"CommunityBoardNumber": 109,
	"LocationBoroughName": "MANHATTAN",
	"Longitude": -73.96214294433594,
	"Latitude": 40.81142044067383
 },
 {
	"Item Type Name": "Temporary DOB registered oil fired mobile boiler",
	"JFNPermitNumber": "M00202859-I1-LA",
	"FilingNumber": "I1",
	"Created On Date": "07/31/2019 00:00:00-0400",
	"Work Type Name": "Oil Work",
	"Filing Type Name": "New Job Filing",
	"LocationBIN": "1062326",
	"Address": "640 RIVERSIDE DRIVE",
	"CommunityBoardNumber": 109,
	"LocationBoroughName": "MANHATTAN",
	"Longitude": -73.95379638671875,
	"Latitude": 40.82476043701172
 },
 {
	"Item Type Name": "Temporary DOB registered oil fired mobile boiler",
	"JFNPermitNumber": "M00209941-I1-LA",
	"FilingNumber": "I1",
	"Created On Date": "08/13/2019 00:00:00-0400",
	"Work Type Name": "Oil Work",
	"Filing Type Name": "New Job Filing",
	"LocationBIN": "1063518",
	"Address": "635 WEST  174 STREET",
	"CommunityBoardNumber": 112,
	"LocationBoroughName": "MANHATTAN",
	"Longitude": -73.93903350830078,
	"Latitude": 40.84579849243164
 },
 {
	"Item Type Name": "Temporary DOB registered oil fired mobile boiler",
	"JFNPermitNumber": "M00145499-I1-LA",
	"FilingNumber": "I1",
	"Created On Date": "03/22/2019 00:00:00-0400",
	"Work Type Name": "Oil Work",
	"Filing Type Name": "New Job Filing",
	"LocationBIN": "1064708",
	"Address": "9 POST AVENUE",
	"CommunityBoardNumber": 112,
	"LocationBoroughName": "MANHATTAN",
	"Longitude": -73.92455291748047,
	"Latitude": 40.86254119873047
 },
 {
	"Item Type Name": "Temporary Oil Tank (above ground)",
	"JFNPermitNumber": "M00205850-I1-LA",
	"FilingNumber": "I1",
	"Created On Date": "08/06/2019 00:00:00-0400",
	"Work Type Name": "Oil Work",
	"Filing Type Name": "New Job Filing",
	"LocationBIN": "1077748",
	"Address": "174 SPRING STREET",
	"CommunityBoardNumber": 102,
	"LocationBoroughName": "MANHATTAN",
	"Longitude": -74.00240325927734,
	"Latitude": 40.724578857421875
 },
 {
	"Item Type Name": "Temporary Oil Tank (above ground)",
	"JFNPermitNumber": "M00088406-I1-LA",
	"FilingNumber": "I1",
	"Created On Date": "10/16/2018 00:00:00-0400",
	"Work Type Name": "Oil Work",
	"Filing Type Name": "New Job Filing",
	"LocationBIN": "1082652",
	"Address": "66 WEST   94 STREET",
	"CommunityBoardNumber": 107,
	"LocationBoroughName": "MANHATTAN",
	"Longitude": -73.96842956542969,
	"Latitude": 40.79106903076172
 },
 {
	"Item Type Name": "Temporary Oil Tank (above ground)",
	"JFNPermitNumber": "M00172964-I1-LA",
	"FilingNumber": "I1",
	"Created On Date": "05/28/2019 00:00:00-0400",
	"Work Type Name": "Oil Work",
	"Filing Type Name": "New Job Filing",
	"LocationBIN": "1083931",
	"Address": "420 EAST  102 STREET",
	"CommunityBoardNumber": 111,
	"LocationBoroughName": "MANHATTAN",
	"Longitude": -73.94151306152344,
	"Latitude": 40.78643035888672
 },
 {
	"Item Type Name": "Temporary DOB registered oil fired mobile boiler",
	"JFNPermitNumber": "M00116402-I1-LA",
	"FilingNumber": "I1",
	"Created On Date": "01/07/2019 00:00:00-0500",
	"Work Type Name": "Oil Work",
	"Filing Type Name": "New Job Filing",
	"LocationBIN": "1084164",
	"Address": "85 BRADHURST AVENUE",
	"CommunityBoardNumber": 110,
	"LocationBoroughName": "MANHATTAN",
	"Longitude": -73.94113159179688,
	"Latitude": 40.82658004760742
 },
 {
	"Item Type Name": "Temporary DOB registered oil fired mobile boiler",
	"JFNPermitNumber": "X00125781-I1-LA",
	"FilingNumber": "I1",
	"Created On Date": "01/31/2019 00:00:00-0500",
	"Work Type Name": "Oil Work",
	"Filing Type Name": "New Job Filing",
	"LocationBIN": "2000207",
	"Address": "439 EAST  135 STREET",
	"CommunityBoardNumber": 201,
	"LocationBoroughName": "BRONX",
	"Longitude": -73.92269897460938,
	"Latitude": 40.806758880615234
 },
 {
	"Item Type Name": "Temporary DOB registered oil fired mobile boiler",
	"JFNPermitNumber": "X00194425-I1-LA",
	"FilingNumber": "I1",
	"Created On Date": "07/16/2019 00:00:00-0400",
	"Work Type Name": "Oil Work",
	"Filing Type Name": "New Job Filing",
	"LocationBIN": "2007654",
	"Address": "1985 CRESTON AVENUE",
	"CommunityBoardNumber": 205,
	"LocationBoroughName": "BRONX",
	"Longitude": -73.90666198730469,
	"Latitude": 40.85111999511719
 },
 {
	"Item Type Name": "Temporary DOB registered oil fired mobile boiler",
	"JFNPermitNumber": "X00168692-I1-LA",
	"FilingNumber": "I1",
	"Created On Date": "05/16/2019 00:00:00-0400",
	"Work Type Name": "Oil Work",
	"Filing Type Name": "New Job Filing",
	"LocationBIN": "2007710",
	"Address": "264 ECHO PLACE",
	"CommunityBoardNumber": 205,
	"LocationBoroughName": "BRONX",
	"Longitude": -73.90335083007812,
	"Latitude": 40.84928894042969
 },
 {
	"Item Type Name": "Temporary Oil Tank (above ground)",
	"JFNPermitNumber": "X00218884-I1-LA",
	"FilingNumber": "I1",
	"Created On Date": "08/28/2019 00:00:00-0400",
	"Work Type Name": "Oil Work",
	"Filing Type Name": "New Job Filing",
	"LocationBIN": "2008012",
	"Address": "1555 GRAND CONCOURSE",
	"CommunityBoardNumber": 204,
	"LocationBoroughName": "BRONX",
	"Longitude": -73.91291046142578,
	"Latitude": 40.842201232910156
 },
 {
	"Item Type Name": "Temporary DOB registered oil fired mobile boiler",
	"JFNPermitNumber": "X00198249-I1-LA",
	"FilingNumber": "I1",
	"Created On Date": "07/23/2019 00:00:00-0400",
	"Work Type Name": "Oil Work",
	"Filing Type Name": "New Job Filing",
	"LocationBIN": "2008118",
	"Address": "1478 WALTON AVENUE",
	"CommunityBoardNumber": 204,
	"LocationBoroughName": "BRONX",
	"Longitude": -73.91442108154297,
	"Latitude": 40.84123992919922
 },
 {
	"Item Type Name": "Temporary DOB registered oil fired mobile boiler",
	"JFNPermitNumber": "X00150442-I1-LA",
	"FilingNumber": "I1",
	"Created On Date": "04/04/2019 00:00:00-0400",
	"Work Type Name": "Oil Work",
	"Filing Type Name": "New Job Filing",
	"LocationBIN": "2008215",
	"Address": "54 EAST  176 STREET",
	"CommunityBoardNumber": 205,
	"LocationBoroughName": "BRONX",
	"Longitude": -73.91050720214844,
	"Latitude": 40.848201751708984
 },
 {
	"Item Type Name": "Temporary DOB registered oil fired mobile boiler",
	"JFNPermitNumber": "X00209462-I1-LA",
	"FilingNumber": "I1",
	"Created On Date": "08/12/2019 00:00:00-0400",
	"Work Type Name": "Oil Work",
	"Filing Type Name": "New Job Filing",
	"LocationBIN": "2008678",
	"Address": "1476 SHAKESPEARE AVENUE",
	"CommunityBoardNumber": 204,
	"LocationBoroughName": "BRONX",
	"Longitude": -73.9195785522461,
	"Latitude": 40.84389114379883
 },
 {
	"Item Type Name": "Temporary Oil Tank (above ground)",
	"JFNPermitNumber": "X00167035-I1-LA",
	"FilingNumber": "I1",
	"Created On Date": "05/14/2019 00:00:00-0400",
	"Work Type Name": "Oil Work",
	"Filing Type Name": "New Job Filing",
	"LocationBIN": "2010002",
	"Address": "801 CROTONA PARK NORTH",
	"CommunityBoardNumber": 206,
	"LocationBoroughName": "BRONX",
	"Longitude": -73.89076232910156,
	"Latitude": 40.84048843383789
 },
 {
	"Item Type Name": "Temporary DOB registered oil fired mobile boiler",
	"JFNPermitNumber": "X00137970-I1-LA",
	"FilingNumber": "I1",
	"Created On Date": "03/05/2019 00:00:00-0500",
	"Work Type Name": "Oil Work",
	"Filing Type Name": "New Job Filing",
	"LocationBIN": "2015482",
	"Address": "98 VAN CORTLANDT PARK SOUTH",
	"CommunityBoardNumber": 208,
	"LocationBoroughName": "BRONX",
	"Longitude": -73.89151763916016,
	"Latitude": 40.884639739990234
 },
 {
	"Item Type Name": "Temporary DOB registered oil fired mobile boiler",
	"JFNPermitNumber": "X00097440-I1-LA",
	"FilingNumber": "I1",
	"Created On Date": "11/07/2018 00:00:00-0500",
	"Work Type Name": "Oil Work",
	"Filing Type Name": "New Job Filing",
	"LocationBIN": "2015482",
	"Address": "98 VAN CORTLANDT PARK SOUTH",
	"CommunityBoardNumber": 208,
	"LocationBoroughName": "BRONX",
	"Longitude": -73.89151763916016,
	"Latitude": 40.884639739990234
 },
 {
	"Item Type Name": "Temporary DOB registered oil fired mobile boiler",
	"JFNPermitNumber": "X00209535-I1-LA",
	"FilingNumber": "I1",
	"Created On Date": "08/13/2019 00:00:00-0400",
	"Work Type Name": "Oil Work",
	"Filing Type Name": "New Job Filing",
	"LocationBIN": "2016259",
	"Address": "617 EAST FORDHAM ROAD",
	"CommunityBoardNumber": 206,
	"LocationBoroughName": "BRONX",
	"Longitude": -73.88446807861328,
	"Latitude": 40.8585205078125
 },
 {
	"Item Type Name": "Temporary Oil Tank (above ground)",
	"JFNPermitNumber": "X00110126-I1-LA",
	"FilingNumber": "I1",
	"Created On Date": "12/13/2018 00:00:00-0500",
	"Work Type Name": "Oil Work",
	"Filing Type Name": "New Job Filing",
	"LocationBIN": "2021309",
	"Address": "551 COMMONWEALTH AVENUE",
	"CommunityBoardNumber": 209,
	"LocationBoroughName": "BRONX",
	"Longitude": -73.86495971679688,
	"Latitude": 40.81642150878906
 },
 {
	"Item Type Name": "Temporary DOB registered oil fired mobile boiler",
	"JFNPermitNumber": "X00131086-I1-LA",
	"FilingNumber": "I1",
	"Created On Date": "02/14/2019 00:00:00-0500",
	"Work Type Name": "Oil Work",
	"Filing Type Name": "New Job Filing",
	"LocationBIN": "2023475",
	"Address": "1057 BOYNTON AVENUE",
	"CommunityBoardNumber": 209,
	"LocationBoroughName": "BRONX",
	"Longitude": -73.87786865234375,
	"Latitude": 40.825809478759766
 },
 {
	"Item Type Name": "Temporary Oil Tank (above ground)",
	"JFNPermitNumber": "X00149387-I1-LA",
	"FilingNumber": "I1",
	"Created On Date": "04/02/2019 00:00:00-0400",
	"Work Type Name": "Oil Work",
	"Filing Type Name": "New Job Filing",
	"LocationBIN": "2049528",
	"Address": "2155 PAULDING AVENUE",
	"CommunityBoardNumber": 211,
	"LocationBoroughName": "BRONX",
	"Longitude": -73.86070251464844,
	"Latitude": 40.85523986816406
 },
 {
	"Item Type Name": "Temporary DOB registered oil fired mobile boiler",
	"JFNPermitNumber": "Permit Not Yet Issued",
	"FilingNumber": "I1",
	"Created On Date": "08/22/2019 00:00:00-0400",
	"Work Type Name": "Oil Work",
	"Filing Type Name": "New Job Filing",
	"LocationBIN": "2078259",
	"Address": "3255 RANDALL AVENUE",
	"CommunityBoardNumber": 210,
	"LocationBoroughName": "BRONX",
	"Longitude": -73.8143310546875,
	"Latitude": 40.830108642578125
 },
 {
	"Item Type Name": "Temporary DOB registered oil fired mobile boiler",
	"JFNPermitNumber": "X00109980-I1-LA",
	"FilingNumber": "I1",
	"Created On Date": "12/13/2018 00:00:00-0500",
	"Work Type Name": "Oil Work",
	"Filing Type Name": "New Job Filing",
	"LocationBIN": "2088351",
	"Address": "480 EAST  185 STREET",
	"CommunityBoardNumber": 206,
	"LocationBoroughName": "BRONX",
	"Longitude": -73.89192962646484,
	"Latitude": 40.85615921020508
 },
 {
	"Item Type Name": "Temporary DOB registered oil fired mobile boiler",
	"JFNPermitNumber": "B00102291-I1-LA",
	"FilingNumber": "I1",
	"Created On Date": "11/21/2018 00:00:00-0500",
	"Work Type Name": "Oil Work",
	"Filing Type Name": "New Job Filing",
	"LocationBIN": "3013802",
	"Address": "14 53 STREET",
	"CommunityBoardNumber": 307,
	"LocationBoroughName": "BROOKLYN",
	"Longitude": -74.02368927001953,
	"Latitude": 40.650020599365234
 },
 {
	"Item Type Name": "Temporary DOB registered oil fired mobile boiler",
	"JFNPermitNumber": "Permit Not Yet Issued",
	"FilingNumber": "I1",
	"Created On Date": "06/11/2019 00:00:00-0400",
	"Work Type Name": "Oil Work",
	"Filing Type Name": "New Job Filing",
	"LocationBIN": "3080068",
	"Address": "629 CHAUNCEY STREET",
	"CommunityBoardNumber": 304,
	"LocationBoroughName": "BROOKLYN",
	"Longitude": -73.90986633300781,
	"Latitude": 40.68321990966797
 },
 {
	"Item Type Name": "Temporary Oil Tank (above ground)",
	"JFNPermitNumber": "B00201667-I1-LA",
	"FilingNumber": "I1",
	"Created On Date": "07/29/2019 00:00:00-0400",
	"Work Type Name": "Oil Work",
	"Filing Type Name": "New Job Filing",
	"LocationBIN": "3086553",
	"Address": "1 ELTON STREET",
	"CommunityBoardNumber": 305,
	"LocationBoroughName": "BROOKLYN",
	"Longitude": -73.88536071777344,
	"Latitude": 40.68363952636719
 },
 {
	"Item Type Name": "Temporary DOB registered oil fired mobile boiler",
	"JFNPermitNumber": "B00106796-I1-LA",
	"FilingNumber": "I1",
	"Created On Date": "12/05/2018 00:00:00-0500",
	"Work Type Name": "Oil Work",
	"Filing Type Name": "New Job Filing",
	"LocationBIN": "3102215",
	"Address": "290 EAST   53 STREET",
	"CommunityBoardNumber": 317,
	"LocationBoroughName": "BROOKLYN",
	"Longitude": -73.9278793334961,
	"Latitude": 40.65272903442383
 },
 {
	"Item Type Name": "Temporary Oil Tank (above ground)",
	"JFNPermitNumber": "B00089286-I1-LA",
	"FilingNumber": "I1",
	"Created On Date": "10/17/2018 00:00:00-0400",
	"Work Type Name": "Oil Work",
	"Filing Type Name": "New Job Filing",
	"LocationBIN": "3115909",
	"Address": "79 WOODRUFF AVENUE",
	"CommunityBoardNumber": 314,
	"LocationBoroughName": "BROOKLYN",
	"Longitude": -73.96369171142578,
	"Latitude": 40.65354919433594
 },
 {
	"Item Type Name": "Temporary Oil Tank (above ground)",
	"JFNPermitNumber": "B00106437-I1-LA",
	"FilingNumber": "I1",
	"Created On Date": "12/04/2018 00:00:00-0500",
	"Work Type Name": "Oil Work",
	"Filing Type Name": "New Job Filing",
	"LocationBIN": "3118209",
	"Address": "703 CONEY ISLAND AVENUE",
	"CommunityBoardNumber": 314,
	"LocationBoroughName": "BROOKLYN",
	"Longitude": -73.96875,
	"Latitude": 40.64038848876953
 },
 {
	"Item Type Name": "Temporary DOB registered oil fired mobile boiler",
	"JFNPermitNumber": "B00167820-I1-LA",
	"FilingNumber": "I1",
	"Created On Date": "05/15/2019 00:00:00-0400",
	"Work Type Name": "Oil Work",
	"Filing Type Name": "New Job Filing",
	"LocationBIN": "3137062",
	"Address": "902 47 STREET",
	"CommunityBoardNumber": 312,
	"LocationBoroughName": "BROOKLYN",
	"Longitude": -73.99967956542969,
	"Latitude": 40.64113998413086
 },
 {
	"Item Type Name": "Temporary Oil Tank (above ground)",
	"JFNPermitNumber": "B00175238-I1-LA",
	"FilingNumber": "I1",
	"Created On Date": "06/03/2019 00:00:00-0400",
	"Work Type Name": "Oil Work",
	"Filing Type Name": "New Job Filing",
	"LocationBIN": "3137932",
	"Address": "5001 10 AVENUE",
	"CommunityBoardNumber": 312,
	"LocationBoroughName": "BROOKLYN",
	"Longitude": -73.99919891357422,
	"Latitude": 40.638118743896484
 },
 {
	"Item Type Name": "Temporary Oil Tank (above ground)",
	"JFNPermitNumber": "B00102792-I1-LA",
	"FilingNumber": "I1",
	"Created On Date": "11/24/2018 00:00:00-0500",
	"Work Type Name": "Oil Work",
	"Filing Type Name": "New Job Filing",
	"LocationBIN": "3326986",
	"Address": "409 14 STREET",
	"CommunityBoardNumber": 306,
	"LocationBoroughName": "BROOKLYN",
	"Longitude": -73.98245239257812,
	"Latitude": 40.66334915161133
 },
 {
	"Item Type Name": "Temporary Oil Tank (above ground)",
	"JFNPermitNumber": "B00101566-I1-LA",
	"FilingNumber": "I1",
	"Created On Date": "11/19/2018 00:00:00-0500",
	"Work Type Name": "Oil Work",
	"Filing Type Name": "New Job Filing",
	"LocationBIN": "3335262",
	"Address": "102 CUMBERLAND WALK",
	"CommunityBoardNumber": 302,
	"LocationBoroughName": "BROOKLYN",
	"Longitude": -73.97467803955078,
	"Latitude": 40.69466018676758
 },
 {
	"Item Type Name": "Temporary Oil Tank (above ground)",
	"JFNPermitNumber": "B00101564-I1-LA",
	"FilingNumber": "I1",
	"Created On Date": "11/19/2018 00:00:00-0500",
	"Work Type Name": "Oil Work",
	"Filing Type Name": "New Job Filing",
	"LocationBIN": "3335262",
	"Address": "102 CUMBERLAND WALK",
	"CommunityBoardNumber": 302,
	"LocationBoroughName": "BROOKLYN",
	"Longitude": -73.97467803955078,
	"Latitude": 40.69466018676758
 },
 {
	"Item Type Name": "Temporary DOB registered oil fired mobile boiler",
	"JFNPermitNumber": "null",
	"FilingNumber": "P1",
	"Created On Date": "12/27/2018 00:00:00-0500",
	"Work Type Name": "Oil Work",
	"Filing Type Name": "PAA",
	"LocationBIN": "3335262",
	"Address": "102 CUMBERLAND WALK",
	"CommunityBoardNumber": 302,
	"LocationBoroughName": "BROOKLYN",
	"Longitude": -73.97467803955078,
	"Latitude": 40.69466018676758
 },
 {
	"Item Type Name": "Temporary DOB registered oil fired mobile boiler",
	"JFNPermitNumber": "B00101563-I1-LA",
	"FilingNumber": "I1",
	"Created On Date": "11/19/2018 00:00:00-0500",
	"Work Type Name": "Oil Work",
	"Filing Type Name": "New Job Filing",
	"LocationBIN": "3335262",
	"Address": "102 CUMBERLAND WALK",
	"CommunityBoardNumber": 302,
	"LocationBoroughName": "BROOKLYN",
	"Longitude": -73.97467803955078,
	"Latitude": 40.69466018676758
 },
 {
	"Item Type Name": "Temporary DOB registered oil fired mobile boiler",
	"JFNPermitNumber": "B00101557-I1-LA",
	"FilingNumber": "I1",
	"Created On Date": "11/19/2018 00:00:00-0500",
	"Work Type Name": "Oil Work",
	"Filing Type Name": "New Job Filing",
	"LocationBIN": "3335262",
	"Address": "102 CUMBERLAND WALK",
	"CommunityBoardNumber": 302,
	"LocationBoroughName": "BROOKLYN",
	"Longitude": -73.97467803955078,
	"Latitude": 40.69466018676758
 },
 {
	"Item Type Name": "Temporary DOB registered oil fired mobile boiler",
	"JFNPermitNumber": "B00101546-I1-LA",
	"FilingNumber": "I1",
	"Created On Date": "11/19/2018 00:00:00-0500",
	"Work Type Name": "Oil Work",
	"Filing Type Name": "New Job Filing",
	"LocationBIN": "3335262",
	"Address": "102 CUMBERLAND WALK",
	"CommunityBoardNumber": 302,
	"LocationBoroughName": "BROOKLYN",
	"Longitude": -73.97467803955078,
	"Latitude": 40.69466018676758
 },
 {
	"Item Type Name": "Temporary Oil Tank (above ground)",
	"JFNPermitNumber": "B00152444-I1-LA",
	"FilingNumber": "I1",
	"Created On Date": "04/09/2019 00:00:00-0400",
	"Work Type Name": "Oil Work",
	"Filing Type Name": "New Job Filing",
	"LocationBIN": "3340264",
	"Address": "2675 WEST   36 STREET",
	"CommunityBoardNumber": 313,
	"LocationBoroughName": "BROOKLYN",
	"Longitude": -74.0022964477539,
	"Latitude": 40.580448150634766
 },
 {
	"Item Type Name": "Temporary DOB registered oil fired mobile boiler",
	"JFNPermitNumber": "B00090780-I1-LA",
	"FilingNumber": "I1",
	"Created On Date": "10/22/2018 00:00:00-0400",
	"Work Type Name": "Oil Work",
	"Filing Type Name": "New Job Filing",
	"LocationBIN": "3379800",
	"Address": "211 MCGUINESS BOULEVARD",
	"CommunityBoardNumber": 301,
	"LocationBoroughName": "BROOKLYN",
	"Longitude": -73.95137786865234,
	"Latitude": 40.72959899902344
 },
 {
	"Item Type Name": "Temporary Oil Tank (above ground)",
	"JFNPermitNumber": "Q00109003-I1-LA",
	"FilingNumber": "I1",
	"Created On Date": "12/11/2018 00:00:00-0500",
	"Work Type Name": "Oil Work",
	"Filing Type Name": "New Job Filing",
	"LocationBIN": "4000539",
	"Address": "2100 49 AVENUE",
	"CommunityBoardNumber": 402,
	"LocationBoroughName": "QUEENS",
	"Longitude": -73.94891357421875,
	"Latitude": 40.742191314697266
 },
 {
	"Item Type Name": "Temporary DOB registered oil fired mobile boiler",
	"JFNPermitNumber": "Q00109003-I1-LA",
	"FilingNumber": "I1",
	"Created On Date": "12/13/2018 00:00:00-0500",
	"Work Type Name": "Oil Work",
	"Filing Type Name": "New Job Filing",
	"LocationBIN": "4000539",
	"Address": "2100 49 AVENUE",
	"CommunityBoardNumber": 402,
	"LocationBoroughName": "QUEENS",
	"Longitude": -73.94891357421875,
	"Latitude": 40.742191314697266
 },
 {
	"Item Type Name": "Temporary DOB registered oil fired mobile boiler",
	"JFNPermitNumber": "Q00204993-I1-LA",
	"FilingNumber": "I1",
	"Created On Date": "08/05/2019 00:00:00-0400",
	"Work Type Name": "Oil Work",
	"Filing Type Name": "New Job Filing",
	"LocationBIN": "4003534",
	"Address": "31-10 THOMPSON AVENUE",
	"CommunityBoardNumber": 402,
	"LocationBoroughName": "QUEENS",
	"Longitude": -73.93515014648438,
	"Latitude": 40.743961334228516
 },
 {
	"Item Type Name": "Temporary Oil Tank (above ground)",
	"JFNPermitNumber": "Q00187222-I1-LA",
	"FilingNumber": "I1",
	"Created On Date": "07/01/2019 00:00:00-0400",
	"Work Type Name": "Oil Work",
	"Filing Type Name": "New Job Filing",
	"LocationBIN": "4005003",
	"Address": "41-18 CRESCENT STREET",
	"CommunityBoardNumber": 401,
	"LocationBoroughName": "QUEENS",
	"Longitude": -73.93981170654297,
	"Latitude": 40.75183868408203
 },
 {
	"Item Type Name": "Temporary Oil Tank (above ground)",
	"JFNPermitNumber": "Q00110400-I1-LA",
	"FilingNumber": "I1",
	"Created On Date": "12/14/2018 00:00:00-0500",
	"Work Type Name": "Oil Work",
	"Filing Type Name": "New Job Filing",
	"LocationBIN": "4007688",
	"Address": "28-27 30 STREET",
	"CommunityBoardNumber": 401,
	"LocationBoroughName": "QUEENS",
	"Longitude": -73.92156982421875,
	"Latitude": 40.76771926879883
 },
 {
	"Item Type Name": "Temporary Oil Tank (above ground)",
	"JFNPermitNumber": "Q00092377-I1-LA",
	"FilingNumber": "I1",
	"Created On Date": "10/25/2018 00:00:00-0400",
	"Work Type Name": "Oil Work",
	"Filing Type Name": "New Job Filing",
	"LocationBIN": "4032965",
	"Address": "26-49 96 STREET",
	"CommunityBoardNumber": 403,
	"LocationBoroughName": "QUEENS",
	"Longitude": -73.87254333496094,
	"Latitude": 40.7611083984375
 },
 {
	"Item Type Name": "Temporary Oil Tank (above ground)",
	"JFNPermitNumber": "Q00091863-I1-LA",
	"FilingNumber": "I1",
	"Created On Date": "10/24/2018 00:00:00-0400",
	"Work Type Name": "Oil Work",
	"Filing Type Name": "New Job Filing",
	"LocationBIN": "4047337",
	"Address": "96-05 HORACE HARDING EXPRESSWAY",
	"CommunityBoardNumber": 404,
	"LocationBoroughName": "QUEENS",
	"Longitude": -73.8635025024414,
	"Latitude": 40.73501968383789
 },
 {
	"Item Type Name": "Temporary DOB registered oil fired mobile boiler",
	"JFNPermitNumber": "Q00090147-I1-LA",
	"FilingNumber": "I1",
	"Created On Date": "10/19/2018 00:00:00-0400",
	"Work Type Name": "Oil Work",
	"Filing Type Name": "New Job Filing",
	"LocationBIN": "4047337",
	"Address": "96-05 HORACE HARDING EXPRESSWAY",
	"CommunityBoardNumber": 404,
	"LocationBoroughName": "QUEENS",
	"Longitude": -73.8635025024414,
	"Latitude": 40.73501968383789
 },
 {
	"Item Type Name": "Temporary DOB registered oil fired mobile boiler",
	"JFNPermitNumber": "Q00125669-I1-LA",
	"FilingNumber": "I1",
	"Created On Date": "01/31/2019 00:00:00-0500",
	"Work Type Name": "Oil Work",
	"Filing Type Name": "New Job Filing",
	"LocationBIN": "4437467",
	"Address": "55-15 GRAND AVENUE",
	"CommunityBoardNumber": 405,
	"LocationBoroughName": "QUEENS",
	"Longitude": -73.9142074584961,
	"Latitude": 40.7198600769043
 },
 {
	"Item Type Name": "Temporary DOB registered oil fired mobile boiler",
	"JFNPermitNumber": "Q00208930-I1-LA",
	"FilingNumber": "I1",
	"Created On Date": "08/12/2019 00:00:00-0400",
	"Work Type Name": "Oil Work",
	"Filing Type Name": "New Job Filing",
	"LocationBIN": "4456204",
	"Address": "251-32 61 AVENUE",
	"CommunityBoardNumber": 411,
	"LocationBoroughName": "QUEENS",
	"Longitude": -73.72554016113281,
	"Latitude": 40.75714111328125
 },
 {
	"Item Type Name": "Temporary DOB registered oil fired mobile boiler",
	"JFNPermitNumber": "null",
	"FilingNumber": "P1",
	"Created On Date": "08/13/2019 00:00:00-0400",
	"Work Type Name": "Oil Work",
	"Filing Type Name": "PAA",
	"LocationBIN": "5127042",
	"Address": "424 MARYLAND AVENUE",
	"CommunityBoardNumber": 501,
	"LocationBoroughName": "STATEN ISLAND",
	"Longitude": -74.0740966796875,
	"Latitude": 40.608150482177734
 },
 {
	"Item Type Name": "Temporary DOB registered oil fired mobile boiler",
	"JFNPermitNumber": "S00209747-I1-LA",
	"FilingNumber": "I1",
	"Created On Date": "08/13/2019 00:00:00-0400",
	"Work Type Name": "Oil Work",
	"Filing Type Name": "New Job Filing",
	"LocationBIN": "5127042",
	"Address": "424 MARYLAND AVENUE",
	"CommunityBoardNumber": 501,
	"LocationBoroughName": "STATEN ISLAND",
	"Longitude": -74.0740966796875,
	"Latitude": 40.608150482177734
 }
]