[
  {
	"Item Type Name": "Temporary Oil Tank (above ground)",
	"JFNPermitNumber": "M00154808-I1-LA",
	"FilingNumber": "I1",
	"Created On Date": "04/15/2019 00:00:00-0400",
	"Work Type Name": "Oil Work",
	"Filing Type Name": "New Job Filing",
	"LocationBIN": "1000007",
	"Address": "4 NEW YORK PLAZA",
	"CommunityBoardNumber": 101,
	"LocationBoroughName": "MANHATTAN",
	"Longitude": -74.0107192993164,
	"Latitude": 40.702781677246094
 },
 {
	"Item Type Name": "Temporary Oil Tank (above ground)",
	"JFNPermitNumber": "M00344765-I1-LA",
	"FilingNumber": "I1",
	"Created On Date": "04/27/2020 00:00:00-0400",
	"Work Type Name": "Oil Work",
	"Filing Type Name": "New Job Filing",
	"LocationBIN": "1000043",
	"Address": "1 BROADWAY",
	"CommunityBoardNumber": 101,
	"LocationBoroughName": "MANHATTAN",
	"Longitude": -74.01445770263672,
	"Latitude": 40.70494842529297
 },
 {
	"Item Type Name": "Temporary Oil Tank (above ground)",
	"JFNPermitNumber": "M00344090-S2-LA",
	"FilingNumber": "S2",
	"Created On Date": "04/23/2020 00:00:00-0400",
	"Work Type Name": "Oil Work",
	"Filing Type Name": "Subsequent Filing",
	"LocationBIN": "1000043",
	"Address": "1 BROADWAY",
	"CommunityBoardNumber": 101,
	"LocationBoroughName": "MANHATTAN",
	"Longitude": -74.01445770263672,
	"Latitude": 40.70494842529297
 },
 {
	"Item Type Name": "Temporary Oil Tank (above ground)",
	"JFNPermitNumber": "M00339876-S1-LA",
	"FilingNumber": "S1",
	"Created On Date": "04/02/2020 00:00:00-0400",
	"Work Type Name": "Oil Work",
	"Filing Type Name": "Subsequent Filing",
	"LocationBIN": "1000043",
	"Address": "1 BROADWAY",
	"CommunityBoardNumber": 101,
	"LocationBoroughName": "MANHATTAN",
	"Longitude": -74.01445770263672,
	"Latitude": 40.70494842529297
 },
 {
	"Item Type Name": "Temporary DOB registered oil fired mobile boiler",
	"JFNPermitNumber": "M00178122-I1-LA",
	"FilingNumber": "I1",
	"Created On Date": "06/10/2019 00:00:00-0400",
	"Work Type Name": "Oil Work",
	"Filing Type Name": "New Job Filing",
	"LocationBIN": "1001416",
	"Address": "240 GREENWICH STREET",
	"CommunityBoardNumber": 101,
	"LocationBoroughName": "MANHATTAN",
	"Longitude": -74.01223754882812,
	"Latitude": 40.71451187133789
 },
 {
	"Item Type Name": "Temporary DOB registered oil fired mobile boiler",
	"JFNPermitNumber": "M00158303-S1-LA",
	"FilingNumber": "S1",
	"Created On Date": "06/27/2019 00:00:00-0400",
	"Work Type Name": "Oil Work",
	"Filing Type Name": "Subsequent Filing",
	"LocationBIN": "1001531",
	"Address": "166 DUANE STREET",
	"CommunityBoardNumber": 101,
	"LocationBoroughName": "MANHATTAN",
	"Longitude": -74.0094223022461,
	"Latitude": 40.716739654541016
 },
 {
	"Item Type Name": "Temporary DOB registered oil fired mobile boiler",
	"JFNPermitNumber": "M00158303-I1-LA",
	"FilingNumber": "I1",
	"Created On Date": "04/23/2019 00:00:00-0400",
	"Work Type Name": "Oil Work",
	"Filing Type Name": "New Job Filing",
	"LocationBIN": "1001531",
	"Address": "166 DUANE STREET",
	"CommunityBoardNumber": 101,
	"LocationBoroughName": "MANHATTAN",
	"Longitude": -74.0094223022461,
	"Latitude": 40.716739654541016
 },
 {
	"Item Type Name": "Temporary Oil Tank (above ground)",
	"JFNPermitNumber": "M00295036-I1-LA",
	"FilingNumber": "I1",
	"Created On Date": "01/10/2020 00:00:00-0500",
	"Work Type Name": "Oil Work",
	"Filing Type Name": "New Job Filing",
	"LocationBIN": "1001648",
	"Address": "299 BROADWAY",
	"CommunityBoardNumber": 101,
	"LocationBoroughName": "MANHATTAN",
	"Longitude": -74.00591278076172,
	"Latitude": 40.715179443359375
 },
 {
	"Item Type Name": "Temporary DOB registered oil fired mobile boiler",
	"JFNPermitNumber": "M00430493-I1-LA",
	"FilingNumber": "I1",
	"Created On Date": "11/19/2020 00:00:00-0500",
	"Work Type Name": "Oil Work",
	"Filing Type Name": "New Job Filing",
	"LocationBIN": "1001874",
	"Address": "80 LEONARD STREET",
	"CommunityBoardNumber": 101,
	"LocationBoroughName": "MANHATTAN",
	"Longitude": -74.00525665283203,
	"Latitude": 40.717079162597656
 },
 {
	"Item Type Name": "Temporary DOB registered oil fired mobile boiler",
	"JFNPermitNumber": "M00217534-I1-LA",
	"FilingNumber": "I1",
	"Created On Date": "08/27/2019 00:00:00-0400",
	"Work Type Name": "Oil Work",
	"Filing Type Name": "New Job Filing",
	"LocationBIN": "1001874",
	"Address": "80 LEONARD STREET",
	"CommunityBoardNumber": 101,
	"LocationBoroughName": "MANHATTAN",
	"Longitude": -74.00525665283203,
	"Latitude": 40.717079162597656
 },
 {
	"Item Type Name": "Temporary DOB registered oil fired mobile boiler",
	"JFNPermitNumber": "M00442456-I1-LA",
	"FilingNumber": "I1",
	"Created On Date": "12/18/2020 00:00:00-0500",
	"Work Type Name": "Oil Work",
	"Filing Type Name": "New Job Filing",
	"LocationBIN": "1002195",
	"Address": "54 WHITE STREET",
	"CommunityBoardNumber": 101,
	"LocationBoroughName": "MANHATTAN",
	"Longitude": -74.00370788574219,
	"Latitude": 40.71857833862305
 },
 {
	"Item Type Name": "Temporary DOB registered oil fired mobile boiler",
	"JFNPermitNumber": "M00090177-I1-LA",
	"FilingNumber": "I1",
	"Created On Date": "10/19/2018 00:00:00-0400",
	"Work Type Name": "Oil Work",
	"Filing Type Name": "New Job Filing",
	"LocationBIN": "1002831",
	"Address": "67 VESTRY STREET",
	"CommunityBoardNumber": 101,
	"LocationBoroughName": "MANHATTAN",
	"Longitude": -74.0112075805664,
	"Latitude": 40.722740173339844
 },
 {
	"Item Type Name": "Temporary Oil Tank (above ground)",
	"JFNPermitNumber": "M00276795-I1-LA",
	"FilingNumber": "I1",
	"Created On Date": "12/05/2019 00:00:00-0500",
	"Work Type Name": "Oil Work",
	"Filing Type Name": "New Job Filing",
	"LocationBIN": "1003142",
	"Address": "286 SOUTH STREET",
	"CommunityBoardNumber": 103,
	"LocationBoroughName": "MANHATTAN",
	"Longitude": -73.98621368408203,
	"Latitude": 40.710880279541016
 },
 {
	"Item Type Name": "Temporary DOB registered oil fired mobile boiler",
	"JFNPermitNumber": "M00303269-I1-LA",
	"FilingNumber": "I1",
	"Created On Date": "01/24/2020 00:00:00-0500",
	"Work Type Name": "Oil Work",
	"Filing Type Name": "New Job Filing",
	"LocationBIN": "1004230",
	"Address": "63 CLINTON STREET",
	"CommunityBoardNumber": 103,
	"LocationBoroughName": "MANHATTAN",
	"Longitude": -73.98513793945312,
	"Latitude": 40.71950912475586
 },
 {
	"Item Type Name": "Temporary DOB registered oil fired mobile boiler",
	"JFNPermitNumber": "M00328387-I1-LA",
	"FilingNumber": "I1",
	"Created On Date": "03/06/2020 00:00:00-0500",
	"Work Type Name": "Oil Work",
	"Filing Type Name": "New Job Filing",
	"LocationBIN": "1004302",
	"Address": "122 NORFOLK STREET",
	"CommunityBoardNumber": 103,
	"LocationBoroughName": "MANHATTAN",
	"Longitude": -73.98668670654297,
	"Latitude": 40.7193489074707
 },
 {
	"Item Type Name": "Temporary DOB registered oil fired mobile boiler",
	"JFNPermitNumber": "M00359709-I1-LA",
	"FilingNumber": "I1",
	"Created On Date": "06/18/2020 00:00:00-0400",
	"Work Type Name": "Oil Work",
	"Filing Type Name": "New Job Filing",
	"LocationBIN": "1004313",
	"Address": "153 NORFOLK STREET",
	"CommunityBoardNumber": 103,
	"LocationBoroughName": "MANHATTAN",
	"Longitude": -73.98654174804688,
	"Latitude": 40.720558166503906
 },
 {
	"Item Type Name": "Temporary Oil Tank (above ground)",
	"JFNPermitNumber": "M00299813-I1-LA",
	"FilingNumber": "I1",
	"Created On Date": "01/20/2020 00:00:00-0500",
	"Work Type Name": "Oil Work",
	"Filing Type Name": "New Job Filing",
	"LocationBIN": "1004462",
	"Address": "715 EAST    5 STREET",
	"CommunityBoardNumber": 103,
	"LocationBoroughName": "MANHATTAN",
	"Longitude": -73.97885131835938,
	"Latitude": 40.72277069091797
 },
 {
	"Item Type Name": "Temporary DOB registered oil fired mobile boiler",
	"JFNPermitNumber": "null",
	"FilingNumber": "P1",
	"Created On Date": "03/23/2020 00:00:00-0400",
	"Work Type Name": "Oil Work",
	"Filing Type Name": "PAA",
	"LocationBIN": "1004564",
	"Address": "730 EAST   12 STREET",
	"CommunityBoardNumber": 103,
	"LocationBoroughName": "MANHATTAN",
	"Longitude": -73.97505950927734,
	"Latitude": 40.726009368896484
 },
 {
	"Item Type Name": "Temporary DOB registered oil fired mobile boiler",
	"JFNPermitNumber": "M00262400-I1-LA",
	"FilingNumber": "I1",
	"Created On Date": "11/11/2019 00:00:00-0500",
	"Work Type Name": "Oil Work",
	"Filing Type Name": "New Job Filing",
	"LocationBIN": "1004564",
	"Address": "730 EAST   12 STREET",
	"CommunityBoardNumber": 103,
	"LocationBoroughName": "MANHATTAN",
	"Longitude": -73.97505950927734,
	"Latitude": 40.726009368896484
 },
 {
	"Item Type Name": "Temporary Oil Tank (above ground)",
	"JFNPermitNumber": "M00157816-I1-LA",
	"FilingNumber": "I1",
	"Created On Date": "04/22/2019 00:00:00-0400",
	"Work Type Name": "Oil Work",
	"Filing Type Name": "New Job Filing",
	"LocationBIN": "1004645",
	"Address": "55 AVENUE C",
	"CommunityBoardNumber": 103,
	"LocationBoroughName": "MANHATTAN",
	"Longitude": -73.98027038574219,
	"Latitude": 40.72261047363281
 },
 {
	"Item Type Name": "Temporary DOB registered oil fired mobile boiler",
	"JFNPermitNumber": "M00118211-I1-LA",
	"FilingNumber": "I1",
	"Created On Date": "01/10/2019 00:00:00-0500",
	"Work Type Name": "Oil Work",
	"Filing Type Name": "New Job Filing",
	"LocationBIN": "1004968",
	"Address": "184 EAST    3 STREET",
	"CommunityBoardNumber": 103,
	"LocationBoroughName": "MANHATTAN",
	"Longitude": -73.9839096069336,
	"Latitude": 40.722808837890625
 },
 {
	"Item Type Name": "Temporary Oil Tank (above ground)",
	"JFNPermitNumber": "M00115489-I1-LA",
	"FilingNumber": "I1",
	"Created On Date": "01/03/2019 00:00:00-0500",
	"Work Type Name": "Oil Work",
	"Filing Type Name": "New Job Filing",
	"LocationBIN": "1005201",
	"Address": "204 AVENUE A",
	"CommunityBoardNumber": 103,
	"LocationBoroughName": "MANHATTAN",
	"Longitude": -73.98075103759766,
	"Latitude": 40.7293815612793
 },
 {
	"Item Type Name": "Temporary Oil Tank (above ground)",
	"JFNPermitNumber": "M00090131-I1-LA",
	"FilingNumber": "I1",
	"Created On Date": "10/19/2018 00:00:00-0400",
	"Work Type Name": "Oil Work",
	"Filing Type Name": "New Job Filing",
	"LocationBIN": "1005528",
	"Address": "164 ALLEN STREET",
	"CommunityBoardNumber": 103,
	"LocationBoroughName": "MANHATTAN",
	"Longitude": -73.98902130126953,
	"Latitude": 40.72101974487305
 },
 {
	"Item Type Name": "Temporary Oil Tank (above ground)",
	"JFNPermitNumber": "M00114837-I1-LA",
	"FilingNumber": "I1",
	"Created On Date": "01/02/2019 00:00:00-0500",
	"Work Type Name": "Oil Work",
	"Filing Type Name": "New Job Filing",
	"LocationBIN": "1005562",
	"Address": "102 FORSYTH STREET",
	"CommunityBoardNumber": 103,
	"LocationBoroughName": "MANHATTAN",
	"Longitude": -73.99256896972656,
	"Latitude": 40.71831130981445
 },
 {
	"Item Type Name": "Temporary DOB registered oil fired mobile boiler",
	"JFNPermitNumber": "M00091230-I1-LA",
	"FilingNumber": "I1",
	"Created On Date": "10/23/2018 00:00:00-0400",
	"Work Type Name": "Oil Work",
	"Filing Type Name": "New Job Filing",
	"LocationBIN": "1005563",
	"Address": "104 FORSYTH STREET",
	"CommunityBoardNumber": 103,
	"LocationBoroughName": "MANHATTAN",
	"Longitude": -73.99253845214844,
	"Latitude": 40.718379974365234
 },
 {
	"Item Type Name": "Temporary DOB registered oil fired mobile boiler",
	"JFNPermitNumber": "M00219688-I1-LA",
	"FilingNumber": "I1",
	"Created On Date": "08/29/2019 00:00:00-0400",
	"Work Type Name": "Oil Work",
	"Filing Type Name": "New Job Filing",
	"LocationBIN": "1005591",
	"Address": "135 ELDRIDGE STREET",
	"CommunityBoardNumber": 103,
	"LocationBoroughName": "MANHATTAN",
	"Longitude": -73.99176025390625,
	"Latitude": 40.71910858154297
 },
 {
	"Item Type Name": "Temporary DOB registered oil fired mobile boiler",
	"JFNPermitNumber": "Permit Not Yet Issued",
	"FilingNumber": "I1",
	"Created On Date": "02/26/2020 00:00:00-0500",
	"Work Type Name": "Oil Work",
	"Filing Type Name": "New Job Filing",
	"LocationBIN": "1005646",
	"Address": "111 CHRYSTIE STREET",
	"CommunityBoardNumber": 103,
	"LocationBoroughName": "MANHATTAN",
	"Longitude": -73.99400329589844,
	"Latitude": 40.71855926513672
 },
 {
	"Item Type Name": "Temporary DOB registered oil fired mobile boiler",
	"JFNPermitNumber": "M00160849-I1-LA",
	"FilingNumber": "I1",
	"Created On Date": "04/30/2019 00:00:00-0400",
	"Work Type Name": "Oil Work",
	"Filing Type Name": "New Job Filing",
	"LocationBIN": "1006463",
	"Address": "219 EAST   10 STREET",
	"CommunityBoardNumber": 103,
	"LocationBoroughName": "MANHATTAN",
	"Longitude": -73.9856185913086,
	"Latitude": 40.72951126098633
 },
 {
	"Item Type Name": "Temporary Oil Tank (above ground)",
	"JFNPermitNumber": "M00278248-I1-LA",
	"FilingNumber": "I1",
	"Created On Date": "12/09/2019 00:00:00-0500",
	"Work Type Name": "Oil Work",
	"Filing Type Name": "New Job Filing",
	"LocationBIN": "1006475",
	"Address": "186 2 AVENUE",
	"CommunityBoardNumber": 103,
	"LocationBoroughName": "MANHATTAN",
	"Longitude": -73.9857406616211,
	"Latitude": 40.730690002441406
 },
 {
	"Item Type Name": "Temporary DOB registered oil fired mobile boiler",
	"JFNPermitNumber": "M00221878-I1-LA",
	"FilingNumber": "I1",
	"Created On Date": "09/04/2019 00:00:00-0400",
	"Work Type Name": "Oil Work",
	"Filing Type Name": "New Job Filing",
	"LocationBIN": "1006640",
	"Address": "211 EAST    5 STREET",
	"CommunityBoardNumber": 103,
	"LocationBoroughName": "MANHATTAN",
	"Longitude": -73.99040985107422,
	"Latitude": 40.727630615234375
 },
 {
	"Item Type Name": "Temporary DOB registered oil fired mobile boiler",
	"JFNPermitNumber": "M00437372-I1-LA",
	"FilingNumber": "I1",
	"Created On Date": "12/07/2020 00:00:00-0500",
	"Work Type Name": "Oil Work",
	"Filing Type Name": "New Job Filing",
	"LocationBIN": "1006761",
	"Address": "5 ST MARKS PLACE",
	"CommunityBoardNumber": 103,
	"LocationBoroughName": "MANHATTAN",
	"Longitude": -73.98927307128906,
	"Latitude": 40.72951889038086
 },
 {
	"Item Type Name": "Temporary DOB registered oil fired mobile boiler",
	"JFNPermitNumber": "M00207537-I1-LA",
	"FilingNumber": "I1",
	"Created On Date": "08/21/2019 00:00:00-0400",
	"Work Type Name": "Oil Work",
	"Filing Type Name": "New Job Filing",
	"LocationBIN": "1007048",
	"Address": "483 BROADWAY",
	"CommunityBoardNumber": 102,
	"LocationBoroughName": "MANHATTAN",
	"Longitude": -74.00045013427734,
	"Latitude": 40.7218017578125
 },
 {
	"Item Type Name": "Temporary DOB registered oil fired mobile boiler",
	"JFNPermitNumber": "M00417756-I1-LA",
	"FilingNumber": "I1",
	"Created On Date": "10/22/2020 00:00:00-0400",
	"Work Type Name": "Oil Work",
	"Filing Type Name": "New Job Filing",
	"LocationBIN": "1007477",
	"Address": "234 MOTT STREET",
	"CommunityBoardNumber": 102,
	"LocationBoroughName": "MANHATTAN",
	"Longitude": -73.99484252929688,
	"Latitude": 40.72254180908203
 },
 {
	"Item Type Name": "Temporary DOB registered oil fired mobile boiler",
	"JFNPermitNumber": "M00255762-I1-LA",
	"FilingNumber": "I1",
	"Created On Date": "10/30/2019 00:00:00-0400",
	"Work Type Name": "Oil Work",
	"Filing Type Name": "New Job Filing",
	"LocationBIN": "1008020",
	"Address": "143 PRINCE STREET",
	"CommunityBoardNumber": 102,
	"LocationBoroughName": "MANHATTAN",
	"Longitude": -74.00061798095703,
	"Latitude": 40.7258186340332
 },
 {
	"Item Type Name": "Temporary Oil Tank (above ground)",
	"JFNPermitNumber": "M00393789-I1-LA",
	"FilingNumber": "I1",
	"Created On Date": "09/02/2020 00:00:00-0400",
	"Work Type Name": "Oil Work",
	"Filing Type Name": "New Job Filing",
	"LocationBIN": "1008211",
	"Address": "628 BROADWAY",
	"CommunityBoardNumber": 102,
	"LocationBoroughName": "MANHATTAN",
	"Longitude": -73.99578857421875,
	"Latitude": 40.72591018676758
 },
 {
	"Item Type Name": "Temporary DOB registered oil fired mobile boiler",
	"JFNPermitNumber": "null",
	"FilingNumber": "P1",
	"Created On Date": "01/30/2020 00:00:00-0500",
	"Work Type Name": "Oil Work",
	"Filing Type Name": "PAA",
	"LocationBIN": "1008241",
	"Address": "505 LAGUARDIA PLACE",
	"CommunityBoardNumber": 102,
	"LocationBoroughName": "MANHATTAN",
	"Longitude": -73.9990234375,
	"Latitude": 40.72713851928711
 },
 {
	"Item Type Name": "Temporary DOB registered oil fired mobile boiler",
	"JFNPermitNumber": "Permit Not Yet Issued",
	"FilingNumber": "I1",
	"Created On Date": "04/01/2020 00:00:00-0400",
	"Work Type Name": "Oil Work",
	"Filing Type Name": "New Job Filing",
	"LocationBIN": "1008241",
	"Address": "505 LAGUARDIA PLACE",
	"CommunityBoardNumber": 102,
	"LocationBoroughName": "MANHATTAN",
	"Longitude": -73.9990234375,
	"Latitude": 40.72713851928711
 },
 {
	"Item Type Name": "Temporary DOB registered oil fired mobile boiler",
	"JFNPermitNumber": "M00273511-I1-LA",
	"FilingNumber": "I1",
	"Created On Date": "11/27/2019 00:00:00-0500",
	"Work Type Name": "Oil Work",
	"Filing Type Name": "New Job Filing",
	"LocationBIN": "1008241",
	"Address": "505 LAGUARDIA PLACE",
	"CommunityBoardNumber": 102,
	"LocationBoroughName": "MANHATTAN",
	"Longitude": -73.9990234375,
	"Latitude": 40.72713851928711
 },
 {
	"Item Type Name": "Temporary DOB registered oil fired mobile boiler",
	"JFNPermitNumber": "M00181550-I1-LA",
	"FilingNumber": "I1",
	"Created On Date": "06/20/2019 00:00:00-0400",
	"Work Type Name": "Oil Work",
	"Filing Type Name": "New Job Filing",
	"LocationBIN": "1008471",
	"Address": "682 BROADWAY",
	"CommunityBoardNumber": 102,
	"LocationBoroughName": "MANHATTAN",
	"Longitude": -73.9945297241211,
	"Latitude": 40.727569580078125
 },
 {
	"Item Type Name": "Temporary DOB registered oil fired mobile boiler",
	"JFNPermitNumber": "M00184197-I1-LA",
	"FilingNumber": "I1",
	"Created On Date": "06/24/2019 00:00:00-0400",
	"Work Type Name": "Oil Work",
	"Filing Type Name": "New Job Filing",
	"LocationBIN": "1008507",
	"Address": "686 BROADWAY",
	"CommunityBoardNumber": 102,
	"LocationBoroughName": "MANHATTAN",
	"Longitude": -73.99424743652344,
	"Latitude": 40.727909088134766
 },
 {
	"Item Type Name": "Temporary DOB registered oil fired mobile boiler",
	"JFNPermitNumber": "M00096948-I1-LA",
	"FilingNumber": "I1",
	"Created On Date": "11/06/2018 00:00:00-0500",
	"Work Type Name": "Oil Work",
	"Filing Type Name": "New Job Filing",
	"LocationBIN": "1008633",
	"Address": "222 THOMPSON STREET",
	"CommunityBoardNumber": 102,
	"LocationBoroughName": "MANHATTAN",
	"Longitude": -73.99883270263672,
	"Latitude": 40.72908020019531
 },
 {
	"Item Type Name": "Temporary DOB registered oil fired mobile boiler",
	"JFNPermitNumber": "M00339571-I1-LA",
	"FilingNumber": "I1",
	"Created On Date": "04/02/2020 00:00:00-0400",
	"Work Type Name": "Oil Work",
	"Filing Type Name": "New Job Filing",
	"LocationBIN": "1008701",
	"Address": "110 WEST    3 STREET",
	"CommunityBoardNumber": 102,
	"LocationBoroughName": "MANHATTAN",
	"Longitude": -73.99992370605469,
	"Latitude": 40.7300910949707
 },
 {
	"Item Type Name": "Temporary DOB registered oil fired mobile boiler",
	"JFNPermitNumber": "M00196207-I1-LA",
	"FilingNumber": "I1",
	"Created On Date": "07/18/2019 00:00:00-0400",
	"Work Type Name": "Oil Work",
	"Filing Type Name": "New Job Filing",
	"LocationBIN": "1008731",
	"Address": "103 MACDOUGAL STREET",
	"CommunityBoardNumber": 102,
	"LocationBoroughName": "MANHATTAN",
	"Longitude": -74.00106048583984,
	"Latitude": 40.729801177978516
 },
 {
	"Item Type Name": "Temporary DOB registered oil fired mobile boiler",
	"JFNPermitNumber": "M00093537-I1-LA",
	"FilingNumber": "I1",
	"Created On Date": "10/29/2018 00:00:00-0400",
	"Work Type Name": "Oil Work",
	"Filing Type Name": "New Job Filing",
	"LocationBIN": "1008817",
	"Address": "2 WASHINGTON PLACE",
	"CommunityBoardNumber": 102,
	"LocationBoroughName": "MANHATTAN",
	"Longitude": -73.99413299560547,
	"Latitude": 40.72901153564453
 },
 {
	"Item Type Name": "Temporary DOB registered oil fired mobile boiler",
	"JFNPermitNumber": "M00339565-I1-LA",
	"FilingNumber": "I1",
	"Created On Date": "04/02/2020 00:00:00-0400",
	"Work Type Name": "Oil Work",
	"Filing Type Name": "New Job Filing",
	"LocationBIN": "1008822",
	"Address": "24 WAVERLY PLACE",
	"CommunityBoardNumber": 102,
	"LocationBoroughName": "MANHATTAN",
	"Longitude": -73.9951171875,
	"Latitude": 40.73027038574219
 },
 {
	"Item Type Name": "Temporary DOB registered oil fired mobile boiler",
	"JFNPermitNumber": "M00304681-I1-LA",
	"FilingNumber": "I1",
	"Created On Date": "01/28/2020 00:00:00-0500",
	"Work Type Name": "Oil Work",
	"Filing Type Name": "New Job Filing",
	"LocationBIN": "1008855",
	"Address": "27 WASHINGTON SQUARE NORTH",
	"CommunityBoardNumber": 102,
	"LocationBoroughName": "MANHATTAN",
	"Longitude": -73.998291015625,
	"Latitude": 40.73234939575195
 },
 {
	"Item Type Name": "Temporary DOB registered oil fired mobile boiler",
	"JFNPermitNumber": "M00232601-I1-LA",
	"FilingNumber": "I1",
	"Created On Date": "09/21/2019 00:00:00-0400",
	"Work Type Name": "Oil Work",
	"Filing Type Name": "New Job Filing",
	"LocationBIN": "1008855",
	"Address": "27 WASHINGTON SQUARE NORTH",
	"CommunityBoardNumber": 102,
	"LocationBoroughName": "MANHATTAN",
	"Longitude": -73.998291015625,
	"Latitude": 40.73234939575195
 },
 {
	"Item Type Name": "Temporary DOB registered oil fired mobile boiler",
	"JFNPermitNumber": "M00396031-I1-LA",
	"FilingNumber": "I1",
	"Created On Date": "09/08/2020 00:00:00-0400",
	"Work Type Name": "Oil Work",
	"Filing Type Name": "New Job Filing",
	"LocationBIN": "1009100",
	"Address": "55 EAST    9 STREET",
	"CommunityBoardNumber": 102,
	"LocationBoroughName": "MANHATTAN",
	"Longitude": -73.99279022216797,
	"Latitude": 40.73175811767578
 },
 {
	"Item Type Name": "Temporary DOB registered oil fired mobile boiler",
	"JFNPermitNumber": "M00087985-I1-LA",
	"FilingNumber": "I1",
	"Created On Date": "10/16/2018 00:00:00-0400",
	"Work Type Name": "Oil Work",
	"Filing Type Name": "New Job Filing",
	"LocationBIN": "1009134",
	"Address": "817 BROADWAY",
	"CommunityBoardNumber": 102,
	"LocationBoroughName": "MANHATTAN",
	"Longitude": -73.99152374267578,
	"Latitude": 40.73320007324219
 },
 {
	"Item Type Name": "Temporary DOB registered oil fired mobile boiler",
	"JFNPermitNumber": "M00087985-I1-LA",
	"FilingNumber": "I1",
	"Created On Date": "10/15/2018 00:00:00-0400",
	"Work Type Name": "Oil Work",
	"Filing Type Name": "New Job Filing",
	"LocationBIN": "1009134",
	"Address": "817 BROADWAY",
	"CommunityBoardNumber": 102,
	"LocationBoroughName": "MANHATTAN",
	"Longitude": -73.99152374267578,
	"Latitude": 40.73320007324219
 },
 {
	"Item Type Name": "Temporary DOB registered oil fired mobile boiler",
	"JFNPermitNumber": "M00121381-I1-LA",
	"FilingNumber": "I1",
	"Created On Date": "01/18/2019 00:00:00-0500",
	"Work Type Name": "Oil Work",
	"Filing Type Name": "New Job Filing",
	"LocationBIN": "1009204",
	"Address": "39 EAST   12 STREET",
	"CommunityBoardNumber": 102,
	"LocationBoroughName": "MANHATTAN",
	"Longitude": -73.99179077148438,
	"Latitude": 40.733760833740234
 },
 {
	"Item Type Name": "Temporary DOB registered oil fired mobile boiler",
	"JFNPermitNumber": "M00429564-I1-LA",
	"FilingNumber": "I1",
	"Created On Date": "11/18/2020 00:00:00-0500",
	"Work Type Name": "Oil Work",
	"Filing Type Name": "New Job Filing",
	"LocationBIN": "1009222",
	"Address": "11 FIFTH AVENUE",
	"CommunityBoardNumber": 102,
	"LocationBoroughName": "MANHATTAN",
	"Longitude": -73.99566650390625,
	"Latitude": 40.73236083984375
 },
 {
	"Item Type Name": "Temporary DOB registered oil fired mobile boiler",
	"JFNPermitNumber": "M00091422-I1-LA",
	"FilingNumber": "I1",
	"Created On Date": "10/23/2018 00:00:00-0400",
	"Work Type Name": "Oil Work",
	"Filing Type Name": "New Job Filing",
	"LocationBIN": "1009270",
	"Address": "5 EAST   10 STREET",
	"CommunityBoardNumber": 102,
	"LocationBoroughName": "MANHATTAN",
	"Longitude": -73.99468994140625,
	"Latitude": 40.733341217041016
 },
 {
	"Item Type Name": "Temporary Oil Tank (above ground)",
	"JFNPermitNumber": "null",
	"FilingNumber": "P1",
	"Created On Date": "11/17/2020 00:00:00-0500",
	"Work Type Name": "Oil Work",
	"Filing Type Name": "PAA",
	"LocationBIN": "1009482",
	"Address": "24 FIFTH AVENUE",
	"CommunityBoardNumber": 102,
	"LocationBoroughName": "MANHATTAN",
	"Longitude": -73.99630737304688,
	"Latitude": 40.73324966430664
 },
 {
	"Item Type Name": "Temporary DOB registered oil fired mobile boiler",
	"JFNPermitNumber": "null",
	"FilingNumber": "P1",
	"Created On Date": "11/17/2020 00:00:00-0500",
	"Work Type Name": "Oil Work",
	"Filing Type Name": "PAA",
	"LocationBIN": "1009482",
	"Address": "24 FIFTH AVENUE",
	"CommunityBoardNumber": 102,
	"LocationBoroughName": "MANHATTAN",
	"Longitude": -73.99630737304688,
	"Latitude": 40.73324966430664
 },
 {
	"Item Type Name": "Temporary DOB registered oil fired mobile boiler",
	"JFNPermitNumber": "M00426665-I1-LA",
	"FilingNumber": "I1",
	"Created On Date": "11/11/2020 00:00:00-0500",
	"Work Type Name": "Oil Work",
	"Filing Type Name": "New Job Filing",
	"LocationBIN": "1009482",
	"Address": "24 FIFTH AVENUE",
	"CommunityBoardNumber": 102,
	"LocationBoroughName": "MANHATTAN",
	"Longitude": -73.99630737304688,
	"Latitude": 40.73324966430664
 },
 {
	"Item Type Name": "Temporary DOB registered oil fired mobile boiler",
	"JFNPermitNumber": "M00088130-S1-LA",
	"FilingNumber": "S1",
	"Created On Date": "04/26/2019 00:00:00-0400",
	"Work Type Name": "Oil Work",
	"Filing Type Name": "Subsequent Filing",
	"LocationBIN": "1009722",
	"Address": "55 WEST   13 STREET",
	"CommunityBoardNumber": 102,
	"LocationBoroughName": "MANHATTAN",
	"Longitude": -73.99649810791016,
	"Latitude": 40.7365608215332
 },
 {
	"Item Type Name": "Temporary DOB registered oil fired mobile boiler",
	"JFNPermitNumber": "M00088130-I1-LA",
	"FilingNumber": "I1",
	"Created On Date": "10/15/2018 00:00:00-0400",
	"Work Type Name": "Oil Work",
	"Filing Type Name": "New Job Filing",
	"LocationBIN": "1009722",
	"Address": "55 WEST   13 STREET",
	"CommunityBoardNumber": 102,
	"LocationBoroughName": "MANHATTAN",
	"Longitude": -73.99649810791016,
	"Latitude": 40.7365608215332
 },
 {
	"Item Type Name": "Temporary Oil Tank (above ground)",
	"JFNPermitNumber": "M00337304-I1-LA",
	"FilingNumber": "I1",
	"Created On Date": "03/25/2020 00:00:00-0400",
	"Work Type Name": "Oil Work",
	"Filing Type Name": "New Job Filing",
	"LocationBIN": "1010016",
	"Address": "42 GROVE STREET",
	"CommunityBoardNumber": 102,
	"LocationBoroughName": "MANHATTAN",
	"Longitude": -74.00430297851562,
	"Latitude": 40.73258972167969
 },
 {
	"Item Type Name": "Temporary Oil Tank (above ground)",
	"JFNPermitNumber": "M00415963-I1-LA",
	"FilingNumber": "I1",
	"Created On Date": "10/19/2020 00:00:00-0400",
	"Work Type Name": "Oil Work",
	"Filing Type Name": "New Job Filing",
	"LocationBIN": "1010150",
	"Address": "25 CORNELIA STREET",
	"CommunityBoardNumber": 102,
	"LocationBoroughName": "MANHATTAN",
	"Longitude": -74.00235748291016,
	"Latitude": 40.73154830932617
 },
 {
	"Item Type Name": "Temporary DOB registered oil fired mobile boiler",
	"JFNPermitNumber": "null",
	"FilingNumber": "P1",
	"Created On Date": "10/02/2019 00:00:00-0400",
	"Work Type Name": "Oil Work",
	"Filing Type Name": "PAA",
	"LocationBIN": "1010258",
	"Address": "129 WASHINGTON PLACE",
	"CommunityBoardNumber": 102,
	"LocationBoroughName": "MANHATTAN",
	"Longitude": -74.00173950195312,
	"Latitude": 40.73313903808594
 },
 {
	"Item Type Name": "Temporary DOB registered oil fired mobile boiler",
	"JFNPermitNumber": "M00177190-I1-LA",
	"FilingNumber": "I1",
	"Created On Date": "06/06/2019 00:00:00-0400",
	"Work Type Name": "Oil Work",
	"Filing Type Name": "New Job Filing",
	"LocationBIN": "1010258",
	"Address": "129 WASHINGTON PLACE",
	"CommunityBoardNumber": 102,
	"LocationBoroughName": "MANHATTAN",
	"Longitude": -74.00173950195312,
	"Latitude": 40.73313903808594
 },
 {
	"Item Type Name": "Temporary Oil Tank (above ground)",
	"JFNPermitNumber": "Permit Not Yet Issued",
	"FilingNumber": "I1",
	"Created On Date": "10/20/2020 00:00:00-0400",
	"Work Type Name": "Oil Work",
	"Filing Type Name": "New Job Filing",
	"LocationBIN": "1010266",
	"Address": "17 GAY STREET",
	"CommunityBoardNumber": 102,
	"LocationBoroughName": "MANHATTAN",
	"Longitude": -74.00022888183594,
	"Latitude": 40.733619689941406
 },
 {
	"Item Type Name": "Temporary DOB registered oil fired mobile boiler",
	"JFNPermitNumber": "M00290226-I1-LA",
	"FilingNumber": "I1",
	"Created On Date": "01/02/2020 00:00:00-0500",
	"Work Type Name": "Oil Work",
	"Filing Type Name": "New Job Filing",
	"LocationBIN": "1010542",
	"Address": "126 WEST   11 STREET",
	"CommunityBoardNumber": 102,
	"LocationBoroughName": "MANHATTAN",
	"Longitude": -73.99961853027344,
	"Latitude": 40.735660552978516
 },
 {
	"Item Type Name": "Temporary Oil Tank (above ground)",
	"JFNPermitNumber": "M00208054-I1-LA",
	"FilingNumber": "I1",
	"Created On Date": "08/09/2019 00:00:00-0400",
	"Work Type Name": "Oil Work",
	"Filing Type Name": "New Job Filing",
	"LocationBIN": "1011302",
	"Address": "286 WEST   11 STREET",
	"CommunityBoardNumber": 102,
	"LocationBoroughName": "MANHATTAN",
	"Longitude": -74.00495147705078,
	"Latitude": 40.73585891723633
 },
 {
	"Item Type Name": "Temporary DOB registered oil fired mobile boiler",
	"JFNPermitNumber": "M00309089-I1-LA",
	"FilingNumber": "I1",
	"Created On Date": "02/04/2020 00:00:00-0500",
	"Work Type Name": "Oil Work",
	"Filing Type Name": "New Job Filing",
	"LocationBIN": "1011712",
	"Address": "301 WEST   13 STREET",
	"CommunityBoardNumber": 102,
	"LocationBoroughName": "MANHATTAN",
	"Longitude": -74.00321197509766,
	"Latitude": 40.7392692565918
 },
 {
	"Item Type Name": "Temporary Oil Tank (above ground)",
	"JFNPermitNumber": "Permit Not Yet Issued",
	"FilingNumber": "I1",
	"Created On Date": "09/30/2019 00:00:00-0400",
	"Work Type Name": "Oil Work",
	"Filing Type Name": "New Job Filing",
	"LocationBIN": "1012047",
	"Address": "463 WEST STREET",
	"CommunityBoardNumber": 102,
	"LocationBoroughName": "MANHATTAN",
	"Longitude": -74.00907897949219,
	"Latitude": 40.73653030395508
 },
 {
	"Item Type Name": "Temporary DOB registered oil fired mobile boiler",
	"JFNPermitNumber": "M00192471-I1-LA",
	"FilingNumber": "I1",
	"Created On Date": "07/12/2019 00:00:00-0400",
	"Work Type Name": "Oil Work",
	"Filing Type Name": "New Job Filing",
	"LocationBIN": "1012136",
	"Address": "84 HORATIO STREET",
	"CommunityBoardNumber": 102,
	"LocationBoroughName": "MANHATTAN",
	"Longitude": -74.0074462890625,
	"Latitude": 40.73857116699219
 },
 {
	"Item Type Name": "Temporary Oil Tank (above ground)",
	"JFNPermitNumber": "Permit Not Yet Issued",
	"FilingNumber": "I1",
	"Created On Date": "11/25/2020 00:00:00-0500",
	"Work Type Name": "Oil Work",
	"Filing Type Name": "New Job Filing",
	"LocationBIN": "1012541",
	"Address": "75 9 AVENUE",
	"CommunityBoardNumber": 104,
	"LocationBoroughName": "MANHATTAN",
	"Longitude": -74.00605773925781,
	"Latitude": 40.742549896240234
 },
 {
	"Item Type Name": "Temporary Oil Tank (above ground)",
	"JFNPermitNumber": "M00160706-I1-LA",
	"FilingNumber": "I1",
	"Created On Date": "05/14/2019 00:00:00-0400",
	"Work Type Name": "Oil Work",
	"Filing Type Name": "New Job Filing",
	"LocationBIN": "1012541",
	"Address": "75 9 AVENUE",
	"CommunityBoardNumber": 104,
	"LocationBoroughName": "MANHATTAN",
	"Longitude": -74.00605773925781,
	"Latitude": 40.742549896240234
 },
 {
	"Item Type Name": "Temporary DOB registered oil fired mobile boiler",
	"JFNPermitNumber": "M00092929-I1-LA",
	"FilingNumber": "I1",
	"Created On Date": "10/26/2018 00:00:00-0400",
	"Work Type Name": "Oil Work",
	"Filing Type Name": "New Job Filing",
	"LocationBIN": "1012641",
	"Address": "193 9 AVENUE",
	"CommunityBoardNumber": 104,
	"LocationBoroughName": "MANHATTAN",
	"Longitude": -74.00228118896484,
	"Latitude": 40.745670318603516
 },
 {
	"Item Type Name": "Temporary Oil Tank (above ground)",
	"JFNPermitNumber": "M00250623-I1-LA",
	"FilingNumber": "I1",
	"Created On Date": "10/22/2019 00:00:00-0400",
	"Work Type Name": "Oil Work",
	"Filing Type Name": "New Job Filing",
	"LocationBIN": "1012662",
	"Address": "188 10 AVENUE",
	"CommunityBoardNumber": 104,
	"LocationBoroughName": "MANHATTAN",
	"Longitude": -74.0047378540039,
	"Latitude": 40.746578216552734
 },
 {
	"Item Type Name": "Temporary DOB registered oil fired mobile boiler",
	"JFNPermitNumber": "M00275129-I1-LA",
	"FilingNumber": "I1",
	"Created On Date": "12/03/2019 00:00:00-0500",
	"Work Type Name": "Oil Work",
	"Filing Type Name": "New Job Filing",
	"LocationBIN": "1013014",
	"Address": "327 WEST   14 STREET",
	"CommunityBoardNumber": 104,
	"LocationBoroughName": "MANHATTAN",
	"Longitude": -74.00372314453125,
	"Latitude": 40.7406005859375
 },
 {
	"Item Type Name": "Temporary DOB registered oil fired mobile boiler",
	"JFNPermitNumber": "M00430113-I1-LA",
	"FilingNumber": "I1",
	"Created On Date": "11/18/2020 00:00:00-0500",
	"Work Type Name": "Oil Work",
	"Filing Type Name": "New Job Filing",
	"LocationBIN": "1013057",
	"Address": "324 WEST   17 STREET",
	"CommunityBoardNumber": 104,
	"LocationBoroughName": "MANHATTAN",
	"Longitude": -74.00234985351562,
	"Latitude": 40.74190139770508
 },
 {
	"Item Type Name": "Temporary DOB registered oil fired mobile boiler",
	"JFNPermitNumber": "M00089009-I1-LA",
	"FilingNumber": "I1",
	"Created On Date": "10/17/2018 00:00:00-0400",
	"Work Type Name": "Oil Work",
	"Filing Type Name": "New Job Filing",
	"LocationBIN": "1013561",
	"Address": "481 8 AVENUE",
	"CommunityBoardNumber": 104,
	"LocationBoroughName": "MANHATTAN",
	"Longitude": -73.99363708496094,
	"Latitude": 40.75271987915039
 },
 {
	"Item Type Name": "Temporary Oil Tank (above ground)",
	"JFNPermitNumber": "M00371712-I1-LA",
	"FilingNumber": "I1",
	"Created On Date": "07/16/2020 00:00:00-0400",
	"Work Type Name": "Oil Work",
	"Filing Type Name": "New Job Filing",
	"LocationBIN": "1013635",
	"Address": "510 9 AVENUE",
	"CommunityBoardNumber": 104,
	"LocationBoroughName": "MANHATTAN",
	"Longitude": -73.9939193725586,
	"Latitude": 40.75611877441406
 },
 {
	"Item Type Name": "Temporary DOB registered oil fired mobile boiler",
	"JFNPermitNumber": "M00375289-I1-LA",
	"FilingNumber": "I1",
	"Created On Date": "07/23/2020 00:00:00-0400",
	"Work Type Name": "Oil Work",
	"Filing Type Name": "New Job Filing",
	"LocationBIN": "1013980",
	"Address": "203 WEST   19 STREET",
	"CommunityBoardNumber": 104,
	"LocationBoroughName": "MANHATTAN",
	"Longitude": -73.99765014648438,
	"Latitude": 40.741859436035156
 },
 {
	"Item Type Name": "Temporary DOB registered oil fired mobile boiler",
	"JFNPermitNumber": "M00278995-I1-LA",
	"FilingNumber": "I1",
	"Created On Date": "12/10/2019 00:00:00-0500",
	"Work Type Name": "Oil Work",
	"Filing Type Name": "New Job Filing",
	"LocationBIN": "1014166",
	"Address": "262 WEST   24 STREET",
	"CommunityBoardNumber": 104,
	"LocationBoroughName": "MANHATTAN",
	"Longitude": -73.99759674072266,
	"Latitude": 40.745548248291016
 },
 {
	"Item Type Name": "Temporary Oil Tank (above ground)",
	"JFNPermitNumber": "M00271647-I1-LA",
	"FilingNumber": "I1",
	"Created On Date": "11/25/2019 00:00:00-0500",
	"Work Type Name": "Oil Work",
	"Filing Type Name": "New Job Filing",
	"LocationBIN": "1014471",
	"Address": "580 8 AVENUE",
	"CommunityBoardNumber": 105,
	"LocationBoroughName": "MANHATTAN",
	"Longitude": -73.9912109375,
	"Latitude": 40.75484085083008
 },
 {
	"Item Type Name": "Temporary Oil Tank (above ground)",
	"JFNPermitNumber": "M00399306-I1-LA",
	"FilingNumber": "I1",
	"Created On Date": "09/15/2020 00:00:00-0400",
	"Work Type Name": "Oil Work",
	"Filing Type Name": "New Job Filing",
	"LocationBIN": "1014501",
	"Address": "550 SEVENTH AVENUE",
	"CommunityBoardNumber": 105,
	"LocationBoroughName": "MANHATTAN",
	"Longitude": -73.98851776123047,
	"Latitude": 40.754459381103516
 },
 {
	"Item Type Name": "Temporary DOB registered oil fired mobile boiler",
	"JFNPermitNumber": "M00092963-I1-LA",
	"FilingNumber": "I1",
	"Created On Date": "10/26/2018 00:00:00-0400",
	"Work Type Name": "Oil Work",
	"Filing Type Name": "New Job Filing",
	"LocationBIN": "1015198",
	"Address": "131 WEST   33 STREET",
	"CommunityBoardNumber": 105,
	"LocationBoroughName": "MANHATTAN",
	"Longitude": -73.98967742919922,
	"Latitude": 40.749969482421875
 },
 {
	"Item Type Name": "Temporary Oil Tank (above ground)",
	"JFNPermitNumber": "M00258098-I1-LA",
	"FilingNumber": "I1",
	"Created On Date": "11/04/2019 00:00:00-0500",
	"Work Type Name": "Oil Work",
	"Filing Type Name": "New Job Filing",
	"LocationBIN": "1015300",
	"Address": "42 WEST   15 STREET",
	"CommunityBoardNumber": 105,
	"LocationBoroughName": "MANHATTAN",
	"Longitude": -73.99527740478516,
	"Latitude": 40.73735046386719
 },
 {
	"Item Type Name": "Temporary Oil Tank (above ground)",
	"JFNPermitNumber": "Permit Not Yet Issued",
	"FilingNumber": "I1",
	"Created On Date": "11/26/2019 00:00:00-0500",
	"Work Type Name": "Oil Work",
	"Filing Type Name": "New Job Filing",
	"LocationBIN": "1015410",
	"Address": "45 WEST   17 STREET",
	"CommunityBoardNumber": 105,
	"LocationBoroughName": "MANHATTAN",
	"Longitude": -73.99421691894531,
	"Latitude": 40.739139556884766
 },
 {
	"Item Type Name": "Temporary Oil Tank (above ground)",
	"JFNPermitNumber": "M00276753-I1-LA",
	"FilingNumber": "I1",
	"Created On Date": "12/06/2019 00:00:00-0500",
	"Work Type Name": "Oil Work",
	"Filing Type Name": "New Job Filing",
	"LocationBIN": "1015541",
	"Address": "28 WEST   22 STREET",
	"CommunityBoardNumber": 105,
	"LocationBoroughName": "MANHATTAN",
	"Longitude": -73.99183654785156,
	"Latitude": 40.74137878417969
 },
 {
	"Item Type Name": "Temporary Oil Tank (above ground)",
	"JFNPermitNumber": "M00099126-I1-LA",
	"FilingNumber": "I1",
	"Created On Date": "11/19/2018 00:00:00-0500",
	"Work Type Name": "Oil Work",
	"Filing Type Name": "New Job Filing",
	"LocationBIN": "1017104",
	"Address": "55 EAST   34 STREET",
	"CommunityBoardNumber": 106,
	"LocationBoroughName": "MANHATTAN",
	"Longitude": -73.98177337646484,
	"Latitude": 40.74755859375
 },
 {
	"Item Type Name": "Temporary Oil Tank (above ground)",
	"JFNPermitNumber": "M00152952-I1-LA",
	"FilingNumber": "I1",
	"Created On Date": "04/12/2019 00:00:00-0400",
	"Work Type Name": "Oil Work",
	"Filing Type Name": "New Job Filing",
	"LocationBIN": "1017220",
	"Address": "22 EAST   38 STREET",
	"CommunityBoardNumber": 106,
	"LocationBoroughName": "MANHATTAN",
	"Longitude": -73.98094940185547,
	"Latitude": 40.749969482421875
 },
 {
	"Item Type Name": "Temporary DOB registered oil fired mobile boiler",
	"JFNPermitNumber": "M00138092-I1-LA",
	"FilingNumber": "I1",
	"Created On Date": "03/05/2019 00:00:00-0500",
	"Work Type Name": "Oil Work",
	"Filing Type Name": "New Job Filing",
	"LocationBIN": "1017881",
	"Address": "153 EAST   18 STREET",
	"CommunityBoardNumber": 106,
	"LocationBoroughName": "MANHATTAN",
	"Longitude": -73.98577117919922,
	"Latitude": 40.73619842529297
 },
 {
	"Item Type Name": "Temporary Oil Tank (above ground)",
	"JFNPermitNumber": "M00230666-I1-LA",
	"FilingNumber": "I1",
	"Created On Date": "09/18/2019 00:00:00-0400",
	"Work Type Name": "Oil Work",
	"Filing Type Name": "New Job Filing",
	"LocationBIN": "1017893",
	"Address": "132 EAST   19 STREET",
	"CommunityBoardNumber": 106,
	"LocationBoroughName": "MANHATTAN",
	"Longitude": -73.98596954345703,
	"Latitude": 40.7365608215332
 },
 {
	"Item Type Name": "Temporary Oil Tank (above ground)",
	"JFNPermitNumber": "M00299078-I1-LA",
	"FilingNumber": "I1",
	"Created On Date": "01/17/2020 00:00:00-0500",
	"Work Type Name": "Oil Work",
	"Filing Type Name": "New Job Filing",
	"LocationBIN": "1018173",
	"Address": "101 LEXINGTON AVENUE",
	"CommunityBoardNumber": 106,
	"LocationBoroughName": "MANHATTAN",
	"Longitude": -73.98252868652344,
	"Latitude": 40.742069244384766
 },
 {
	"Item Type Name": "Temporary Oil Tank (above ground)",
	"JFNPermitNumber": "M00354241-I1-LA",
	"FilingNumber": "I1",
	"Created On Date": "06/03/2020 00:00:00-0400",
	"Work Type Name": "Oil Work",
	"Filing Type Name": "New Job Filing",
	"LocationBIN": "1018312",
	"Address": "161 LEXINGTON AVENUE",
	"CommunityBoardNumber": 106,
	"LocationBoroughName": "MANHATTAN",
	"Longitude": -73.981201171875,
	"Latitude": 40.74388122558594
 },
 {
	"Item Type Name": "Temporary DOB registered oil fired mobile boiler",
	"JFNPermitNumber": "M00385467-I1-LA",
	"FilingNumber": "I1",
	"Created On Date": "08/14/2020 00:00:00-0400",
	"Work Type Name": "Oil Work",
	"Filing Type Name": "New Job Filing",
	"LocationBIN": "1018494",
	"Address": "141 EAST   33 STREET",
	"CommunityBoardNumber": 106,
	"LocationBoroughName": "MANHATTAN",
	"Longitude": -73.97978973388672,
	"Latitude": 40.74576187133789
 },
 {
	"Item Type Name": "Temporary DOB registered oil fired mobile boiler",
	"JFNPermitNumber": "null",
	"FilingNumber": "P1",
	"Created On Date": "09/30/2020 00:00:00-0400",
	"Work Type Name": "Oil Work",
	"Filing Type Name": "PAA",
	"LocationBIN": "1018936",
	"Address": "41 PARK AVENUE",
	"CommunityBoardNumber": 106,
	"LocationBoroughName": "MANHATTAN",
	"Longitude": -73.97988891601562,
	"Latitude": 40.7484016418457
 },
 {
	"Item Type Name": "Temporary DOB registered oil fired mobile boiler",
	"JFNPermitNumber": "M00376141-I1-LA",
	"FilingNumber": "I1",
	"Created On Date": "07/27/2020 00:00:00-0400",
	"Work Type Name": "Oil Work",
	"Filing Type Name": "New Job Filing",
	"LocationBIN": "1018936",
	"Address": "41 PARK AVENUE",
	"CommunityBoardNumber": 106,
	"LocationBoroughName": "MANHATTAN",
	"Longitude": -73.97988891601562,
	"Latitude": 40.7484016418457
 },
 {
	"Item Type Name": "Temporary DOB registered oil fired mobile boiler",
	"JFNPermitNumber": "M00122544-I1-LA",
	"FilingNumber": "I1",
	"Created On Date": "01/23/2019 00:00:00-0500",
	"Work Type Name": "Oil Work",
	"Filing Type Name": "New Job Filing",
	"LocationBIN": "1019634",
	"Address": "207 EAST   21 STREET",
	"CommunityBoardNumber": 106,
	"LocationBoroughName": "MANHATTAN",
	"Longitude": -73.98332977294922,
	"Latitude": 40.73748016357422
 },
 {
	"Item Type Name": "Temporary DOB registered oil fired mobile boiler",
	"JFNPermitNumber": "M00336387-I1-LA",
	"FilingNumber": "I1",
	"Created On Date": "03/23/2020 00:00:00-0400",
	"Work Type Name": "Oil Work",
	"Filing Type Name": "New Job Filing",
	"LocationBIN": "1020136",
	"Address": "206 EAST   34 STREET",
	"CommunityBoardNumber": 106,
	"LocationBoroughName": "MANHATTAN",
	"Longitude": -73.97779846191406,
	"Latitude": 40.74530029296875
 },
 {
	"Item Type Name": "Temporary Oil Tank (above ground)",
	"JFNPermitNumber": "null",
	"FilingNumber": "P1",
	"Created On Date": "12/21/2018 00:00:00-0500",
	"Work Type Name": "Oil Work",
	"Filing Type Name": "PAA",
	"LocationBIN": "1020464",
	"Address": "316 2 AVENUE",
	"CommunityBoardNumber": 106,
	"LocationBoroughName": "MANHATTAN",
	"Longitude": -73.98265075683594,
	"Latitude": 40.73493957519531
 },
 {
	"Item Type Name": "Temporary Oil Tank (above ground)",
	"JFNPermitNumber": "M00102635-I1-LA",
	"FilingNumber": "I1",
	"Created On Date": "11/23/2018 00:00:00-0500",
	"Work Type Name": "Oil Work",
	"Filing Type Name": "New Job Filing",
	"LocationBIN": "1020464",
	"Address": "316 2 AVENUE",
	"CommunityBoardNumber": 106,
	"LocationBoroughName": "MANHATTAN",
	"Longitude": -73.98265075683594,
	"Latitude": 40.73493957519531
 },
 {
	"Item Type Name": "Temporary Oil Tank (above ground)",
	"JFNPermitNumber": "null",
	"FilingNumber": "P1",
	"Created On Date": "03/05/2020 00:00:00-0500",
	"Work Type Name": "Oil Work",
	"Filing Type Name": "PAA",
	"LocationBIN": "1020570",
	"Address": "321 EAST   22 STREET",
	"CommunityBoardNumber": 106,
	"LocationBoroughName": "MANHATTAN",
	"Longitude": -73.98023223876953,
	"Latitude": 40.73698043823242
 },
 {
	"Item Type Name": "Temporary Oil Tank (above ground)",
	"JFNPermitNumber": "M00302532-I1-LA",
	"FilingNumber": "I1",
	"Created On Date": "01/23/2020 00:00:00-0500",
	"Work Type Name": "Oil Work",
	"Filing Type Name": "New Job Filing",
	"LocationBIN": "1020570",
	"Address": "321 EAST   22 STREET",
	"CommunityBoardNumber": 106,
	"LocationBoroughName": "MANHATTAN",
	"Longitude": -73.98023223876953,
	"Latitude": 40.73698043823242
 },
 {
	"Item Type Name": "Temporary Oil Tank (above ground)",
	"JFNPermitNumber": "M00194569-I1-LA",
	"FilingNumber": "I1",
	"Created On Date": "07/16/2019 00:00:00-0400",
	"Work Type Name": "Oil Work",
	"Filing Type Name": "New Job Filing",
	"LocationBIN": "1020570",
	"Address": "321 EAST   22 STREET",
	"CommunityBoardNumber": 106,
	"LocationBoroughName": "MANHATTAN",
	"Longitude": -73.98023223876953,
	"Latitude": 40.73698043823242
 },
 {
	"Item Type Name": "Temporary Oil Tank (above ground)",
	"JFNPermitNumber": "M00173659-I1-LA",
	"FilingNumber": "I1",
	"Created On Date": "05/29/2019 00:00:00-0400",
	"Work Type Name": "Oil Work",
	"Filing Type Name": "New Job Filing",
	"LocationBIN": "1020570",
	"Address": "321 EAST   22 STREET",
	"CommunityBoardNumber": 106,
	"LocationBoroughName": "MANHATTAN",
	"Longitude": -73.98023223876953,
	"Latitude": 40.73698043823242
 },
 {
	"Item Type Name": "Temporary DOB registered oil fired mobile boiler",
	"JFNPermitNumber": "M00400359-I1-LA",
	"FilingNumber": "I1",
	"Created On Date": "09/17/2020 00:00:00-0400",
	"Work Type Name": "Oil Work",
	"Filing Type Name": "New Job Filing",
	"LocationBIN": "1020570",
	"Address": "321 EAST   22 STREET",
	"CommunityBoardNumber": 106,
	"LocationBoroughName": "MANHATTAN",
	"Longitude": -73.98023223876953,
	"Latitude": 40.73698043823242
 },
 {
	"Item Type Name": "Temporary DOB registered oil fired mobile boiler",
	"JFNPermitNumber": "M00122047-I1-LA",
	"FilingNumber": "I1",
	"Created On Date": "01/22/2019 00:00:00-0500",
	"Work Type Name": "Oil Work",
	"Filing Type Name": "New Job Filing",
	"LocationBIN": "1022658",
	"Address": "138 WEST   46 STREET",
	"CommunityBoardNumber": 105,
	"LocationBoroughName": "MANHATTAN",
	"Longitude": -73.98403930664062,
	"Latitude": 40.75788879394531
 },
 {
	"Item Type Name": "Temporary DOB registered oil fired mobile boiler",
	"JFNPermitNumber": "M00349932-I1-LA",
	"FilingNumber": "I1",
	"Created On Date": "05/18/2020 00:00:00-0400",
	"Work Type Name": "Oil Work",
	"Filing Type Name": "New Job Filing",
	"LocationBIN": "1022694",
	"Address": "142 WEST   49 STREET",
	"CommunityBoardNumber": 105,
	"LocationBoroughName": "MANHATTAN",
	"Longitude": -73.98300170898438,
	"Latitude": 40.7598991394043
 },
 {
	"Item Type Name": "Temporary DOB registered oil fired mobile boiler",
	"JFNPermitNumber": "M00313375-S1-LA",
	"FilingNumber": "S1",
	"Created On Date": "04/14/2020 00:00:00-0400",
	"Work Type Name": "Oil Work",
	"Filing Type Name": "Subsequent Filing",
	"LocationBIN": "1022694",
	"Address": "142 WEST   49 STREET",
	"CommunityBoardNumber": 105,
	"LocationBoroughName": "MANHATTAN",
	"Longitude": -73.98300170898438,
	"Latitude": 40.7598991394043
 },
 {
	"Item Type Name": "Temporary DOB registered oil fired mobile boiler",
	"JFNPermitNumber": "M00313375-I1-LA",
	"FilingNumber": "I1",
	"Created On Date": "02/11/2020 00:00:00-0500",
	"Work Type Name": "Oil Work",
	"Filing Type Name": "New Job Filing",
	"LocationBIN": "1022694",
	"Address": "142 WEST   49 STREET",
	"CommunityBoardNumber": 105,
	"LocationBoroughName": "MANHATTAN",
	"Longitude": -73.98300170898438,
	"Latitude": 40.7598991394043
 },
 {
	"Item Type Name": "Temporary DOB registered oil fired mobile boiler",
	"JFNPermitNumber": "M00438725-I1-LA",
	"FilingNumber": "I1",
	"Created On Date": "12/09/2020 00:00:00-0500",
	"Work Type Name": "Oil Work",
	"Filing Type Name": "New Job Filing",
	"LocationBIN": "1023737",
	"Address": "152 WEST   58 STREET",
	"CommunityBoardNumber": 105,
	"LocationBoroughName": "MANHATTAN",
	"Longitude": -73.97865295410156,
	"Latitude": 40.76557922363281
 },
 {
	"Item Type Name": "Temporary DOB registered oil fired mobile boiler",
	"JFNPermitNumber": "Permit Not Yet Issued",
	"FilingNumber": "I1",
	"Created On Date": "06/06/2019 00:00:00-0400",
	"Work Type Name": "Oil Work",
	"Filing Type Name": "New Job Filing",
	"LocationBIN": "1023751",
	"Address": "145 WEST   58 STREET",
	"CommunityBoardNumber": 105,
	"LocationBoroughName": "MANHATTAN",
	"Longitude": -73.97810363769531,
	"Latitude": 40.76580047607422
 },
 {
	"Item Type Name": "Temporary DOB registered oil fired mobile boiler",
	"JFNPermitNumber": "M00129743-I1-LA",
	"FilingNumber": "I1",
	"Created On Date": "02/11/2019 00:00:00-0500",
	"Work Type Name": "Oil Work",
	"Filing Type Name": "New Job Filing",
	"LocationBIN": "1024739",
	"Address": "205 WEST   46 STREET",
	"CommunityBoardNumber": 105,
	"LocationBoroughName": "MANHATTAN",
	"Longitude": -73.98592376708984,
	"Latitude": 40.759178161621094
 },
 {
	"Item Type Name": "Temporary DOB registered oil fired mobile boiler",
	"JFNPermitNumber": "null",
	"FilingNumber": "P1",
	"Created On Date": "03/23/2020 00:00:00-0400",
	"Work Type Name": "Oil Work",
	"Filing Type Name": "PAA",
	"LocationBIN": "1024904",
	"Address": "200 WEST   58 STREET",
	"CommunityBoardNumber": 105,
	"LocationBoroughName": "MANHATTAN",
	"Longitude": -73.97998046875,
	"Latitude": 40.76613998413086
 },
 {
	"Item Type Name": "Temporary DOB registered oil fired mobile boiler",
	"JFNPermitNumber": "M00334299-I1-LA",
	"FilingNumber": "I1",
	"Created On Date": "03/18/2020 00:00:00-0400",
	"Work Type Name": "Oil Work",
	"Filing Type Name": "New Job Filing",
	"LocationBIN": "1024904",
	"Address": "200 WEST   58 STREET",
	"CommunityBoardNumber": 105,
	"LocationBoroughName": "MANHATTAN",
	"Longitude": -73.97998046875,
	"Latitude": 40.76613998413086
 },
 {
	"Item Type Name": "Temporary DOB registered oil fired mobile boiler",
	"JFNPermitNumber": "M00423126-I1-LA",
	"FilingNumber": "I1",
	"Created On Date": "11/03/2020 00:00:00-0500",
	"Work Type Name": "Oil Work",
	"Filing Type Name": "New Job Filing",
	"LocationBIN": "1024948",
	"Address": "324 WEST   43 STREET",
	"CommunityBoardNumber": 104,
	"LocationBoroughName": "MANHATTAN",
	"Longitude": -73.99059295654297,
	"Latitude": 40.758209228515625
 },
 {
	"Item Type Name": "Temporary DOB registered oil fired mobile boiler",
	"JFNPermitNumber": "M00350049-I1-LA",
	"FilingNumber": "I1",
	"Created On Date": "05/18/2020 00:00:00-0400",
	"Work Type Name": "Oil Work",
	"Filing Type Name": "New Job Filing",
	"LocationBIN": "1025251",
	"Address": "798 9 AVENUE",
	"CommunityBoardNumber": 104,
	"LocationBoroughName": "MANHATTAN",
	"Longitude": -73.98734283447266,
	"Latitude": 40.76512908935547
 },
 {
	"Item Type Name": "Temporary DOB registered oil fired mobile boiler",
	"JFNPermitNumber": "M00131163-I1-LA",
	"FilingNumber": "I1",
	"Created On Date": "02/14/2019 00:00:00-0500",
	"Work Type Name": "Oil Work",
	"Filing Type Name": "New Job Filing",
	"LocationBIN": "1026344",
	"Address": "600 10 AVENUE",
	"CommunityBoardNumber": 104,
	"LocationBoroughName": "MANHATTAN",
	"Longitude": -73.9945068359375,
	"Latitude": 40.76039123535156
 },
 {
	"Item Type Name": "Temporary Oil Tank (above ground)",
	"JFNPermitNumber": "M00100559-I1-LA",
	"FilingNumber": "I1",
	"Created On Date": "11/16/2018 00:00:00-0500",
	"Work Type Name": "Oil Work",
	"Filing Type Name": "New Job Filing",
	"LocationBIN": "1026567",
	"Address": "401 WEST   47 STREET",
	"CommunityBoardNumber": 104,
	"LocationBoroughName": "MANHATTAN",
	"Longitude": -73.99051666259766,
	"Latitude": 40.76184844970703
 },
 {
	"Item Type Name": "Temporary DOB registered oil fired mobile boiler",
	"JFNPermitNumber": "null",
	"FilingNumber": "P1",
	"Created On Date": "02/26/2020 00:00:00-0500",
	"Work Type Name": "Oil Work",
	"Filing Type Name": "PAA",
	"LocationBIN": "1026715",
	"Address": "457 WEST   51 STREET",
	"CommunityBoardNumber": 104,
	"LocationBoroughName": "MANHATTAN",
	"Longitude": -73.99053955078125,
	"Latitude": 40.765220642089844
 },
 {
	"Item Type Name": "Temporary DOB registered oil fired mobile boiler",
	"JFNPermitNumber": "M00137489-I1-LA",
	"FilingNumber": "I1",
	"Created On Date": "03/04/2019 00:00:00-0500",
	"Work Type Name": "Oil Work",
	"Filing Type Name": "New Job Filing",
	"LocationBIN": "1026715",
	"Address": "457 WEST   51 STREET",
	"CommunityBoardNumber": 104,
	"LocationBoroughName": "MANHATTAN",
	"Longitude": -73.99053955078125,
	"Latitude": 40.765220642089844
 },
 {
	"Item Type Name": "Temporary Oil Tank (above ground)",
	"JFNPermitNumber": "M00417869-I1-LA",
	"FilingNumber": "I1",
	"Created On Date": "10/22/2020 00:00:00-0400",
	"Work Type Name": "Oil Work",
	"Filing Type Name": "New Job Filing",
	"LocationBIN": "1026844",
	"Address": "415 WEST   55 STREET",
	"CommunityBoardNumber": 104,
	"LocationBoroughName": "MANHATTAN",
	"Longitude": -73.98738861083984,
	"Latitude": 40.76716995239258
 },
 {
	"Item Type Name": "Temporary DOB registered oil fired mobile boiler",
	"JFNPermitNumber": "M00411996-I1-LA",
	"FilingNumber": "I1",
	"Created On Date": "10/12/2020 00:00:00-0400",
	"Work Type Name": "Oil Work",
	"Filing Type Name": "New Job Filing",
	"LocationBIN": "1027074",
	"Address": "518 WEST   58 STREET",
	"CommunityBoardNumber": 104,
	"LocationBoroughName": "MANHATTAN",
	"Longitude": -73.98956298828125,
	"Latitude": 40.76995849609375
 },
 {
	"Item Type Name": "Temporary Oil Tank (above ground)",
	"JFNPermitNumber": "M00271261-I1-LA",
	"FilingNumber": "I1",
	"Created On Date": "11/25/2019 00:00:00-0500",
	"Work Type Name": "Oil Work",
	"Filing Type Name": "New Job Filing",
	"LocationBIN": "1027157",
	"Address": "625 WEST   55 STREET",
	"CommunityBoardNumber": 104,
	"LocationBoroughName": "MANHATTAN",
	"Longitude": -73.99352264404297,
	"Latitude": 40.76974868774414
 },
 {
	"Item Type Name": "Temporary DOB registered oil fired mobile boiler",
	"JFNPermitNumber": "M00178066-I1-LA",
	"FilingNumber": "I1",
	"Created On Date": "06/10/2019 00:00:00-0400",
	"Work Type Name": "Oil Work",
	"Filing Type Name": "New Job Filing",
	"LocationBIN": "1027365",
	"Address": "44 WEST   62 STREET",
	"CommunityBoardNumber": 107,
	"LocationBoroughName": "MANHATTAN",
	"Longitude": -73.9831314086914,
	"Latitude": 40.770729064941406
 },
 {
	"Item Type Name": "Temporary DOB registered oil fired mobile boiler",
	"JFNPermitNumber": "M00296881-I1-LA",
	"FilingNumber": "I1",
	"Created On Date": "01/17/2020 00:00:00-0500",
	"Work Type Name": "Oil Work",
	"Filing Type Name": "New Job Filing",
	"LocationBIN": "1027366",
	"Address": "43 WEST   61 STREET",
	"CommunityBoardNumber": 107,
	"LocationBoroughName": "MANHATTAN",
	"Longitude": -73.98333740234375,
	"Latitude": 40.77050018310547
 },
 {
	"Item Type Name": "Temporary DOB registered oil fired mobile boiler",
	"JFNPermitNumber": "null",
	"FilingNumber": "P2",
	"Created On Date": "03/18/2020 00:00:00-0400",
	"Work Type Name": "Oil Work",
	"Filing Type Name": "PAA",
	"LocationBIN": "1027461",
	"Address": "61 WEST   62 STREET",
	"CommunityBoardNumber": 107,
	"LocationBoroughName": "MANHATTAN",
	"Longitude": -73.98284149169922,
	"Latitude": 40.7711181640625
 },
 {
	"Item Type Name": "Temporary DOB registered oil fired mobile boiler",
	"JFNPermitNumber": "null",
	"FilingNumber": "P1",
	"Created On Date": "01/14/2020 00:00:00-0500",
	"Work Type Name": "Oil Work",
	"Filing Type Name": "PAA",
	"LocationBIN": "1027461",
	"Address": "61 WEST   62 STREET",
	"CommunityBoardNumber": 107,
	"LocationBoroughName": "MANHATTAN",
	"Longitude": -73.98284149169922,
	"Latitude": 40.7711181640625
 },
 {
	"Item Type Name": "Temporary DOB registered oil fired mobile boiler",
	"JFNPermitNumber": "M00349948-I1-LA",
	"FilingNumber": "I1",
	"Created On Date": "05/18/2020 00:00:00-0400",
	"Work Type Name": "Oil Work",
	"Filing Type Name": "New Job Filing",
	"LocationBIN": "1027461",
	"Address": "61 WEST   62 STREET",
	"CommunityBoardNumber": 107,
	"LocationBoroughName": "MANHATTAN",
	"Longitude": -73.98284149169922,
	"Latitude": 40.7711181640625
 },
 {
	"Item Type Name": "Temporary DOB registered oil fired mobile boiler",
	"JFNPermitNumber": "M00296841-I1-LA",
	"FilingNumber": "I1",
	"Created On Date": "01/14/2020 00:00:00-0500",
	"Work Type Name": "Oil Work",
	"Filing Type Name": "New Job Filing",
	"LocationBIN": "1027461",
	"Address": "61 WEST   62 STREET",
	"CommunityBoardNumber": 107,
	"LocationBoroughName": "MANHATTAN",
	"Longitude": -73.98284149169922,
	"Latitude": 40.7711181640625
 },
 {
	"Item Type Name": "Temporary DOB registered oil fired mobile boiler",
	"JFNPermitNumber": "M00202743-I1-LA",
	"FilingNumber": "I1",
	"Created On Date": "07/31/2019 00:00:00-0400",
	"Work Type Name": "Oil Work",
	"Filing Type Name": "New Job Filing",
	"LocationBIN": "1027463",
	"Address": "30 WEST   63 STREET",
	"CommunityBoardNumber": 107,
	"LocationBoroughName": "MANHATTAN",
	"Longitude": -73.9815673828125,
	"Latitude": 40.77077102661133
 },
 {
	"Item Type Name": "Temporary Oil Tank (above ground)",
	"JFNPermitNumber": "M00393226-I1-LA",
	"FilingNumber": "I1",
	"Created On Date": "09/01/2020 00:00:00-0400",
	"Work Type Name": "Oil Work",
	"Filing Type Name": "New Job Filing",
	"LocationBIN": "1028166",
	"Address": "55 CENTRAL PARK WEST",
	"CommunityBoardNumber": 107,
	"LocationBoroughName": "MANHATTAN",
	"Longitude": -73.979248046875,
	"Latitude": 40.77231979370117
 },
 {
	"Item Type Name": "Temporary Oil Tank (above ground)",
	"JFNPermitNumber": "M00132125-I1-LA",
	"FilingNumber": "I1",
	"Created On Date": "02/18/2019 00:00:00-0500",
	"Work Type Name": "Oil Work",
	"Filing Type Name": "New Job Filing",
	"LocationBIN": "1028453",
	"Address": "25 WEST   68 STREET",
	"CommunityBoardNumber": 107,
	"LocationBoroughName": "MANHATTAN",
	"Longitude": -73.97889709472656,
	"Latitude": 40.774349212646484
 },
 {
	"Item Type Name": "Temporary DOB registered oil fired mobile boiler",
	"JFNPermitNumber": "M00394986-I1-LA",
	"FilingNumber": "I1",
	"Created On Date": "09/04/2020 00:00:00-0400",
	"Work Type Name": "Oil Work",
	"Filing Type Name": "New Job Filing",
	"LocationBIN": "1029650",
	"Address": "120 WEST   70 STREET",
	"CommunityBoardNumber": 107,
	"LocationBoroughName": "MANHATTAN",
	"Longitude": -73.9806900024414,
	"Latitude": 40.776248931884766
 },
 {
	"Item Type Name": "Temporary DOB registered oil fired mobile boiler",
	"JFNPermitNumber": "null",
	"FilingNumber": "P1",
	"Created On Date": "02/25/2020 00:00:00-0500",
	"Work Type Name": "Oil Work",
	"Filing Type Name": "PAA",
	"LocationBIN": "1030162",
	"Address": "135 WEST   75 STREET",
	"CommunityBoardNumber": 107,
	"LocationBoroughName": "MANHATTAN",
	"Longitude": -73.9787368774414,
	"Latitude": 40.780189514160156
 },
 {
	"Item Type Name": "Temporary DOB registered oil fired mobile boiler",
	"JFNPermitNumber": "M00137368-I1-LA",
	"FilingNumber": "I1",
	"Created On Date": "03/04/2019 00:00:00-0500",
	"Work Type Name": "Oil Work",
	"Filing Type Name": "New Job Filing",
	"LocationBIN": "1030162",
	"Address": "135 WEST   75 STREET",
	"CommunityBoardNumber": 107,
	"LocationBoroughName": "MANHATTAN",
	"Longitude": -73.9787368774414,
	"Latitude": 40.780189514160156
 },
 {
	"Item Type Name": "Temporary DOB registered oil fired mobile boiler",
	"JFNPermitNumber": "M00407616-I1-LA",
	"FilingNumber": "I1",
	"Created On Date": "10/02/2020 00:00:00-0400",
	"Work Type Name": "Oil Work",
	"Filing Type Name": "New Job Filing",
	"LocationBIN": "1030196",
	"Address": "160 WEST   78 STREET",
	"CommunityBoardNumber": 107,
	"LocationBoroughName": "MANHATTAN",
	"Longitude": -73.97805786132812,
	"Latitude": 40.78173828125
 },
 {
	"Item Type Name": "Temporary DOB registered oil fired mobile boiler",
	"JFNPermitNumber": "M00415363-I1-LA",
	"FilingNumber": "I1",
	"Created On Date": "10/19/2020 00:00:00-0400",
	"Work Type Name": "Oil Work",
	"Filing Type Name": "New Job Filing",
	"LocationBIN": "1030418",
	"Address": "201 WEST   71 STREET",
	"CommunityBoardNumber": 107,
	"LocationBoroughName": "MANHATTAN",
	"Longitude": -73.98236083984375,
	"Latitude": 40.7781982421875
 },
 {
	"Item Type Name": "Temporary Oil Tank (above ground)",
	"JFNPermitNumber": "M00283076-I1-LA",
	"FilingNumber": "I1",
	"Created On Date": "12/17/2019 00:00:00-0500",
	"Work Type Name": "Oil Work",
	"Filing Type Name": "New Job Filing",
	"LocationBIN": "1030728",
	"Address": "226 WEST   75 STREET",
	"CommunityBoardNumber": 107,
	"LocationBoroughName": "MANHATTAN",
	"Longitude": -73.98174285888672,
	"Latitude": 40.781028747558594
 },
 {
	"Item Type Name": "Temporary DOB registered oil fired mobile boiler",
	"JFNPermitNumber": "null",
	"FilingNumber": "P1",
	"Created On Date": "02/11/2020 00:00:00-0500",
	"Work Type Name": "Oil Work",
	"Filing Type Name": "PAA",
	"LocationBIN": "1030728",
	"Address": "226 WEST   75 STREET",
	"CommunityBoardNumber": 107,
	"LocationBoroughName": "MANHATTAN",
	"Longitude": -73.98174285888672,
	"Latitude": 40.781028747558594
 },
 {
	"Item Type Name": "Temporary DOB registered oil fired mobile boiler",
	"JFNPermitNumber": "null",
	"FilingNumber": "P1",
	"Created On Date": "12/18/2019 00:00:00-0500",
	"Work Type Name": "Oil Work",
	"Filing Type Name": "PAA",
	"LocationBIN": "1030728",
	"Address": "226 WEST   75 STREET",
	"CommunityBoardNumber": 107,
	"LocationBoroughName": "MANHATTAN",
	"Longitude": -73.98174285888672,
	"Latitude": 40.781028747558594
 },
 {
	"Item Type Name": "Temporary DOB registered oil fired mobile boiler",
	"JFNPermitNumber": "M00309000-I1-LA",
	"FilingNumber": "I1",
	"Created On Date": "02/04/2020 00:00:00-0500",
	"Work Type Name": "Oil Work",
	"Filing Type Name": "New Job Filing",
	"LocationBIN": "1030728",
	"Address": "226 WEST   75 STREET",
	"CommunityBoardNumber": 107,
	"LocationBoroughName": "MANHATTAN",
	"Longitude": -73.98174285888672,
	"Latitude": 40.781028747558594
 },
 {
	"Item Type Name": "Temporary DOB registered oil fired mobile boiler",
	"JFNPermitNumber": "M00163524-I1-LA",
	"FilingNumber": "I1",
	"Created On Date": "05/06/2019 00:00:00-0400",
	"Work Type Name": "Oil Work",
	"Filing Type Name": "New Job Filing",
	"LocationBIN": "1030893",
	"Address": "226 WEST   78 STREET",
	"CommunityBoardNumber": 107,
	"LocationBoroughName": "MANHATTAN",
	"Longitude": -73.97991180419922,
	"Latitude": 40.78266906738281
 },
 {
	"Item Type Name": "Temporary DOB registered oil fired mobile boiler",
	"JFNPermitNumber": "null",
	"FilingNumber": "P1",
	"Created On Date": "01/22/2020 00:00:00-0500",
	"Work Type Name": "Oil Work",
	"Filing Type Name": "PAA",
	"LocationBIN": "1030966",
	"Address": "255 WEST END AVENUE",
	"CommunityBoardNumber": 107,
	"LocationBoroughName": "MANHATTAN",
	"Longitude": -73.9849624633789,
	"Latitude": 40.779571533203125
 },
 {
	"Item Type Name": "Temporary DOB registered oil fired mobile boiler",
	"JFNPermitNumber": "M00250576-I1-LA",
	"FilingNumber": "I1",
	"Created On Date": "10/22/2019 00:00:00-0400",
	"Work Type Name": "Oil Work",
	"Filing Type Name": "New Job Filing",
	"LocationBIN": "1030966",
	"Address": "255 WEST END AVENUE",
	"CommunityBoardNumber": 107,
	"LocationBoroughName": "MANHATTAN",
	"Longitude": -73.9849624633789,
	"Latitude": 40.779571533203125
 },
 {
	"Item Type Name": "Temporary DOB registered oil fired mobile boiler",
	"JFNPermitNumber": "M00214265-I1-LA",
	"FilingNumber": "I1",
	"Created On Date": "08/21/2019 00:00:00-0400",
	"Work Type Name": "Oil Work",
	"Filing Type Name": "New Job Filing",
	"LocationBIN": "1031162",
	"Address": "465 COLUMBUS AVENUE",
	"CommunityBoardNumber": 107,
	"LocationBoroughName": "MANHATTAN",
	"Longitude": -73.97358703613281,
	"Latitude": 40.784000396728516
 },
 {
	"Item Type Name": "Temporary DOB registered oil fired mobile boiler",
	"JFNPermitNumber": "M00105073-I1-LA",
	"FilingNumber": "I1",
	"Created On Date": "11/30/2018 00:00:00-0500",
	"Work Type Name": "Oil Work",
	"Filing Type Name": "New Job Filing",
	"LocationBIN": "1031162",
	"Address": "465 COLUMBUS AVENUE",
	"CommunityBoardNumber": 107,
	"LocationBoroughName": "MANHATTAN",
	"Longitude": -73.97358703613281,
	"Latitude": 40.784000396728516
 },
 {
	"Item Type Name": "Temporary Oil Tank (above ground)",
	"JFNPermitNumber": "M00211665-I1-LA",
	"FilingNumber": "I1",
	"Created On Date": "08/15/2019 00:00:00-0400",
	"Work Type Name": "Oil Work",
	"Filing Type Name": "New Job Filing",
	"LocationBIN": "1031181",
	"Address": "225 CENTRAL PARK WEST",
	"CommunityBoardNumber": 107,
	"LocationBoroughName": "MANHATTAN",
	"Longitude": -73.97142028808594,
	"Latitude": 40.78310012817383
 },
 {
	"Item Type Name": "Temporary Oil Tank (above ground)",
	"JFNPermitNumber": "null",
	"FilingNumber": "P1",
	"Created On Date": "07/30/2019 00:00:00-0400",
	"Work Type Name": "Oil Work",
	"Filing Type Name": "PAA",
	"LocationBIN": "1031308",
	"Address": "11 WEST   84 STREET",
	"CommunityBoardNumber": 107,
	"LocationBoroughName": "MANHATTAN",
	"Longitude": -73.97088623046875,
	"Latitude": 40.78446960449219
 },
 {
	"Item Type Name": "Temporary Oil Tank (above ground)",
	"JFNPermitNumber": "M00147656-I1-LA",
	"FilingNumber": "I1",
	"Created On Date": "03/28/2019 00:00:00-0400",
	"Work Type Name": "Oil Work",
	"Filing Type Name": "New Job Filing",
	"LocationBIN": "1031308",
	"Address": "11 WEST   84 STREET",
	"CommunityBoardNumber": 107,
	"LocationBoroughName": "MANHATTAN",
	"Longitude": -73.97088623046875,
	"Latitude": 40.78446960449219
 },
 {
	"Item Type Name": "Temporary DOB registered oil fired mobile boiler",
	"JFNPermitNumber": "M00126008-I1-LA",
	"FilingNumber": "I1",
	"Created On Date": "02/01/2019 00:00:00-0500",
	"Work Type Name": "Oil Work",
	"Filing Type Name": "New Job Filing",
	"LocationBIN": "1031422",
	"Address": "40 WEST   87 STREET",
	"CommunityBoardNumber": 107,
	"LocationBoroughName": "MANHATTAN",
	"Longitude": -73.97058868408203,
	"Latitude": 40.786460876464844
 },
 {
	"Item Type Name": "Temporary DOB registered oil fired mobile boiler",
	"JFNPermitNumber": "M00152378-I1-LA",
	"FilingNumber": "I1",
	"Created On Date": "04/09/2019 00:00:00-0400",
	"Work Type Name": "Oil Work",
	"Filing Type Name": "New Job Filing",
	"LocationBIN": "1031472",
	"Address": "28 WEST   88 STREET",
	"CommunityBoardNumber": 107,
	"LocationBoroughName": "MANHATTAN",
	"Longitude": -73.96965026855469,
	"Latitude": 40.78688049316406
 },
 {
	"Item Type Name": "Temporary Oil Tank (above ground)",
	"JFNPermitNumber": "M00089729-I1-LA",
	"FilingNumber": "I1",
	"Created On Date": "10/18/2018 00:00:00-0400",
	"Work Type Name": "Oil Work",
	"Filing Type Name": "New Job Filing",
	"LocationBIN": "1031749",
	"Address": "26 WEST   96 STREET",
	"CommunityBoardNumber": 107,
	"LocationBoroughName": "MANHATTAN",
	"Longitude": -73.9658203125,
	"Latitude": 40.791839599609375
 },
 {
	"Item Type Name": "Temporary Oil Tank (above ground)",
	"JFNPermitNumber": "M00352426-I1-LA",
	"FilingNumber": "I1",
	"Created On Date": "05/28/2020 00:00:00-0400",
	"Work Type Name": "Oil Work",
	"Filing Type Name": "New Job Filing",
	"LocationBIN": "1031763",
	"Address": "117 WEST   79 STREET",
	"CommunityBoardNumber": 107,
	"LocationBoroughName": "MANHATTAN",
	"Longitude": -73.9759292602539,
	"Latitude": 40.782440185546875
 },
 {
	"Item Type Name": "Temporary DOB registered oil fired mobile boiler",
	"JFNPermitNumber": "M00415449-I1-LA",
	"FilingNumber": "I1",
	"Created On Date": "10/19/2020 00:00:00-0400",
	"Work Type Name": "Oil Work",
	"Filing Type Name": "New Job Filing",
	"LocationBIN": "1032028",
	"Address": "120 WEST   82 STREET",
	"CommunityBoardNumber": 107,
	"LocationBoroughName": "MANHATTAN",
	"Longitude": -73.97502136230469,
	"Latitude": 40.78404998779297
 },
 {
	"Item Type Name": "Temporary DOB registered oil fired mobile boiler",
	"JFNPermitNumber": "M00356860-I1-LA",
	"FilingNumber": "I1",
	"Created On Date": "06/11/2020 00:00:00-0400",
	"Work Type Name": "Oil Work",
	"Filing Type Name": "New Job Filing",
	"LocationBIN": "1032218",
	"Address": "176 WEST   87 STREET",
	"CommunityBoardNumber": 107,
	"LocationBoroughName": "MANHATTAN",
	"Longitude": -73.9743881225586,
	"Latitude": 40.78799819946289
 },
 {
	"Item Type Name": "Temporary DOB registered oil fired mobile boiler",
	"JFNPermitNumber": "M00407902-I1-LA",
	"FilingNumber": "I1",
	"Created On Date": "10/02/2020 00:00:00-0400",
	"Work Type Name": "Oil Work",
	"Filing Type Name": "New Job Filing",
	"LocationBIN": "1032661",
	"Address": "207 WEST   80 STREET",
	"CommunityBoardNumber": 107,
	"LocationBoroughName": "MANHATTAN",
	"Longitude": -73.97828674316406,
	"Latitude": 40.78425979614258
 },
 {
	"Item Type Name": "Temporary DOB registered oil fired mobile boiler",
	"JFNPermitNumber": "M00112866-I1-LA",
	"FilingNumber": "I1",
	"Created On Date": "12/21/2018 00:00:00-0500",
	"Work Type Name": "Oil Work",
	"Filing Type Name": "New Job Filing",
	"LocationBIN": "1032760",
	"Address": "462 AMSTERDAM AVENUE",
	"CommunityBoardNumber": 107,
	"LocationBoroughName": "MANHATTAN",
	"Longitude": -73.97708892822266,
	"Latitude": 40.785400390625
 },
 {
	"Item Type Name": "Temporary Oil Tank (above ground)",
	"JFNPermitNumber": "M00281787-I1-LA",
	"FilingNumber": "I1",
	"Created On Date": "12/16/2019 00:00:00-0500",
	"Work Type Name": "Oil Work",
	"Filing Type Name": "New Job Filing",
	"LocationBIN": "1033611",
	"Address": "251 WEST   92 STREET",
	"CommunityBoardNumber": 107,
	"LocationBoroughName": "MANHATTAN",
	"Longitude": -73.97393798828125,
	"Latitude": 40.7924690246582
 },
 {
	"Item Type Name": "Temporary Oil Tank (above ground)",
	"JFNPermitNumber": "M00186725-I1-LA",
	"FilingNumber": "I1",
	"Created On Date": "06/28/2019 00:00:00-0400",
	"Work Type Name": "Oil Work",
	"Filing Type Name": "New Job Filing",
	"LocationBIN": "1033867",
	"Address": "340 WEST   85 STREET",
	"CommunityBoardNumber": 107,
	"LocationBoroughName": "MANHATTAN",
	"Longitude": -73.97994995117188,
	"Latitude": 40.788631439208984
 },
 {
	"Item Type Name": "Temporary DOB registered oil fired mobile boiler",
	"JFNPermitNumber": "M00124341-I1-LA",
	"FilingNumber": "I1",
	"Created On Date": "01/28/2019 00:00:00-0500",
	"Work Type Name": "Oil Work",
	"Filing Type Name": "New Job Filing",
	"LocationBIN": "1034063",
	"Address": "317 WEST   88 STREET",
	"CommunityBoardNumber": 107,
	"LocationBoroughName": "MANHATTAN",
	"Longitude": -73.97756958007812,
	"Latitude": 40.79072189331055
 },
 {
	"Item Type Name": "Temporary Oil Tank (above ground)",
	"JFNPermitNumber": "M00413254-I1-LA",
	"FilingNumber": "I1",
	"Created On Date": "10/14/2020 00:00:00-0400",
	"Work Type Name": "Oil Work",
	"Filing Type Name": "New Job Filing",
	"LocationBIN": "1034102",
	"Address": "645 WEST END AVENUE",
	"CommunityBoardNumber": 107,
	"LocationBoroughName": "MANHATTAN",
	"Longitude": -73.97554779052734,
	"Latitude": 40.792598724365234
 },
 {
	"Item Type Name": "Temporary Oil Tank (above ground)",
	"JFNPermitNumber": "M00194734-I1-LA",
	"FilingNumber": "I1",
	"Created On Date": "07/17/2019 00:00:00-0400",
	"Work Type Name": "Oil Work",
	"Filing Type Name": "New Job Filing",
	"LocationBIN": "1034185",
	"Address": "336 WEST   95 STREET",
	"CommunityBoardNumber": 107,
	"LocationBoroughName": "MANHATTAN",
	"Longitude": -73.97545623779297,
	"Latitude": 40.79507064819336
 },
 {
	"Item Type Name": "Temporary Oil Tank (above ground)",
	"JFNPermitNumber": "M00173910-I1-LA",
	"FilingNumber": "I1",
	"Created On Date": "05/30/2019 00:00:00-0400",
	"Work Type Name": "Oil Work",
	"Filing Type Name": "New Job Filing",
	"LocationBIN": "1034185",
	"Address": "336 WEST   95 STREET",
	"CommunityBoardNumber": 107,
	"LocationBoroughName": "MANHATTAN",
	"Longitude": -73.97545623779297,
	"Latitude": 40.79507064819336
 },
 {
	"Item Type Name": "Temporary DOB registered oil fired mobile boiler",
	"JFNPermitNumber": "M00370549-I1-LA",
	"FilingNumber": "I1",
	"Created On Date": "07/14/2020 00:00:00-0400",
	"Work Type Name": "Oil Work",
	"Filing Type Name": "New Job Filing",
	"LocationBIN": "1036068",
	"Address": "470 PARK AVENUE",
	"CommunityBoardNumber": 105,
	"LocationBoroughName": "MANHATTAN",
	"Longitude": -73.97077941894531,
	"Latitude": 40.76224899291992
 },
 {
	"Item Type Name": "Temporary DOB registered oil fired mobile boiler",
	"JFNPermitNumber": "null",
	"FilingNumber": "P1",
	"Created On Date": "02/20/2020 00:00:00-0500",
	"Work Type Name": "Oil Work",
	"Filing Type Name": "PAA",
	"LocationBIN": "1036480",
	"Address": "123 EAST   54 STREET",
	"CommunityBoardNumber": 105,
	"LocationBoroughName": "MANHATTAN",
	"Longitude": -73.97107696533203,
	"Latitude": 40.75947952270508
 },
 {
	"Item Type Name": "Temporary DOB registered oil fired mobile boiler",
	"JFNPermitNumber": "M00318869-I1-LA",
	"FilingNumber": "I1",
	"Created On Date": "02/20/2020 00:00:00-0500",
	"Work Type Name": "Oil Work",
	"Filing Type Name": "New Job Filing",
	"LocationBIN": "1036480",
	"Address": "123 EAST   54 STREET",
	"CommunityBoardNumber": 105,
	"LocationBoroughName": "MANHATTAN",
	"Longitude": -73.97107696533203,
	"Latitude": 40.75947952270508
 },
 {
	"Item Type Name": "Temporary DOB registered oil fired mobile boiler",
	"JFNPermitNumber": "M00342019-I1-LA",
	"FilingNumber": "I1",
	"Created On Date": "04/15/2020 00:00:00-0400",
	"Work Type Name": "Oil Work",
	"Filing Type Name": "New Job Filing",
	"LocationBIN": "1037599",
	"Address": "212 EAST   47 STREET",
	"CommunityBoardNumber": 106,
	"LocationBoroughName": "MANHATTAN",
	"Longitude": -73.9716567993164,
	"Latitude": 40.75326919555664
 },
 {
	"Item Type Name": "Temporary DOB registered oil fired mobile boiler",
	"JFNPermitNumber": "M00270048-I1-LA",
	"FilingNumber": "I1",
	"Created On Date": "11/21/2019 00:00:00-0500",
	"Work Type Name": "Oil Work",
	"Filing Type Name": "New Job Filing",
	"LocationBIN": "1037599",
	"Address": "212 EAST   47 STREET",
	"CommunityBoardNumber": 106,
	"LocationBoroughName": "MANHATTAN",
	"Longitude": -73.9716567993164,
	"Latitude": 40.75326919555664
 },
 {
	"Item Type Name": "Temporary DOB registered oil fired mobile boiler",
	"JFNPermitNumber": "M00088020-I1-LA",
	"FilingNumber": "I1",
	"Created On Date": "10/15/2018 00:00:00-0400",
	"Work Type Name": "Oil Work",
	"Filing Type Name": "New Job Filing",
	"LocationBIN": "1037995",
	"Address": "212 EAST   48 STREET",
	"CommunityBoardNumber": 106,
	"LocationBoroughName": "MANHATTAN",
	"Longitude": -73.9710464477539,
	"Latitude": 40.754058837890625
 },
 {
	"Item Type Name": "Temporary DOB registered oil fired mobile boiler",
	"JFNPermitNumber": "M00147096-I1-LA",
	"FilingNumber": "I1",
	"Created On Date": "03/27/2019 00:00:00-0400",
	"Work Type Name": "Oil Work",
	"Filing Type Name": "New Job Filing",
	"LocationBIN": "1039659",
	"Address": "349 EAST   51 STREET",
	"CommunityBoardNumber": 106,
	"LocationBoroughName": "MANHATTAN",
	"Longitude": -73.96614837646484,
	"Latitude": 40.754940032958984
 },
 {
	"Item Type Name": "Temporary DOB registered oil fired mobile boiler",
	"JFNPermitNumber": "M00090834-I1-LA",
	"FilingNumber": "I1",
	"Created On Date": "10/22/2018 00:00:00-0400",
	"Work Type Name": "Oil Work",
	"Filing Type Name": "New Job Filing",
	"LocationBIN": "1040138",
	"Address": "439 EAST   51 STREET",
	"CommunityBoardNumber": 106,
	"LocationBoroughName": "MANHATTAN",
	"Longitude": -73.96410369873047,
	"Latitude": 40.75407028198242
 },
 {
	"Item Type Name": "Temporary DOB registered oil fired mobile boiler",
	"JFNPermitNumber": "null",
	"FilingNumber": "P1",
	"Created On Date": "01/21/2020 00:00:00-0500",
	"Work Type Name": "Oil Work",
	"Filing Type Name": "PAA",
	"LocationBIN": "1040472",
	"Address": "430 EAST   57 STREET",
	"CommunityBoardNumber": 106,
	"LocationBoroughName": "MANHATTAN",
	"Longitude": -73.96195220947266,
	"Latitude": 40.757568359375
 },
 {
	"Item Type Name": "Temporary DOB registered oil fired mobile boiler",
	"JFNPermitNumber": "M00372948-I1-LA",
	"FilingNumber": "I1",
	"Created On Date": "07/20/2020 00:00:00-0400",
	"Work Type Name": "Oil Work",
	"Filing Type Name": "New Job Filing",
	"LocationBIN": "1040472",
	"Address": "430 EAST   57 STREET",
	"CommunityBoardNumber": 106,
	"LocationBoroughName": "MANHATTAN",
	"Longitude": -73.96195220947266,
	"Latitude": 40.757568359375
 },
 {
	"Item Type Name": "Temporary DOB registered oil fired mobile boiler",
	"JFNPermitNumber": "M00236344-I1-LA",
	"FilingNumber": "I1",
	"Created On Date": "09/27/2019 00:00:00-0400",
	"Work Type Name": "Oil Work",
	"Filing Type Name": "New Job Filing",
	"LocationBIN": "1040472",
	"Address": "430 EAST   57 STREET",
	"CommunityBoardNumber": 106,
	"LocationBoroughName": "MANHATTAN",
	"Longitude": -73.96195220947266,
	"Latitude": 40.757568359375
 },
 {
	"Item Type Name": "Temporary DOB registered oil fired mobile boiler",
	"JFNPermitNumber": "null",
	"FilingNumber": "P1",
	"Created On Date": "02/28/2020 00:00:00-0500",
	"Work Type Name": "Oil Work",
	"Filing Type Name": "PAA",
	"LocationBIN": "1040543",
	"Address": "4 SUTTON PLACE",
	"CommunityBoardNumber": 106,
	"LocationBoroughName": "MANHATTAN",
	"Longitude": -73.96070861816406,
	"Latitude": 40.7576789855957
 },
 {
	"Item Type Name": "Temporary DOB registered oil fired mobile boiler",
	"JFNPermitNumber": "M00163154-I1-LA",
	"FilingNumber": "I1",
	"Created On Date": "05/06/2019 00:00:00-0400",
	"Work Type Name": "Oil Work",
	"Filing Type Name": "New Job Filing",
	"LocationBIN": "1040543",
	"Address": "4 SUTTON PLACE",
	"CommunityBoardNumber": 106,
	"LocationBoroughName": "MANHATTAN",
	"Longitude": -73.96070861816406,
	"Latitude": 40.7576789855957
 },
 {
	"Item Type Name": "Temporary DOB registered oil fired mobile boiler",
	"JFNPermitNumber": "M00426955-I1-LA",
	"FilingNumber": "I1",
	"Created On Date": "11/11/2020 00:00:00-0500",
	"Work Type Name": "Oil Work",
	"Filing Type Name": "New Job Filing",
	"LocationBIN": "1041296",
	"Address": "13 EAST   69 STREET",
	"CommunityBoardNumber": 108,
	"LocationBoroughName": "MANHATTAN",
	"Longitude": -73.96708679199219,
	"Latitude": 40.770198822021484
 },
 {
	"Item Type Name": "Temporary Oil Tank (above ground)",
	"JFNPermitNumber": "M00273217-I1-LA",
	"FilingNumber": "I1",
	"Created On Date": "11/27/2019 00:00:00-0500",
	"Work Type Name": "Oil Work",
	"Filing Type Name": "New Job Filing",
	"LocationBIN": "1041809",
	"Address": "10 EAST   77 STREET",
	"CommunityBoardNumber": 108,
	"LocationBoroughName": "MANHATTAN",
	"Longitude": -73.96402740478516,
	"Latitude": 40.775150299072266
 },
 {
	"Item Type Name": "Temporary DOB registered oil fired mobile boiler",
	"JFNPermitNumber": "null",
	"FilingNumber": "P1",
	"Created On Date": "10/08/2020 00:00:00-0400",
	"Work Type Name": "Oil Work",
	"Filing Type Name": "PAA",
	"LocationBIN": "1042355",
	"Address": "133 EAST   64 STREET",
	"CommunityBoardNumber": 108,
	"LocationBoroughName": "MANHATTAN",
	"Longitude": -73.96602630615234,
	"Latitude": 40.76565933227539
 },
 {
	"Item Type Name": "Temporary DOB registered oil fired mobile boiler",
	"JFNPermitNumber": "M00396482-I1-LA",
	"FilingNumber": "I1",
	"Created On Date": "09/09/2020 00:00:00-0400",
	"Work Type Name": "Oil Work",
	"Filing Type Name": "New Job Filing",
	"LocationBIN": "1042355",
	"Address": "133 EAST   64 STREET",
	"CommunityBoardNumber": 108,
	"LocationBoroughName": "MANHATTAN",
	"Longitude": -73.96602630615234,
	"Latitude": 40.76565933227539
 },
 {
	"Item Type Name": "Temporary Oil Tank (above ground)",
	"JFNPermitNumber": "M00405554-I1-LA",
	"FilingNumber": "I1",
	"Created On Date": "09/29/2020 00:00:00-0400",
	"Work Type Name": "Oil Work",
	"Filing Type Name": "New Job Filing",
	"LocationBIN": "1042472",
	"Address": "163 EAST   67 STREET",
	"CommunityBoardNumber": 108,
	"LocationBoroughName": "MANHATTAN",
	"Longitude": -73.96337890625,
	"Latitude": 40.766990661621094
 },
 {
	"Item Type Name": "Temporary DOB registered oil fired mobile boiler",
	"JFNPermitNumber": "null",
	"FilingNumber": "P1",
	"Created On Date": "01/28/2020 00:00:00-0500",
	"Work Type Name": "Oil Work",
	"Filing Type Name": "PAA",
	"LocationBIN": "1042767",
	"Address": "970 LEXINGTON AVENUE",
	"CommunityBoardNumber": 108,
	"LocationBoroughName": "MANHATTAN",
	"Longitude": -73.96312713623047,
	"Latitude": 40.76953125
 },
 {
	"Item Type Name": "Temporary DOB registered oil fired mobile boiler",
	"JFNPermitNumber": "M00267909-I1-LA",
	"FilingNumber": "I1",
	"Created On Date": "11/19/2019 00:00:00-0500",
	"Work Type Name": "Oil Work",
	"Filing Type Name": "New Job Filing",
	"LocationBIN": "1042767",
	"Address": "970 LEXINGTON AVENUE",
	"CommunityBoardNumber": 108,
	"LocationBoroughName": "MANHATTAN",
	"Longitude": -73.96312713623047,
	"Latitude": 40.76953125
 },
 {
	"Item Type Name": "Temporary Oil Tank (above ground)",
	"JFNPermitNumber": "M00436096-I1-LA",
	"FilingNumber": "I1",
	"Created On Date": "12/03/2020 00:00:00-0500",
	"Work Type Name": "Oil Work",
	"Filing Type Name": "New Job Filing",
	"LocationBIN": "1043153",
	"Address": "184 EAST   76 STREET",
	"CommunityBoardNumber": 108,
	"LocationBoroughName": "MANHATTAN",
	"Longitude": -73.9595718383789,
	"Latitude": 40.77244186401367
 },
 {
	"Item Type Name": "Temporary DOB registered oil fired mobile boiler",
	"JFNPermitNumber": "M00427738-I1-LA",
	"FilingNumber": "I1",
	"Created On Date": "11/12/2020 00:00:00-0500",
	"Work Type Name": "Oil Work",
	"Filing Type Name": "New Job Filing",
	"LocationBIN": "1043850",
	"Address": "210 EAST   63 STREET",
	"CommunityBoardNumber": 108,
	"LocationBoroughName": "MANHATTAN",
	"Longitude": -73.96424865722656,
	"Latitude": 40.76359176635742
 },
 {
	"Item Type Name": "Temporary DOB registered oil fired mobile boiler",
	"JFNPermitNumber": "M00229348-I1-LA",
	"FilingNumber": "I1",
	"Created On Date": "09/17/2019 00:00:00-0400",
	"Work Type Name": "Oil Work",
	"Filing Type Name": "New Job Filing",
	"LocationBIN": "1043937",
	"Address": "211 EAST   71 STREET",
	"CommunityBoardNumber": 108,
	"LocationBoroughName": "MANHATTAN",
	"Longitude": -73.96018981933594,
	"Latitude": 40.76892852783203
 },
 {
	"Item Type Name": "Temporary DOB registered oil fired mobile boiler",
	"JFNPermitNumber": "M00159968-S1-LA",
	"FilingNumber": "S1",
	"Created On Date": "04/30/2019 00:00:00-0400",
	"Work Type Name": "Oil Work",
	"Filing Type Name": "Subsequent Filing",
	"LocationBIN": "1043946",
	"Address": "260 EAST   72 STREET",
	"CommunityBoardNumber": 108,
	"LocationBoroughName": "MANHATTAN",
	"Longitude": -73.95879364013672,
	"Latitude": 40.76866912841797
 },
 {
	"Item Type Name": "Temporary DOB registered oil fired mobile boiler",
	"JFNPermitNumber": "M00159968-I1-LA",
	"FilingNumber": "I1",
	"Created On Date": "04/26/2019 00:00:00-0400",
	"Work Type Name": "Oil Work",
	"Filing Type Name": "New Job Filing",
	"LocationBIN": "1043946",
	"Address": "260 EAST   72 STREET",
	"CommunityBoardNumber": 108,
	"LocationBoroughName": "MANHATTAN",
	"Longitude": -73.95879364013672,
	"Latitude": 40.76866912841797
 },
 {
	"Item Type Name": "Temporary Oil Tank (above ground)",
	"JFNPermitNumber": "M00441712-I1-LA",
	"FilingNumber": "I1",
	"Created On Date": "12/16/2020 00:00:00-0500",
	"Work Type Name": "Oil Work",
	"Filing Type Name": "New Job Filing",
	"LocationBIN": "1044369",
	"Address": "359 EAST   62 STREET",
	"CommunityBoardNumber": 108,
	"LocationBoroughName": "MANHATTAN",
	"Longitude": -73.96090698242188,
	"Latitude": 40.76185989379883
 },
 {
	"Item Type Name": "Temporary DOB registered oil fired mobile boiler",
	"JFNPermitNumber": "M00235734-I1-LA",
	"FilingNumber": "I1",
	"Created On Date": "09/26/2019 00:00:00-0400",
	"Work Type Name": "Oil Work",
	"Filing Type Name": "New Job Filing",
	"LocationBIN": "1044722",
	"Address": "349 EAST   65 STREET",
	"CommunityBoardNumber": 108,
	"LocationBoroughName": "MANHATTAN",
	"Longitude": -73.9593734741211,
	"Latitude": 40.763729095458984
 },
 {
	"Item Type Name": "Temporary Oil Tank (above ground)",
	"JFNPermitNumber": "null",
	"FilingNumber": "P1",
	"Created On Date": "10/30/2019 00:00:00-0400",
	"Work Type Name": "Oil Work",
	"Filing Type Name": "PAA",
	"LocationBIN": "1044739",
	"Address": "321 EAST   66 STREET",
	"CommunityBoardNumber": 108,
	"LocationBoroughName": "MANHATTAN",
	"Longitude": -73.95970916748047,
	"Latitude": 40.76462936401367
 },
 {
	"Item Type Name": "Temporary Oil Tank (above ground)",
	"JFNPermitNumber": "M00252132-I1-LA",
	"FilingNumber": "I1",
	"Created On Date": "10/24/2019 00:00:00-0400",
	"Work Type Name": "Oil Work",
	"Filing Type Name": "New Job Filing",
	"LocationBIN": "1044739",
	"Address": "321 EAST   66 STREET",
	"CommunityBoardNumber": 108,
	"LocationBoroughName": "MANHATTAN",
	"Longitude": -73.95970916748047,
	"Latitude": 40.76462936401367
 },
 {
	"Item Type Name": "Temporary DOB registered oil fired mobile boiler",
	"JFNPermitNumber": "M00233496-I1-LA",
	"FilingNumber": "I1",
	"Created On Date": "09/23/2019 00:00:00-0400",
	"Work Type Name": "Oil Work",
	"Filing Type Name": "New Job Filing",
	"LocationBIN": "1044739",
	"Address": "321 EAST   66 STREET",
	"CommunityBoardNumber": 108,
	"LocationBoroughName": "MANHATTAN",
	"Longitude": -73.95970916748047,
	"Latitude": 40.76462936401367
 },
 {
	"Item Type Name": "Temporary DOB registered oil fired mobile boiler",
	"JFNPermitNumber": "null",
	"FilingNumber": "P1",
	"Created On Date": "12/04/2019 00:00:00-0500",
	"Work Type Name": "Oil Work",
	"Filing Type Name": "PAA",
	"LocationBIN": "1044890",
	"Address": "326 EAST   73 STREET",
	"CommunityBoardNumber": 108,
	"LocationBoroughName": "MANHATTAN",
	"Longitude": -73.95661926269531,
	"Latitude": 40.76871109008789
 },
 {
	"Item Type Name": "Temporary DOB registered oil fired mobile boiler",
	"JFNPermitNumber": "M00174702-I1-LA",
	"FilingNumber": "I1",
	"Created On Date": "05/31/2019 00:00:00-0400",
	"Work Type Name": "Oil Work",
	"Filing Type Name": "New Job Filing",
	"LocationBIN": "1044890",
	"Address": "326 EAST   73 STREET",
	"CommunityBoardNumber": 108,
	"LocationBoroughName": "MANHATTAN",
	"Longitude": -73.95661926269531,
	"Latitude": 40.76871109008789
 },
 {
	"Item Type Name": "Temporary DOB registered oil fired mobile boiler",
	"JFNPermitNumber": "M00130686-I1-LA",
	"FilingNumber": "I1",
	"Created On Date": "02/13/2019 00:00:00-0500",
	"Work Type Name": "Oil Work",
	"Filing Type Name": "New Job Filing",
	"LocationBIN": "1044890",
	"Address": "326 EAST   73 STREET",
	"CommunityBoardNumber": 108,
	"LocationBoroughName": "MANHATTAN",
	"Longitude": -73.95661926269531,
	"Latitude": 40.76871109008789
 },
 {
	"Item Type Name": "Temporary DOB registered oil fired mobile boiler",
	"JFNPermitNumber": "M00275197-I1-LA",
	"FilingNumber": "I1",
	"Created On Date": "12/03/2019 00:00:00-0500",
	"Work Type Name": "Oil Work",
	"Filing Type Name": "New Job Filing",
	"LocationBIN": "1046011",
	"Address": "399 EAST   78 STREET",
	"CommunityBoardNumber": 108,
	"LocationBoroughName": "MANHATTAN",
	"Longitude": -73.95284271240234,
	"Latitude": 40.771690368652344
 },
 {
	"Item Type Name": "Temporary Oil Tank (above ground)",
	"JFNPermitNumber": "null",
	"FilingNumber": "P1",
	"Created On Date": "03/13/2020 00:00:00-0400",
	"Work Type Name": "Oil Work",
	"Filing Type Name": "PAA",
	"LocationBIN": "1047404",
	"Address": "71 EAST   94 STREET",
	"CommunityBoardNumber": 108,
	"LocationBoroughName": "MANHATTAN",
	"Longitude": -73.95413208007812,
	"Latitude": 40.785919189453125
 },
 {
	"Item Type Name": "Temporary Oil Tank (above ground)",
	"JFNPermitNumber": "null",
	"FilingNumber": "P1",
	"Created On Date": "03/13/2020 00:00:00-0400",
	"Work Type Name": "Oil Work",
	"Filing Type Name": "PAA",
	"LocationBIN": "1047404",
	"Address": "71 EAST   94 STREET",
	"CommunityBoardNumber": 108,
	"LocationBoroughName": "MANHATTAN",
	"Longitude": -73.95413208007812,
	"Latitude": 40.785919189453125
 },
 {
	"Item Type Name": "Temporary Oil Tank (above ground)",
	"JFNPermitNumber": "M00280374-I1-LA",
	"FilingNumber": "I1",
	"Created On Date": "12/11/2019 00:00:00-0500",
	"Work Type Name": "Oil Work",
	"Filing Type Name": "New Job Filing",
	"LocationBIN": "1047404",
	"Address": "71 EAST   94 STREET",
	"CommunityBoardNumber": 108,
	"LocationBoroughName": "MANHATTAN",
	"Longitude": -73.95413208007812,
	"Latitude": 40.785919189453125
 },
 {
	"Item Type Name": "Temporary Oil Tank (above ground)",
	"JFNPermitNumber": "M00248312-I1-LA",
	"FilingNumber": "I1",
	"Created On Date": "10/17/2019 00:00:00-0400",
	"Work Type Name": "Oil Work",
	"Filing Type Name": "New Job Filing",
	"LocationBIN": "1047404",
	"Address": "71 EAST   94 STREET",
	"CommunityBoardNumber": 108,
	"LocationBoroughName": "MANHATTAN",
	"Longitude": -73.95413208007812,
	"Latitude": 40.785919189453125
 },
 {
	"Item Type Name": "Temporary DOB registered oil fired mobile boiler",
	"JFNPermitNumber": "null",
	"FilingNumber": "P1",
	"Created On Date": "02/03/2020 00:00:00-0500",
	"Work Type Name": "Oil Work",
	"Filing Type Name": "PAA",
	"LocationBIN": "1047627",
	"Address": "140 EAST   83 STREET",
	"CommunityBoardNumber": 108,
	"LocationBoroughName": "MANHATTAN",
	"Longitude": -73.95690155029297,
	"Latitude": 40.77724838256836
 },
 {
	"Item Type Name": "Temporary DOB registered oil fired mobile boiler",
	"JFNPermitNumber": "M00254257-I1-LA",
	"FilingNumber": "I1",
	"Created On Date": "10/28/2019 00:00:00-0400",
	"Work Type Name": "Oil Work",
	"Filing Type Name": "New Job Filing",
	"LocationBIN": "1047627",
	"Address": "140 EAST   83 STREET",
	"CommunityBoardNumber": 108,
	"LocationBoroughName": "MANHATTAN",
	"Longitude": -73.95690155029297,
	"Latitude": 40.77724838256836
 },
 {
	"Item Type Name": "Temporary DOB registered oil fired mobile boiler",
	"JFNPermitNumber": "M00271272-I1-LA",
	"FilingNumber": "I1",
	"Created On Date": "11/25/2019 00:00:00-0500",
	"Work Type Name": "Oil Work",
	"Filing Type Name": "New Job Filing",
	"LocationBIN": "1047951",
	"Address": "1045 PARK AVENUE",
	"CommunityBoardNumber": 108,
	"LocationBoroughName": "MANHATTAN",
	"Longitude": -73.95673370361328,
	"Latitude": 40.78028869628906
 },
 {
	"Item Type Name": "Temporary DOB registered oil fired mobile boiler",
	"JFNPermitNumber": "M00231927-I1-LA",
	"FilingNumber": "I1",
	"Created On Date": "09/20/2019 00:00:00-0400",
	"Work Type Name": "Oil Work",
	"Filing Type Name": "New Job Filing",
	"LocationBIN": "1048077",
	"Address": "127 EAST   88 STREET",
	"CommunityBoardNumber": 108,
	"LocationBoroughName": "MANHATTAN",
	"Longitude": -73.95468139648438,
	"Latitude": 40.78105926513672
 },
 {
	"Item Type Name": "Temporary Oil Tank (above ground)",
	"JFNPermitNumber": "M00117043-I1-LA",
	"FilingNumber": "I1",
	"Created On Date": "01/08/2019 00:00:00-0500",
	"Work Type Name": "Oil Work",
	"Filing Type Name": "New Job Filing",
	"LocationBIN": "1048406",
	"Address": "130 EAST   94 STREET",
	"CommunityBoardNumber": 108,
	"LocationBoroughName": "MANHATTAN",
	"Longitude": -73.95249938964844,
	"Latitude": 40.78458023071289
 },
 {
	"Item Type Name": "Temporary DOB registered oil fired mobile boiler",
	"JFNPermitNumber": "M00224617-I1-LA",
	"FilingNumber": "I1",
	"Created On Date": "09/09/2019 00:00:00-0400",
	"Work Type Name": "Oil Work",
	"Filing Type Name": "New Job Filing",
	"LocationBIN": "1048571",
	"Address": "236 EAST   82 STREET",
	"CommunityBoardNumber": 108,
	"LocationBoroughName": "MANHATTAN",
	"Longitude": -73.95452880859375,
	"Latitude": 40.775421142578125
 },
 {
	"Item Type Name": "Temporary DOB registered oil fired mobile boiler",
	"JFNPermitNumber": "M00231556-I1-LA",
	"FilingNumber": "I1",
	"Created On Date": "09/19/2019 00:00:00-0400",
	"Work Type Name": "Oil Work",
	"Filing Type Name": "New Job Filing",
	"LocationBIN": "1050385",
	"Address": "401 EAST   81 STREET",
	"CommunityBoardNumber": 108,
	"LocationBoroughName": "MANHATTAN",
	"Longitude": -73.95117950439453,
	"Latitude": 40.773681640625
 },
 {
	"Item Type Name": "Temporary DOB registered oil fired mobile boiler",
	"JFNPermitNumber": "M00265883-I1-LA",
	"FilingNumber": "I1",
	"Created On Date": "11/15/2019 00:00:00-0500",
	"Work Type Name": "Oil Work",
	"Filing Type Name": "New Job Filing",
	"LocationBIN": "1050634",
	"Address": "1725 YORK AVENUE",
	"CommunityBoardNumber": 108,
	"LocationBoroughName": "MANHATTAN",
	"Longitude": -73.94597625732422,
	"Latitude": 40.7783203125
 },
 {
	"Item Type Name": "Temporary Oil Tank (above ground)",
	"JFNPermitNumber": "M00327083-I1-LA",
	"FilingNumber": "I1",
	"Created On Date": "03/04/2020 00:00:00-0500",
	"Work Type Name": "Oil Work",
	"Filing Type Name": "New Job Filing",
	"LocationBIN": "1051472",
	"Address": "1411 MADISON AVENUE",
	"CommunityBoardNumber": 111,
	"LocationBoroughName": "MANHATTAN",
	"Longitude": -73.95305633544922,
	"Latitude": 40.78826141357422
 },
 {
	"Item Type Name": "Temporary DOB registered oil fired mobile boiler",
	"JFNPermitNumber": "M00253234-I1-LA",
	"FilingNumber": "I1",
	"Created On Date": "10/25/2019 00:00:00-0400",
	"Work Type Name": "Oil Work",
	"Filing Type Name": "New Job Filing",
	"LocationBIN": "1051595",
	"Address": "2 EAST  109 STREET",
	"CommunityBoardNumber": 111,
	"LocationBoroughName": "MANHATTAN",
	"Longitude": -73.94950103759766,
	"Latitude": 40.79589080810547
 },
 {
	"Item Type Name": "Temporary DOB registered oil fired mobile boiler",
	"JFNPermitNumber": "M00314320-I1-LA",
	"FilingNumber": "I1",
	"Created On Date": "02/12/2020 00:00:00-0500",
	"Work Type Name": "Oil Work",
	"Filing Type Name": "New Job Filing",
	"LocationBIN": "1051599",
	"Address": "15 EAST  109 STREET",
	"CommunityBoardNumber": 111,
	"LocationBoroughName": "MANHATTAN",
	"Longitude": -73.94869232177734,
	"Latitude": 40.79603958129883
 },
 {
	"Item Type Name": "Temporary DOB registered oil fired mobile boiler",
	"JFNPermitNumber": "M00112144-I1-LA",
	"FilingNumber": "I1",
	"Created On Date": "12/19/2018 00:00:00-0500",
	"Work Type Name": "Oil Work",
	"Filing Type Name": "New Job Filing",
	"LocationBIN": "1052774",
	"Address": "312 EAST  106 STREET",
	"CommunityBoardNumber": 111,
	"LocationBoroughName": "MANHATTAN",
	"Longitude": -73.94175720214844,
	"Latitude": 40.79003143310547
 },
 {
	"Item Type Name": "Temporary DOB registered oil fired mobile boiler",
	"JFNPermitNumber": "Permit Not Yet Issued",
	"FilingNumber": "I1",
	"Created On Date": "03/15/2019 00:00:00-0400",
	"Work Type Name": "Oil Work",
	"Filing Type Name": "New Job Filing",
	"LocationBIN": "1053056",
	"Address": "432 EAST  116 STREET",
	"CommunityBoardNumber": 111,
	"LocationBoroughName": "MANHATTAN",
	"Longitude": -73.93437957763672,
	"Latitude": 40.79526138305664
 },
 {
	"Item Type Name": "Temporary Oil Tank (above ground)",
	"JFNPermitNumber": "M00283222-I1-LA",
	"FilingNumber": "I1",
	"Created On Date": "12/17/2019 00:00:00-0500",
	"Work Type Name": "Oil Work",
	"Filing Type Name": "New Job Filing",
	"LocationBIN": "1053651",
	"Address": "40 WEST  128 STREET",
	"CommunityBoardNumber": 110,
	"LocationBoroughName": "MANHATTAN",
	"Longitude": -73.94267272949219,
	"Latitude": 40.8088493347168
 },
 {
	"Item Type Name": "Temporary DOB registered oil fired mobile boiler",
	"JFNPermitNumber": "M00420164-I1-LA",
	"FilingNumber": "I1",
	"Created On Date": "10/27/2020 00:00:00-0400",
	"Work Type Name": "Oil Work",
	"Filing Type Name": "New Job Filing",
	"LocationBIN": "1053832",
	"Address": "51 WEST  131 STREET",
	"CommunityBoardNumber": 110,
	"LocationBoroughName": "MANHATTAN",
	"Longitude": -73.94139099121094,
	"Latitude": 40.81126022338867
 },
 {
	"Item Type Name": "Temporary DOB registered oil fired mobile boiler",
	"JFNPermitNumber": "Permit Not Yet Issued",
	"FilingNumber": "I1",
	"Created On Date": "01/11/2019 00:00:00-0500",
	"Work Type Name": "Oil Work",
	"Filing Type Name": "New Job Filing",
	"LocationBIN": "1053919",
	"Address": "2254 5 AVENUE",
	"CommunityBoardNumber": 110,
	"LocationBoroughName": "MANHATTAN",
	"Longitude": -73.93675994873047,
	"Latitude": 40.81439971923828
 },
 {
	"Item Type Name": "Temporary DOB registered oil fired mobile boiler",
	"JFNPermitNumber": "Permit Not Yet Issued",
	"FilingNumber": "I1",
	"Created On Date": "01/10/2019 00:00:00-0500",
	"Work Type Name": "Oil Work",
	"Filing Type Name": "New Job Filing",
	"LocationBIN": "1053919",
	"Address": "2254 5 AVENUE",
	"CommunityBoardNumber": 110,
	"LocationBoroughName": "MANHATTAN",
	"Longitude": -73.93675994873047,
	"Latitude": 40.81439971923828
 },
 {
	"Item Type Name": "Temporary Oil Tank (above ground)",
	"JFNPermitNumber": "M00304915-I1-LA",
	"FilingNumber": "I1",
	"Created On Date": "01/28/2020 00:00:00-0500",
	"Work Type Name": "Oil Work",
	"Filing Type Name": "New Job Filing",
	"LocationBIN": "1054128",
	"Address": "2 EAST  127 STREET",
	"CommunityBoardNumber": 111,
	"LocationBoroughName": "MANHATTAN",
	"Longitude": -73.94110107421875,
	"Latitude": 40.80744934082031
 },
 {
	"Item Type Name": "Temporary Oil Tank (above ground)",
	"JFNPermitNumber": "M00264519-I1-LA",
	"FilingNumber": "I1",
	"Created On Date": "11/13/2019 00:00:00-0500",
	"Work Type Name": "Oil Work",
	"Filing Type Name": "New Job Filing",
	"LocationBIN": "1054128",
	"Address": "2 EAST  127 STREET",
	"CommunityBoardNumber": 111,
	"LocationBoroughName": "MANHATTAN",
	"Longitude": -73.94110107421875,
	"Latitude": 40.80744934082031
 },
 {
	"Item Type Name": "Temporary DOB registered oil fired mobile boiler",
	"JFNPermitNumber": "M00265148-I1-LA",
	"FilingNumber": "I1",
	"Created On Date": "11/14/2019 00:00:00-0500",
	"Work Type Name": "Oil Work",
	"Filing Type Name": "New Job Filing",
	"LocationBIN": "1054181",
	"Address": "2015 MADISON AVENUE",
	"CommunityBoardNumber": 111,
	"LocationBoroughName": "MANHATTAN",
	"Longitude": -73.9388198852539,
	"Latitude": 40.80772018432617
 },
 {
	"Item Type Name": "Temporary Oil Tank (above ground)",
	"JFNPermitNumber": "null",
	"FilingNumber": "P1",
	"Created On Date": "10/29/2020 00:00:00-0400",
	"Work Type Name": "Oil Work",
	"Filing Type Name": "PAA",
	"LocationBIN": "1054346",
	"Address": "125 EAST  118 STREET",
	"CommunityBoardNumber": 111,
	"LocationBoroughName": "MANHATTAN",
	"Longitude": -73.94109344482422,
	"Latitude": 40.800350189208984
 },
 {
	"Item Type Name": "Temporary Oil Tank (above ground)",
	"JFNPermitNumber": "M00413007-I1-LA",
	"FilingNumber": "I1",
	"Created On Date": "10/13/2020 00:00:00-0400",
	"Work Type Name": "Oil Work",
	"Filing Type Name": "New Job Filing",
	"LocationBIN": "1054346",
	"Address": "125 EAST  118 STREET",
	"CommunityBoardNumber": 111,
	"LocationBoroughName": "MANHATTAN",
	"Longitude": -73.94109344482422,
	"Latitude": 40.800350189208984
 },
 {
	"Item Type Name": "Temporary Oil Tank (above ground)",
	"JFNPermitNumber": "M00324982-I1-LA",
	"FilingNumber": "I1",
	"Created On Date": "03/02/2020 00:00:00-0500",
	"Work Type Name": "Oil Work",
	"Filing Type Name": "New Job Filing",
	"LocationBIN": "1054357",
	"Address": "166 EAST  119 STREET",
	"CommunityBoardNumber": 111,
	"LocationBoroughName": "MANHATTAN",
	"Longitude": -73.9397964477539,
	"Latitude": 40.800140380859375
 },
 {
	"Item Type Name": "Temporary DOB registered oil fired mobile boiler",
	"JFNPermitNumber": "Permit Not Yet Issued",
	"FilingNumber": "I1",
	"Created On Date": "11/21/2019 00:00:00-0500",
	"Work Type Name": "Oil Work",
	"Filing Type Name": "New Job Filing",
	"LocationBIN": "1054505",
	"Address": "105 EAST  128 STREET",
	"CommunityBoardNumber": 111,
	"LocationBoroughName": "MANHATTAN",
	"Longitude": -73.93641662597656,
	"Latitude": 40.80686950683594
 },
 {
	"Item Type Name": "Temporary DOB registered oil fired mobile boiler",
	"JFNPermitNumber": "M00217422-S2-LA",
	"FilingNumber": "S2",
	"Created On Date": "11/22/2019 00:00:00-0500",
	"Work Type Name": "Oil Work",
	"Filing Type Name": "Subsequent Filing",
	"LocationBIN": "1054505",
	"Address": "110 EAST  129 STREET",
	"CommunityBoardNumber": 111,
	"LocationBoroughName": "MANHATTAN",
	"Longitude": -73.93641662597656,
	"Latitude": 40.80686950683594
 },
 {
	"Item Type Name": "Temporary DOB registered oil fired mobile boiler",
	"JFNPermitNumber": "null",
	"FilingNumber": "P1",
	"Created On Date": "02/03/2020 00:00:00-0500",
	"Work Type Name": "Oil Work",
	"Filing Type Name": "PAA",
	"LocationBIN": "1054921",
	"Address": "131 WEST  110 STREET",
	"CommunityBoardNumber": 110,
	"LocationBoroughName": "MANHATTAN",
	"Longitude": -73.9534912109375,
	"Latitude": 40.79893112182617
 },
 {
	"Item Type Name": "Temporary DOB registered oil fired mobile boiler",
	"JFNPermitNumber": "M00270685-I1-LA",
	"FilingNumber": "I1",
	"Created On Date": "11/22/2019 00:00:00-0500",
	"Work Type Name": "Oil Work",
	"Filing Type Name": "New Job Filing",
	"LocationBIN": "1054921",
	"Address": "131 WEST  110 STREET",
	"CommunityBoardNumber": 110,
	"LocationBoroughName": "MANHATTAN",
	"Longitude": -73.9534912109375,
	"Latitude": 40.79893112182617
 },