[
 {
	"Item Type Name": "Temporary DOB registered oil fired mobile boiler",
	"JFNPermitNumber": "B00094002-I1-LA",
	"FilingNumber": "I1",
	"Created On Date": "2018/10/30 12:00:00",
	"Work Type Name": "Oil Work",
	"Filing Type Name": "New Job Filing",
	"LocationBIN": "3422980",
	"Address": "362 MASPETH AVENUE",
	"CommunityBoardNumber": "301",
	"LocationBoroughName": "BROOKLYN",
	"Longitude": -73.9293365,
	"Latitude": 40.7179718
 },
 {
	"Item Type Name": "Temporary DOB registered oil fired mobile boiler",
	"JFNPermitNumber": "B00100816-I1-LA",
	"FilingNumber": "I1",
	"Created On Date": "2018/11/16 12:00:00",
	"Work Type Name": "Oil Work",
	"Filing Type Name": "New Job Filing",
	"LocationBIN": "3063096",
	"Address": "136 SOUTH    2 STREET",
	"CommunityBoardNumber": "301",
	"LocationBoroughName": "BROOKLYN",
	"Longitude": -73.96241,
	"Latitude": 40.7132301
 },
 {
	"Item Type Name": "Temporary DOB registered oil fired mobile boiler",
	"JFNPermitNumber": "B00101546-I1-LA",
	"FilingNumber": "I1",
	"Created On Date": "2018/11/19 12:00:00",
	"Work Type Name": "Oil Work",
	"Filing Type Name": "New Job Filing",
	"LocationBIN": "3335262",
	"Address": "102 CUMBERLAND WALK",
	"CommunityBoardNumber": "302",
	"LocationBoroughName": "BROOKLYN",
	"Longitude": -73.9746933,
	"Latitude": 40.6946602
 },
 {
	"Item Type Name": "Temporary DOB registered oil fired mobile boiler",
	"JFNPermitNumber": "B00101557-I1-LA",
	"FilingNumber": "I1",
	"Created On Date": "2018/11/19 12:00:00",
	"Work Type Name": "Oil Work",
	"Filing Type Name": "New Job Filing",
	"LocationBIN": "3335262",
	"Address": "102 CUMBERLAND WALK",
	"CommunityBoardNumber": "302",
	"LocationBoroughName": "BROOKLYN",
	"Longitude": -73.9746933,
	"Latitude": 40.6946602
 },
 {
	"Item Type Name": "Temporary DOB registered oil fired mobile boiler",
	"JFNPermitNumber": "B00101563-I1-LA",
	"FilingNumber": "I1",
	"Created On Date": "2018/11/19 12:00:00",
	"Work Type Name": "Oil Work",
	"Filing Type Name": "New Job Filing",
	"LocationBIN": "3335262",
	"Address": "102 CUMBERLAND WALK",
	"CommunityBoardNumber": "302",
	"LocationBoroughName": "BROOKLYN",
	"Longitude": -73.9746933,
	"Latitude": 40.6946602
 },
 {
	"Item Type Name": "Temporary DOB registered oil fired mobile boiler",
	"JFNPermitNumber": "B00102291-I1-LA",
	"FilingNumber": "I1",
	"Created On Date": "2018/11/21 12:00:00",
	"Work Type Name": "Oil Work",
	"Filing Type Name": "New Job Filing",
	"LocationBIN": "3013802",
	"Address": "14 53 STREET",
	"CommunityBoardNumber": "307",
	"LocationBoroughName": "BROOKLYN",
	"Longitude": -74.0236893,
	"Latitude": 40.6500206
 },
 {
	"Item Type Name": "Temporary DOB registered oil fired mobile boiler",
	"JFNPermitNumber": "B00102492-I1-LA",
	"FilingNumber": "I1",
	"Created On Date": "2018/11/21 12:00:00",
	"Work Type Name": "Oil Work",
	"Filing Type Name": "New Job Filing",
	"LocationBIN": "3117833",
	"Address": "2819 TILDEN AVENUE",
	"CommunityBoardNumber": "317",
	"LocationBoroughName": "BROOKLYN",
	"Longitude": -73.9503479,
	"Latitude": 40.6470718
 },
 {
	"Item Type Name": "Temporary DOB registered oil fired mobile boiler",
	"JFNPermitNumber": "B00106796-I1-LA",
	"FilingNumber": "I1",
	"Created On Date": "2018/12/5 12:00:00",
	"Work Type Name": "Oil Work",
	"Filing Type Name": "New Job Filing",
	"LocationBIN": "3102215",
	"Address": "290 EAST   53 STREET",
	"CommunityBoardNumber": "317",
	"LocationBoroughName": "BROOKLYN",
	"Longitude": -73.9278793,
	"Latitude": 40.652729
 },
 {
	"Item Type Name": "Temporary DOB registered oil fired mobile boiler",
	"JFNPermitNumber": "B00108745-I1-LA",
	"FilingNumber": "I1",
	"Created On Date": "2018/12/11 12:00:00",
	"Work Type Name": "Oil Work",
	"Filing Type Name": "New Job Filing",
	"LocationBIN": "3180679",
	"Address": "1617 AVENUE M",
	"CommunityBoardNumber": "314",
	"LocationBoroughName": "BROOKLYN",
	"Longitude": -73.9585266,
	"Latitude": 40.6185188
 },
 {
	"Item Type Name": "Temporary DOB registered oil fired mobile boiler",
	"JFNPermitNumber": "B00128358-I1-LA",
	"FilingNumber": "I1",
	"Created On Date": "2019/2/7 12:00:00",
	"Work Type Name": "Oil Work",
	"Filing Type Name": "New Job Filing",
	"LocationBIN": "3037372",
	"Address": "1199 EASTERN PARKWAY",
	"CommunityBoardNumber": "308",
	"LocationBoroughName": "BROOKLYN",
	"Longitude": -73.9287033,
	"Latitude": 40.6691208
 },
 {
	"Item Type Name": "Temporary DOB registered oil fired mobile boiler",
	"JFNPermitNumber": "B00130543-I1-LA",
	"FilingNumber": "I1",
	"Created On Date": "2019/2/13 12:00:00",
	"Work Type Name": "Oil Work",
	"Filing Type Name": "New Job Filing",
	"LocationBIN": "3110482",
	"Address": "1084 NEW YORK AVENUE",
	"CommunityBoardNumber": "317",
	"LocationBoroughName": "BROOKLYN",
	"Longitude": -73.9465485,
	"Latitude": 40.6467018
 },
 {
	"Item Type Name": "Temporary DOB registered oil fired mobile boiler",
	"JFNPermitNumber": "B00145433-I1-LA",
	"FilingNumber": "I1",
	"Created On Date": "2019/3/22 12:00:00",
	"Work Type Name": "Oil Work",
	"Filing Type Name": "New Job Filing",
	"LocationBIN": "3038309",
	"Address": "826 CROWN STREET",
	"CommunityBoardNumber": "309",
	"LocationBoroughName": "BROOKLYN",
	"Longitude": -73.929863,
	"Latitude": 40.6648598
 },
 {
	"Item Type Name": "Temporary DOB registered oil fired mobile boiler",
	"JFNPermitNumber": "B00157250-I1-LA",
	"FilingNumber": "I1",
	"Created On Date": "2019/4/19 12:00:00",
	"Work Type Name": "Oil Work",
	"Filing Type Name": "New Job Filing",
	"LocationBIN": "3337869",
	"Address": "1150 CARROLL STREET",
	"CommunityBoardNumber": "309",
	"LocationBoroughName": "BROOKLYN",
	"Longitude": -73.9518204,
	"Latitude": 40.66679
 },
 {
	"Item Type Name": "Temporary DOB registered oil fired mobile boiler",
	"JFNPermitNumber": "B00167820-I1-LA",
	"FilingNumber": "I1",
	"Created On Date": "2019/5/15 12:00:00",
	"Work Type Name": "Oil Work",
	"Filing Type Name": "New Job Filing",
	"LocationBIN": "3137062",
	"Address": "902 47 STREET",
	"CommunityBoardNumber": "312",
	"LocationBoroughName": "BROOKLYN",
	"Longitude": -73.9996796,
	"Latitude": 40.64114
 },
 {
	"Item Type Name": "Temporary DOB registered oil fired mobile boiler",
	"JFNPermitNumber": "B00169821-I1-LA",
	"FilingNumber": "I1",
	"Created On Date": "2019/5/20 12:00:00",
	"Work Type Name": "Oil Work",
	"Filing Type Name": "New Job Filing",
	"LocationBIN": "3008350",
	"Address": "68 NELSON STREET",
	"CommunityBoardNumber": "306",
	"LocationBoroughName": "BROOKLYN",
	"Longitude": -74.0032425,
	"Latitude": 40.6775284
 },
 {
	"Item Type Name": "Temporary DOB registered oil fired mobile boiler",
	"JFNPermitNumber": "B00173004-I1-LA",
	"FilingNumber": "I1",
	"Created On Date": "2019/5/28 12:00:00",
	"Work Type Name": "Oil Work",
	"Filing Type Name": "New Job Filing",
	"LocationBIN": "3152499",
	"Address": "465 84 STREET",
	"CommunityBoardNumber": "310",
	"LocationBoroughName": "BROOKLYN",
	"Longitude": -74.0258484,
	"Latitude": 40.6234283
 },
 {
	"Item Type Name": "Temporary DOB registered oil fired mobile boiler",
	"JFNPermitNumber": "B00190364-I1-LA",
	"FilingNumber": "I1",
	"Created On Date": "2019/7/9 12:00:00",
	"Work Type Name": "Oil Work",
	"Filing Type Name": "New Job Filing",
	"LocationBIN": "3116551",
	"Address": "100 EAST   21 STREET",
	"CommunityBoardNumber": "314",
	"LocationBoroughName": "BROOKLYN",
	"Longitude": -73.9605408,
	"Latitude": 40.6516495
 },
 {
	"Item Type Name": "Temporary DOB registered oil fired mobile boiler",
	"JFNPermitNumber": "B00223223-I1-LA",
	"FilingNumber": "I1",
	"Created On Date": "2019/9/6 12:00:00",
	"Work Type Name": "Oil Work",
	"Filing Type Name": "New Job Filing",
	"LocationBIN": "3242369",
	"Address": "2529 GERRITSEN AVENUE",
	"CommunityBoardNumber": "318",
	"LocationBoroughName": "BROOKLYN",
	"Longitude": -73.9278412,
	"Latitude": 40.5958214
 },
 {
	"Item Type Name": "Temporary DOB registered oil fired mobile boiler",
	"JFNPermitNumber": "B00230128-I1-LA",
	"FilingNumber": "I1",
	"Created On Date": "2019/9/18 12:00:00",
	"Work Type Name": "Oil Work",
	"Filing Type Name": "New Job Filing",
	"LocationBIN": "3139194",
	"Address": "938 54 STREET",
	"CommunityBoardNumber": "312",
	"LocationBoroughName": "BROOKLYN",
	"Longitude": -74.0030899,
	"Latitude": 40.6368103
 },
 {
	"Item Type Name": "Temporary DOB registered oil fired mobile boiler",
	"JFNPermitNumber": "B00244844-I1-LA",
	"FilingNumber": "I1",
	"Created On Date": "2019/10/11 12:00:00",
	"Work Type Name": "Oil Work",
	"Filing Type Name": "New Job Filing",
	"LocationBIN": "3080068",
	"Address": "629 CHAUNCEY STREET",
	"CommunityBoardNumber": "304",
	"LocationBoroughName": "BROOKLYN",
	"Longitude": -73.9098663,
	"Latitude": 40.6832199
 },
 {
	"Item Type Name": "Temporary DOB registered oil fired mobile boiler",
	"JFNPermitNumber": "B00246267-I1-LA",
	"FilingNumber": "I1",
	"Created On Date": "2019/10/15 12:00:00",
	"Work Type Name": "Oil Work",
	"Filing Type Name": "New Job Filing",
	"LocationBIN": "3180184",
	"Address": "1524 OCEAN AVENUE",
	"CommunityBoardNumber": "314",
	"LocationBoroughName": "BROOKLYN",
	"Longitude": -73.9566803,
	"Latitude": 40.6248093
 },
 {
	"Item Type Name": "Temporary DOB registered oil fired mobile boiler",
	"JFNPermitNumber": "B00249424-I1-LA",
	"FilingNumber": "I1",
	"Created On Date": "2019/10/25 12:00:00",
	"Work Type Name": "Oil Work",
	"Filing Type Name": "New Job Filing",
	"LocationBIN": "3008471",
	"Address": "722 HENRY STREET",
	"CommunityBoardNumber": "306",
	"LocationBoroughName": "BROOKLYN",
	"Longitude": -74.0034637,
	"Latitude": 40.6761589
 },
 {
	"Item Type Name": "Temporary DOB registered oil fired mobile boiler",
	"JFNPermitNumber": "B00254596-I1-LA",
	"FilingNumber": "I1",
	"Created On Date": "2019/10/29 12:00:00",
	"Work Type Name": "Oil Work",
	"Filing Type Name": "New Job Filing",
	"LocationBIN": "3246887",
	"Address": "1516 ORIENTAL BOULEVARD",
	"CommunityBoardNumber": "315",
	"LocationBoroughName": "BROOKLYN",
	"Longitude": -73.9383087,
	"Latitude": 40.5761909
 },
 {
	"Item Type Name": "Temporary DOB registered oil fired mobile boiler",
	"JFNPermitNumber": "B00260103-I1-LA",
	"FilingNumber": "I1",
	"Created On Date": "2019/11/6 12:00:00",
	"Work Type Name": "Oil Work",
	"Filing Type Name": "New Job Filing",
	"LocationBIN": "3422980",
	"Address": "362 MASPETH AVENUE",
	"CommunityBoardNumber": "301",
	"LocationBoroughName": "BROOKLYN",
	"Longitude": -73.9293365,
	"Latitude": 40.7179718
 },
 {
	"Item Type Name": "Temporary DOB registered oil fired mobile boiler",
	"JFNPermitNumber": "B00264935-I1-LA",
	"FilingNumber": "I1",
	"Created On Date": "2019/11/14 12:00:00",
	"Work Type Name": "Oil Work",
	"Filing Type Name": "New Job Filing",
	"LocationBIN": "3037057",
	"Address": "1362 ST JOHNS PLACE",
	"CommunityBoardNumber": "308",
	"LocationBoroughName": "BROOKLYN",
	"Longitude": -73.9332123,
	"Latitude": 40.6704407
 },
 {
	"Item Type Name": "Temporary DOB registered oil fired mobile boiler",
	"JFNPermitNumber": "B00266514-I1-LA",
	"FilingNumber": "I1",
	"Created On Date": "2019/11/16 12:00:00",
	"Work Type Name": "Oil Work",
	"Filing Type Name": "New Job Filing",
	"LocationBIN": "3179400",
	"Address": "1710 AVENUE H",
	"CommunityBoardNumber": "314",
	"LocationBoroughName": "BROOKLYN",
	"Longitude": -73.9597473,
	"Latitude": 40.6299706
 },
 {
	"Item Type Name": "Temporary DOB registered oil fired mobile boiler",
	"JFNPermitNumber": "B00270909-I1-LA",
	"FilingNumber": "I1",
	"Created On Date": "2019/11/22 12:00:00",
	"Work Type Name": "Oil Work",
	"Filing Type Name": "New Job Filing",
	"LocationBIN": "3328034",
	"Address": "550 SUTTER AVENUE",
	"CommunityBoardNumber": "305",
	"LocationBoroughName": "BROOKLYN",
	"Longitude": -73.8984222,
	"Latitude": 40.6686592
 },
 {
	"Item Type Name": "Temporary DOB registered oil fired mobile boiler",
	"JFNPermitNumber": "B00271553-I1-LA",
	"FilingNumber": "I1",
	"Created On Date": "2019/11/25 12:00:00",
	"Work Type Name": "Oil Work",
	"Filing Type Name": "New Job Filing",
	"LocationBIN": "3042090",
	"Address": "1958 FULTON STREET",
	"CommunityBoardNumber": "303",
	"LocationBoroughName": "BROOKLYN",
	"Longitude": -73.9199524,
	"Latitude": 40.6783295
 },
 {
	"Item Type Name": "Temporary DOB registered oil fired mobile boiler",
	"JFNPermitNumber": "B00272115-I1-LA",
	"FilingNumber": "I1",
	"Created On Date": "2019/11/26 12:00:00",
	"Work Type Name": "Oil Work",
	"Filing Type Name": "New Job Filing",
	"LocationBIN": "3038023",
	"Address": "1500 CARROLL STREET",
	"CommunityBoardNumber": "309",
	"LocationBoroughName": "BROOKLYN",
	"Longitude": -73.9383926,
	"Latitude": 40.6662407
 },
 {
	"Item Type Name": "Temporary DOB registered oil fired mobile boiler",
	"JFNPermitNumber": "B00273596-I1-LA",
	"FilingNumber": "I1",
	"Created On Date": "2019/12/2 12:00:00",
	"Work Type Name": "Oil Work",
	"Filing Type Name": "New Job Filing",
	"LocationBIN": "3334961",
	"Address": "200 WILLOUGHBY AVENUE",
	"CommunityBoardNumber": "302",
	"LocationBoroughName": "BROOKLYN",
	"Longitude": -73.9638901,
	"Latitude": 40.691021
 },
 {
	"Item Type Name": "Temporary DOB registered oil fired mobile boiler",
	"JFNPermitNumber": "B00279472-I1-LA",
	"FilingNumber": "I1",
	"Created On Date": "2019/12/11 12:00:00",
	"Work Type Name": "Oil Work",
	"Filing Type Name": "New Job Filing",
	"LocationBIN": "3338267",
	"Address": "287 MASPETH AVENUE",
	"CommunityBoardNumber": "301",
	"LocationBoroughName": "BROOKLYN",
	"Longitude": -73.9310303,
	"Latitude": 40.7211304
 },
 {
	"Item Type Name": "Temporary DOB registered oil fired mobile boiler",
	"JFNPermitNumber": "B00281168-I1-LA",
	"FilingNumber": "I1",
	"Created On Date": "2019/12/13 12:00:00",
	"Work Type Name": "Oil Work",
	"Filing Type Name": "New Job Filing",
	"LocationBIN": "3048517",
	"Address": "70 TOMPKINS AVENUE",
	"CommunityBoardNumber": "303",
	"LocationBoroughName": "BROOKLYN",
	"Longitude": -73.9475708,
	"Latitude": 40.6966896
 },
 {
	"Item Type Name": "Temporary DOB registered oil fired mobile boiler",
	"JFNPermitNumber": "B00283096-I1-LA",
	"FilingNumber": "I1",
	"Created On Date": "2019/12/17 12:00:00",
	"Work Type Name": "Oil Work",
	"Filing Type Name": "New Job Filing",
	"LocationBIN": "3019440",
	"Address": "71 LINCOLN PLACE",
	"CommunityBoardNumber": "306",
	"LocationBoroughName": "BROOKLYN",
	"Longitude": -73.9775467,
	"Latitude": 40.6771507
 },
 {
	"Item Type Name": "Temporary DOB registered oil fired mobile boiler",
	"JFNPermitNumber": "B00290805-I1-LA",
	"FilingNumber": "I1",
	"Created On Date": "2020/1/3 12:00:00",
	"Work Type Name": "Oil Work",
	"Filing Type Name": "New Job Filing",
	"LocationBIN": "3029627",
	"Address": "362 LINCOLN PLACE",
	"CommunityBoardNumber": "308",
	"LocationBoroughName": "BROOKLYN",
	"Longitude": -73.9640884,
	"Latitude": 40.6728706
 },
 {
	"Item Type Name": "Temporary DOB registered oil fired mobile boiler",
	"JFNPermitNumber": "B00292617-I1-LA",
	"FilingNumber": "I1",
	"Created On Date": "2020/1/9 12:00:00",
	"Work Type Name": "Oil Work",
	"Filing Type Name": "New Job Filing",
	"LocationBIN": "3082389",
	"Address": "411 THATFORD AVENUE",
	"CommunityBoardNumber": "316",
	"LocationBoroughName": "BROOKLYN",
	"Longitude": -73.906929,
	"Latitude": 40.66045
 },
 {
	"Item Type Name": "Temporary DOB registered oil fired mobile boiler",
	"JFNPermitNumber": "B00292636-I1-LA",
	"FilingNumber": "I1",
	"Created On Date": "2020/1/9 12:00:00",
	"Work Type Name": "Oil Work",
	"Filing Type Name": "New Job Filing",
	"LocationBIN": "3214729",
	"Address": "1037 EAST   54 STREET",
	"CommunityBoardNumber": "318",
	"LocationBoroughName": "BROOKLYN",
	"Longitude": -73.9238968,
	"Latitude": 40.6319504
 },
 {
	"Item Type Name": "Temporary DOB registered oil fired mobile boiler",
	"JFNPermitNumber": "B00300345-I1-LA",
	"FilingNumber": "I1",
	"Created On Date": "2020/1/20 12:00:00",
	"Work Type Name": "Oil Work",
	"Filing Type Name": "New Job Filing",
	"LocationBIN": "3180679",
	"Address": "1617 AVENUE M",
	"CommunityBoardNumber": "314",
	"LocationBoroughName": "BROOKLYN",
	"Longitude": -73.9585266,
	"Latitude": 40.6185188
 },
 {
	"Item Type Name": "Temporary DOB registered oil fired mobile boiler",
	"JFNPermitNumber": "B00300914-I1-LA",
	"FilingNumber": "I1",
	"Created On Date": "2020/1/21 12:00:00",
	"Work Type Name": "Oil Work",
	"Filing Type Name": "New Job Filing",
	"LocationBIN": "3107464",
	"Address": "647 ALBANY AVENUE",
	"CommunityBoardNumber": "309",
	"LocationBoroughName": "BROOKLYN",
	"Longitude": -73.9392319,
	"Latitude": 40.6581612
 },
 {
	"Item Type Name": "Temporary DOB registered oil fired mobile boiler",
	"JFNPermitNumber": "B00318432-S1-LA",
	"FilingNumber": "S1",
	"Created On Date": "2020/5/16 12:00:00",
	"Work Type Name": "Oil Work",
	"Filing Type Name": "Subsequent Filing",
	"LocationBIN": "3341944",
	"Address": "80 ST JAMES PLACE",
	"CommunityBoardNumber": "302",
	"LocationBoroughName": "BROOKLYN",
	"Longitude": -73.9651718,
	"Latitude": 40.6873817
 },
 {
	"Item Type Name": "Temporary DOB registered oil fired mobile boiler",
	"JFNPermitNumber": "B00318802-I1-LA",
	"FilingNumber": "I1",
	"Created On Date": "2020/2/19 12:00:00",
	"Work Type Name": "Oil Work",
	"Filing Type Name": "New Job Filing",
	"LocationBIN": "3330617",
	"Address": "467 PROSPECT AVENUE",
	"CommunityBoardNumber": "307",
	"LocationBoroughName": "BROOKLYN",
	"Longitude": -73.9821625,
	"Latitude": 40.6595612
 },
 {
	"Item Type Name": "Temporary DOB registered oil fired mobile boiler",
	"JFNPermitNumber": "B00349813-I1-LA",
	"FilingNumber": "I1",
	"Created On Date": "2020/5/16 12:00:00",
	"Work Type Name": "Oil Work",
	"Filing Type Name": "New Job Filing",
	"LocationBIN": "3341955",
	"Address": "369 WASHINGTON AVENUE",
	"CommunityBoardNumber": "302",
	"LocationBoroughName": "BROOKLYN",
	"Longitude": -73.9651718,
	"Latitude": 40.6873817
 },
 {
	"Item Type Name": "Temporary DOB registered oil fired mobile boiler",
	"JFNPermitNumber": "B00350196-I1-LA",
	"FilingNumber": "I1",
	"Created On Date": "2020/5/19 12:00:00",
	"Work Type Name": "Oil Work",
	"Filing Type Name": "New Job Filing",
	"LocationBIN": "3059181",
	"Address": "25 LAFAYETTE AVENUE",
	"CommunityBoardNumber": "302",
	"LocationBoroughName": "BROOKLYN",
	"Longitude": -73.9779663,
	"Latitude": 40.6870918
 },
 {
	"Item Type Name": "Temporary DOB registered oil fired mobile boiler",
	"JFNPermitNumber": "B00363928-I1-LA",
	"FilingNumber": "I1",
	"Created On Date": "2020/6/29 12:00:00",
	"Work Type Name": "Oil Work",
	"Filing Type Name": "New Job Filing",
	"LocationBIN": "3200638",
	"Address": "2277 HOMECREST AVENUE",
	"CommunityBoardNumber": "315",
	"LocationBoroughName": "BROOKLYN",
	"Longitude": -73.9580994,
	"Latitude": 40.594799
 },
 {
	"Item Type Name": "Temporary DOB registered oil fired mobile boiler",
	"JFNPermitNumber": "B00366096-I1-LA",
	"FilingNumber": "I1",
	"Created On Date": "2020/7/2 12:00:00",
	"Work Type Name": "Oil Work",
	"Filing Type Name": "New Job Filing",
	"LocationBIN": "3008215",
	"Address": "628 SMITH STREET",
	"CommunityBoardNumber": "306",
	"LocationBoroughName": "BROOKLYN",
	"Longitude": -74.0007095,
	"Latitude": 40.6700897
 },
 {
	"Item Type Name": "Temporary DOB registered oil fired mobile boiler",
	"JFNPermitNumber": "B00386067-I1-LA",
	"FilingNumber": "I1",
	"Created On Date": "2020/8/17 12:00:00",
	"Work Type Name": "Oil Work",
	"Filing Type Name": "New Job Filing",
	"LocationBIN": "3180730",
	"Address": "1233 EAST   19 STREET",
	"CommunityBoardNumber": "314",
	"LocationBoroughName": "BROOKLYN",
	"Longitude": -73.9562912,
	"Latitude": 40.6203003
 },
 {
	"Item Type Name": "Temporary DOB registered oil fired mobile boiler",
	"JFNPermitNumber": "B00402404-I1-LA",
	"FilingNumber": "I1",
	"Created On Date": "2020/9/22 12:00:00",
	"Work Type Name": "Oil Work",
	"Filing Type Name": "New Job Filing",
	"LocationBIN": "3102099",
	"Address": "397 EAST   49 STREET",
	"CommunityBoardNumber": "317",
	"LocationBoroughName": "BROOKLYN",
	"Longitude": -73.93116,
	"Latitude": 40.6521988
 },
 {
	"Item Type Name": "Temporary DOB registered oil fired mobile boiler",
	"JFNPermitNumber": "B00403581-I1-LA",
	"FilingNumber": "I1",
	"Created On Date": "2020/9/23 12:00:00",
	"Work Type Name": "Oil Work",
	"Filing Type Name": "New Job Filing",
	"LocationBIN": "3428600",
	"Address": "317 HOYT STREET",
	"CommunityBoardNumber": "306",
	"LocationBoroughName": "BROOKLYN",
	"Longitude": -73.9911423,
	"Latitude": 40.6801605
 },
 {
	"Item Type Name": "Temporary DOB registered oil fired mobile boiler",
	"JFNPermitNumber": "B00405091-I1-LA",
	"FilingNumber": "I1",
	"Created On Date": "2020/9/28 12:00:00",
	"Work Type Name": "Oil Work",
	"Filing Type Name": "New Job Filing",
	"LocationBIN": "3330782",
	"Address": "520 PROSPECT PLACE",
	"CommunityBoardNumber": "308",
	"LocationBoroughName": "BROOKLYN",
	"Longitude": -73.9594727,
	"Latitude": 40.6751595
 },
 {
	"Item Type Name": "Temporary DOB registered oil fired mobile boiler",
	"JFNPermitNumber": "B00410141-I1-LA",
	"FilingNumber": "I1",
	"Created On Date": "2020/11/25 12:00:00",
	"Work Type Name": "Oil Work",
	"Filing Type Name": "New Job Filing",
	"LocationBIN": "3081227",
	"Address": "725 HOWARD AVENUE",
	"CommunityBoardNumber": "316",
	"LocationBoroughName": "BROOKLYN",
	"Longitude": -73.9188232,
	"Latitude": 40.6644516
 },
 {
	"Item Type Name": "Temporary DOB registered oil fired mobile boiler",
	"JFNPermitNumber": "B00410199-I1-LA",
	"FilingNumber": "I1",
	"Created On Date": "2020/10/7 12:00:00",
	"Work Type Name": "Oil Work",
	"Filing Type Name": "New Job Filing",
	"LocationBIN": "3324730",
	"Address": "10 LEWIS AVENUE",
	"CommunityBoardNumber": "303",
	"LocationBoroughName": "BROOKLYN",
	"Longitude": -73.9394073,
	"Latitude": 40.6976089
 },
 {
	"Item Type Name": "Temporary DOB registered oil fired mobile boiler",
	"JFNPermitNumber": "B00415672-I1-LA",
	"FilingNumber": "I1",
	"Created On Date": "2020/10/19 12:00:00",
	"Work Type Name": "Oil Work",
	"Filing Type Name": "New Job Filing",
	"LocationBIN": "3325725",
	"Address": "1201 GATES AVENUE",
	"CommunityBoardNumber": "304",
	"LocationBoroughName": "BROOKLYN",
	"Longitude": -73.9195786,
	"Latitude": 40.6925392
 },
 {
	"Item Type Name": "Temporary DOB registered oil fired mobile boiler",
	"JFNPermitNumber": "B00415679-I1-LA",
	"FilingNumber": "I1",
	"Created On Date": "2020/10/19 12:00:00",
	"Work Type Name": "Oil Work",
	"Filing Type Name": "New Job Filing",
	"LocationBIN": "3326137",
	"Address": "1260 GATES AVENUE",
	"CommunityBoardNumber": "304",
	"LocationBoroughName": "BROOKLYN",
	"Longitude": -73.9182129,
	"Latitude": 40.6928215
 },
 {
	"Item Type Name": "Temporary DOB registered oil fired mobile boiler",
	"JFNPermitNumber": "B00415684-I1-LA",
	"FilingNumber": "I1",
	"Created On Date": "2020/10/19 12:00:00",
	"Work Type Name": "Oil Work",
	"Filing Type Name": "New Job Filing",
	"LocationBIN": "3326149",
	"Address": "1300 GATES AVENUE",
	"CommunityBoardNumber": "304",
	"LocationBoroughName": "BROOKLYN",
	"Longitude": -73.9170074,
	"Latitude": 40.6941605
 },
 {
	"Item Type Name": "Temporary DOB registered oil fired mobile boiler",
	"JFNPermitNumber": "B00415700-I1-LA",
	"FilingNumber": "I1",
	"Created On Date": "2020/10/19 12:00:00",
	"Work Type Name": "Oil Work",
	"Filing Type Name": "New Job Filing",
	"LocationBIN": "3326150",
	"Address": "1320 GATES AVENUE",
	"CommunityBoardNumber": "304",
	"LocationBoroughName": "BROOKLYN",
	"Longitude": -73.9170074,
	"Latitude": 40.6941605
 },
 {
	"Item Type Name": "Temporary DOB registered oil fired mobile boiler",
	"JFNPermitNumber": "B00418657-I1-LA",
	"FilingNumber": "I1",
	"Created On Date": "2020/10/23 12:00:00",
	"Work Type Name": "Oil Work",
	"Filing Type Name": "New Job Filing",
	"LocationBIN": "3127730",
	"Address": "3845 18 AVENUE",
	"CommunityBoardNumber": "314",
	"LocationBoroughName": "BROOKLYN",
	"Longitude": -73.9711075,
	"Latitude": 40.6333199
 },
 {
	"Item Type Name": "Temporary DOB registered oil fired mobile boiler",
	"JFNPermitNumber": "B00420137-I1-LA",
	"FilingNumber": "I1",
	"Created On Date": "2020/10/27 12:00:00",
	"Work Type Name": "Oil Work",
	"Filing Type Name": "New Job Filing",
	"LocationBIN": "3346582",
	"Address": "5219 5 AVENUE",
	"CommunityBoardNumber": "307",
	"LocationBoroughName": "BROOKLYN",
	"Longitude": -74.0117188,
	"Latitude": 40.6434288
 },
 {
	"Item Type Name": "Temporary DOB registered oil fired mobile boiler",
	"JFNPermitNumber": "B00421734-I1-LA",
	"FilingNumber": "I1",
	"Created On Date": "2020/10/30 12:00:00",
	"Work Type Name": "Oil Work",
	"Filing Type Name": "New Job Filing",
	"LocationBIN": "3422980",
	"Address": "362 MASPETH AVENUE",
	"CommunityBoardNumber": "301",
	"LocationBoroughName": "BROOKLYN",
	"Longitude": -73.9293365,
	"Latitude": 40.7179718
 },
 {
	"Item Type Name": "Temporary DOB registered oil fired mobile boiler",
	"JFNPermitNumber": "B00424964-I1-LA",
	"FilingNumber": "I1",
	"Created On Date": "2020/11/6 12:00:00",
	"Work Type Name": "Oil Work",
	"Filing Type Name": "New Job Filing",
	"LocationBIN": "3037557",
	"Address": "1751 UNION STREET",
	"CommunityBoardNumber": "309",
	"LocationBoroughName": "BROOKLYN",
	"Longitude": -73.9316635,
	"Latitude": 40.6680717
 },
 {
	"Item Type Name": "Temporary DOB registered oil fired mobile boiler",
	"JFNPermitNumber": "B00425002-I1-LA",
	"FilingNumber": "I1",
	"Created On Date": "2020/11/6 12:00:00",
	"Work Type Name": "Oil Work",
	"Filing Type Name": "New Job Filing",
	"LocationBIN": "3398418",
	"Address": "520 GATES AVENUE",
	"CommunityBoardNumber": "303",
	"LocationBoroughName": "BROOKLYN",
	"Longitude": -73.9450684,
	"Latitude": 40.6865807
 },
 {
	"Item Type Name": "Temporary DOB registered oil fired mobile boiler",
	"JFNPermitNumber": "B00433439-I1-LA",
	"FilingNumber": "I1",
	"Created On Date": "2020/11/25 12:00:00",
	"Work Type Name": "Oil Work",
	"Filing Type Name": "New Job Filing",
	"LocationBIN": "3050769",
	"Address": "423 THROOP AVENUE",
	"CommunityBoardNumber": "303",
	"LocationBoroughName": "BROOKLYN",
	"Longitude": -73.9417114,
	"Latitude": 40.6884003
 },
 {
	"Item Type Name": "Temporary DOB registered oil fired mobile boiler",
	"JFNPermitNumber": "B00434335-I1-LA",
	"FilingNumber": "I1",
	"Created On Date": "2020/12/1 12:00:00",
	"Work Type Name": "Oil Work",
	"Filing Type Name": "New Job Filing",
	"LocationBIN": "3334961",
	"Address": "200 WILLOUGHBY AVENUE",
	"CommunityBoardNumber": "302",
	"LocationBoroughName": "BROOKLYN",
	"Longitude": -73.9638901,
	"Latitude": 40.691021
 },
 {
	"Item Type Name": "Temporary DOB registered oil fired mobile boiler",
	"JFNPermitNumber": "B00434542-I1-LA",
	"FilingNumber": "I1",
	"Created On Date": "2020/12/1 12:00:00",
	"Work Type Name": "Oil Work",
	"Filing Type Name": "New Job Filing",
	"LocationBIN": "3002216",
	"Address": "141 JORALEMON STREET",
	"CommunityBoardNumber": "302",
	"LocationBoroughName": "BROOKLYN",
	"Longitude": -73.9937286,
	"Latitude": 40.6931801
 },
 {
	"Item Type Name": "Temporary DOB registered oil fired mobile boiler",
	"JFNPermitNumber": "B00438460-I1-LA",
	"FilingNumber": "I1",
	"Created On Date": "2020/12/9 12:00:00",
	"Work Type Name": "Oil Work",
	"Filing Type Name": "New Job Filing",
	"LocationBIN": "3332518",
	"Address": "1 HOYT STREET",
	"CommunityBoardNumber": "302",
	"LocationBoroughName": "BROOKLYN",
	"Longitude": -73.984993,
	"Latitude": 40.6902618
 },
 {
	"Item Type Name": "Temporary DOB registered oil fired mobile boiler",
	"JFNPermitNumber": "B00440332-I1-LA",
	"FilingNumber": "I1",
	"Created On Date": "2020/12/14 12:00:00",
	"Work Type Name": "Oil Work",
	"Filing Type Name": "New Job Filing",
	"LocationBIN": "3120093",
	"Address": "570 WESTMINSTER ROAD",
	"CommunityBoardNumber": "314",
	"LocationBoroughName": "BROOKLYN",
	"Longitude": -73.9665909,
	"Latitude": 40.6345787
 },
 {
	"Item Type Name": "Temporary DOB registered oil fired mobile boiler",
	"JFNPermitNumber": "B00440381-I1-LA",
	"FilingNumber": "I1",
	"Created On Date": "2020/12/14 12:00:00",
	"Work Type Name": "Oil Work",
	"Filing Type Name": "New Job Filing",
	"LocationBIN": "3033790",
	"Address": "1040 CARROLL STREET",
	"CommunityBoardNumber": "309",
	"LocationBoroughName": "BROOKLYN",
	"Longitude": -73.9566422,
	"Latitude": 40.6672592
 },
 {
	"Item Type Name": "Temporary DOB registered oil fired mobile boiler",
	"JFNPermitNumber": "B00449619-I1-LA",
	"FilingNumber": "I1",
	"Created On Date": "2021/1/7 12:00:00",
	"Work Type Name": "Oil Work",
	"Filing Type Name": "New Job Filing",
	"LocationBIN": "3328045",
	"Address": "393 DUMONT AVENUE",
	"CommunityBoardNumber": "316",
	"LocationBoroughName": "BROOKLYN",
	"Longitude": -73.9043808,
	"Latitude": 40.6656799
 },
 {
	"Item Type Name": "Temporary DOB registered oil fired mobile boiler",
	"JFNPermitNumber": "B00449916-I1-LA",
	"FilingNumber": "I1",
	"Created On Date": "2021/1/7 12:00:00",
	"Work Type Name": "Oil Work",
	"Filing Type Name": "New Job Filing",
	"LocationBIN": "3059680",
	"Address": "142 SOUTH    9 STREET",
	"CommunityBoardNumber": "301",
	"LocationBoroughName": "BROOKLYN",
	"Longitude": -73.9631729,
	"Latitude": 40.7083206
 },
 {
	"Item Type Name": "Temporary DOB registered oil fired mobile boiler",
	"JFNPermitNumber": "B00450714-I1-LA",
	"FilingNumber": "I1",
	"Created On Date": "2021/1/8 12:00:00",
	"Work Type Name": "Oil Work",
	"Filing Type Name": "New Job Filing",
	"LocationBIN": "3174064",
	"Address": "1501 WEST   12 STREET",
	"CommunityBoardNumber": "311",
	"LocationBoroughName": "BROOKLYN",
	"Longitude": -73.9854279,
	"Latitude": 40.60952
 },
 {
	"Item Type Name": "Temporary DOB registered oil fired mobile boiler",
	"JFNPermitNumber": "B00454405-I1-LA",
	"FilingNumber": "I1",
	"Created On Date": "2021/1/14 12:00:00",
	"Work Type Name": "Oil Work",
	"Filing Type Name": "New Job Filing",
	"LocationBIN": "3329738",
	"Address": "42 WAVERLY AVENUE",
	"CommunityBoardNumber": "302",
	"LocationBoroughName": "BROOKLYN",
	"Longitude": -73.9689178,
	"Latitude": 40.6963196
 },
 {
	"Item Type Name": "Temporary DOB registered oil fired mobile boiler",
	"JFNPermitNumber": "B00456569-I1-LA",
	"FilingNumber": "I1",
	"Created On Date": "2021/1/19 12:00:00",
	"Work Type Name": "Oil Work",
	"Filing Type Name": "New Job Filing",
	"LocationBIN": "3127893",
	"Address": "49 PARKVILLE AVENUE",
	"CommunityBoardNumber": "314",
	"LocationBoroughName": "BROOKLYN",
	"Longitude": -73.9758072,
	"Latitude": 40.6290207
 },
 {
	"Item Type Name": "Temporary DOB registered oil fired mobile boiler",
	"JFNPermitNumber": "B00463033-I1-LA",
	"FilingNumber": "I1",
	"Created On Date": "2021/1/29 12:00:00",
	"Work Type Name": "Oil Work",
	"Filing Type Name": "New Job Filing",
	"LocationBIN": "3042888",
	"Address": "327 VERNON AVENUE",
	"CommunityBoardNumber": "303",
	"LocationBoroughName": "BROOKLYN",
	"Longitude": -73.9384689,
	"Latitude": 40.6960907
 },
 {
	"Item Type Name": "Temporary DOB registered oil fired mobile boiler",
	"JFNPermitNumber": "B00481325-I1-LA",
	"FilingNumber": "I1",
	"Created On Date": "2021/3/5 12:00:00",
	"Work Type Name": "Oil Work",
	"Filing Type Name": "New Job Filing",
	"LocationBIN": "3390451",
	"Address": "750 ROCKAWAY AVENUE",
	"CommunityBoardNumber": "316",
	"LocationBoroughName": "BROOKLYN",
	"Longitude": -73.9089584,
	"Latitude": 40.6615105
 },
 {
	"Item Type Name": "Temporary DOB registered oil fired mobile boiler",
	"JFNPermitNumber": "B00487652-I1-LA",
	"FilingNumber": "I1",
	"Created On Date": "2021/3/17 12:00:00",
	"Work Type Name": "Oil Work",
	"Filing Type Name": "New Job Filing",
	"LocationBIN": "3011297",
	"Address": "609 45 STREET",
	"CommunityBoardNumber": "307",
	"LocationBoroughName": "BROOKLYN",
	"Longitude": -74.0047836,
	"Latitude": 40.6465988
 },
 {
	"Item Type Name": "Temporary DOB registered oil fired mobile boiler",
	"JFNPermitNumber": "B00501746-I1-LA",
	"FilingNumber": "I1",
	"Created On Date": "2021/4/12 12:00:00",
	"Work Type Name": "Oil Work",
	"Filing Type Name": "New Job Filing",
	"LocationBIN": "3413856",
	"Address": "230 RIVERDALE AVENUE",
	"CommunityBoardNumber": "316",
	"LocationBoroughName": "BROOKLYN",
	"Longitude": -73.9079666,
	"Latitude": 40.6608391
 },
 {
	"Item Type Name": "Temporary DOB registered oil fired mobile boiler",
	"JFNPermitNumber": "B00508612-I1-LA",
	"FilingNumber": "I1",
	"Created On Date": "2021/4/22 12:00:00",
	"Work Type Name": "Oil Work",
	"Filing Type Name": "New Job Filing",
	"LocationBIN": "3038355",
	"Address": "743 EMPIRE BOULEVARD",
	"CommunityBoardNumber": "309",
	"LocationBoroughName": "BROOKLYN",
	"Longitude": -73.9374466,
	"Latitude": 40.6640396
 },
 {
	"Item Type Name": "Temporary DOB registered oil fired mobile boiler",
	"JFNPermitNumber": "B00510077-I1-LA",
	"FilingNumber": "I1",
	"Created On Date": "2021/4/26 12:00:00",
	"Work Type Name": "Oil Work",
	"Filing Type Name": "New Job Filing",
	"LocationBIN": "3395389",
	"Address": "272 ST JOHNS PLACE",
	"CommunityBoardNumber": "308",
	"LocationBoroughName": "BROOKLYN",
	"Longitude": -73.9684219,
	"Latitude": 40.6735382
 },
 {
	"Item Type Name": "Temporary DOB registered oil fired mobile boiler",
	"JFNPermitNumber": "B00518526-I1-LA",
	"FilingNumber": "I1",
	"Created On Date": "2021/5/7 12:00:00",
	"Work Type Name": "Oil Work",
	"Filing Type Name": "New Job Filing",
	"LocationBIN": "3075907",
	"Address": "319 WILSON AVENUE",
	"CommunityBoardNumber": "304",
	"LocationBoroughName": "BROOKLYN",
	"Longitude": -73.9177704,
	"Latitude": 40.6968384
 },
 {
	"Item Type Name": "Temporary DOB registered oil fired mobile boiler",
	"JFNPermitNumber": "B00522847-I1-LA",
	"FilingNumber": "I1",
	"Created On Date": "2021/5/15 12:00:00",
	"Work Type Name": "Oil Work",
	"Filing Type Name": "New Job Filing",
	"LocationBIN": "3341976",
	"Address": "255 HAVEMEYER STREET",
	"CommunityBoardNumber": "301",
	"LocationBoroughName": "BROOKLYN",
	"Longitude": -73.9590225,
	"Latitude": 40.7079086
 },
 {
	"Item Type Name": "Temporary DOB registered oil fired mobile boiler",
	"JFNPermitNumber": "B00526285-I1-LA",
	"FilingNumber": "I1",
	"Created On Date": "2021/5/20 12:00:00",
	"Work Type Name": "Oil Work",
	"Filing Type Name": "New Job Filing",
	"LocationBIN": "3338492",
	"Address": "339 WILSON AVENUE",
	"CommunityBoardNumber": "304",
	"LocationBoroughName": "BROOKLYN",
	"Longitude": -73.916687,
	"Latitude": 40.6967888
 },
 {
	"Item Type Name": "Temporary DOB registered oil fired mobile boiler",
	"JFNPermitNumber": "B00528692-I1-LA",
	"FilingNumber": "I1",
	"Created On Date": "2021/5/27 12:00:00",
	"Work Type Name": "Oil Work",
	"Filing Type Name": "New Job Filing",
	"LocationBIN": "3012487",
	"Address": "880 47 STREET",
	"CommunityBoardNumber": "312",
	"LocationBoroughName": "BROOKLYN",
	"Longitude": -74.0001907,
	"Latitude": 40.641449
 },
 {
	"Item Type Name": "Temporary DOB registered oil fired mobile boiler",
	"JFNPermitNumber": "B00529770-I1-LA",
	"FilingNumber": "I1",
	"Created On Date": "2021/5/26 12:00:00",
	"Work Type Name": "Oil Work",
	"Filing Type Name": "New Job Filing",
	"LocationBIN": "3245130",
	"Address": "3161 BRIGHTON    6 STREET",
	"CommunityBoardNumber": "313",
	"LocationBoroughName": "BROOKLYN",
	"Longitude": -73.9606934,
	"Latitude": 40.5754509
 },
 {
	"Item Type Name": "Temporary DOB registered oil fired mobile boiler",
	"JFNPermitNumber": "B00535377-I1-LA",
	"FilingNumber": "I1",
	"Created On Date": "2021/6/7 12:00:00",
	"Work Type Name": "Oil Work",
	"Filing Type Name": "New Job Filing",
	"LocationBIN": "3338493",
	"Address": "357 WILSON AVENUE",
	"CommunityBoardNumber": "304",
	"LocationBoroughName": "BROOKLYN",
	"Longitude": -73.9159775,
	"Latitude": 40.6963005
 },
 {
	"Item Type Name": "Temporary DOB registered oil fired mobile boiler",
	"JFNPermitNumber": "B00535480-I1-LA",
	"FilingNumber": "I1",
	"Created On Date": "2021/6/8 12:00:00",
	"Work Type Name": "Oil Work",
	"Filing Type Name": "New Job Filing",
	"LocationBIN": "3029638",
	"Address": "400 LINCOLN PLACE",
	"CommunityBoardNumber": "308",
	"LocationBoroughName": "BROOKLYN",
	"Longitude": -73.9631271,
	"Latitude": 40.6726608
 },
 {
	"Item Type Name": "Temporary DOB registered oil fired mobile boiler",
	"JFNPermitNumber": "B00535480-S1-LA",
	"FilingNumber": "S1",
	"Created On Date": "2022/2/4 12:00:00",
	"Work Type Name": "Oil Work",
	"Filing Type Name": "Subsequent Filing",
	"LocationBIN": "3029638",
	"Address": "400 LINCOLN PLACE",
	"CommunityBoardNumber": "308",
	"LocationBoroughName": "BROOKLYN",
	"Longitude": -73.9631271,
	"Latitude": 40.6726608
 },
 {
	"Item Type Name": "Temporary DOB registered oil fired mobile boiler",
	"JFNPermitNumber": "B00542333-I1-LA",
	"FilingNumber": "I1",
	"Created On Date": "2021/6/17 12:00:00",
	"Work Type Name": "Oil Work",
	"Filing Type Name": "New Job Filing",
	"LocationBIN": "3325054",
	"Address": "797 PUTNAM AVENUE",
	"CommunityBoardNumber": "303",
	"LocationBoroughName": "BROOKLYN",
	"Longitude": -73.9294205,
	"Latitude": 40.6866112
 },
 {
	"Item Type Name": "Temporary DOB registered oil fired mobile boiler",
	"JFNPermitNumber": "B00543722-I1-LA",
	"FilingNumber": "I1",
	"Created On Date": "2021/6/21 12:00:00",
	"Work Type Name": "Oil Work",
	"Filing Type Name": "New Job Filing",
	"LocationBIN": "3063196",
	"Address": "374 SOUTH    2 STREET",
	"CommunityBoardNumber": "301",
	"LocationBoroughName": "BROOKLYN",
	"Longitude": -73.9527969,
	"Latitude": 40.7096291
 },
 {
	"Item Type Name": "Temporary DOB registered oil fired mobile boiler",
	"JFNPermitNumber": "B00546030-I1-LA",
	"FilingNumber": "I1",
	"Created On Date": "2021/6/23 12:00:00",
	"Work Type Name": "Oil Work",
	"Filing Type Name": "New Job Filing",
	"LocationBIN": "3028658",
	"Address": "425 PROSPECT PLACE",
	"CommunityBoardNumber": "308",
	"LocationBoroughName": "BROOKLYN",
	"Longitude": -73.9621735,
	"Latitude": 40.6765289
 },
 {
	"Item Type Name": "Temporary DOB registered oil fired mobile boiler",
	"JFNPermitNumber": "B00550595-I1-LA",
	"FilingNumber": "I1",
	"Created On Date": "2021/7/1 12:00:00",
	"Work Type Name": "Oil Work",
	"Filing Type Name": "New Job Filing",
	"LocationBIN": "3117573",
	"Address": "222 EAST   17 STREET",
	"CommunityBoardNumber": "314",
	"LocationBoroughName": "BROOKLYN",
	"Longitude": -73.9635773,
	"Latitude": 40.6452713
 },
 {
	"Item Type Name": "Temporary DOB registered oil fired mobile boiler",
	"JFNPermitNumber": "B00565213-I1-LA",
	"FilingNumber": "I1",
	"Created On Date": "2021/9/30 12:00:00",
	"Work Type Name": "Oil Work",
	"Filing Type Name": "New Job Filing",
	"LocationBIN": "3029638",
	"Address": "400 LINCOLN PLACE",
	"CommunityBoardNumber": "308",
	"LocationBoroughName": "BROOKLYN",
	"Longitude": -73.9631271,
	"Latitude": 40.6726608
 },
 {
	"Item Type Name": "Temporary DOB registered oil fired mobile boiler",
	"JFNPermitNumber": "B00568363-I1-LA",
	"FilingNumber": "I1",
	"Created On Date": "2021/8/1 12:00:00",
	"Work Type Name": "Oil Work",
	"Filing Type Name": "New Job Filing",
	"LocationBIN": "3425870",
	"Address": "300 RODNEY STREET",
	"CommunityBoardNumber": "301",
	"LocationBoroughName": "BROOKLYN",
	"Longitude": -73.9563065,
	"Latitude": 40.708149
 },
 {
	"Item Type Name": "Temporary DOB registered oil fired mobile boiler",
	"JFNPermitNumber": "B00571796-I1-LA",
	"FilingNumber": "I1",
	"Created On Date": "2021/8/5 12:00:00",
	"Work Type Name": "Oil Work",
	"Filing Type Name": "New Job Filing",
	"LocationBIN": "3327270",
	"Address": "1421 BROOKLYN AVENUE",
	"CommunityBoardNumber": "317",
	"LocationBoroughName": "BROOKLYN",
	"Longitude": -73.9421005,
	"Latitude": 40.6382294
 },
 {
	"Item Type Name": "Temporary DOB registered oil fired mobile boiler",
	"JFNPermitNumber": "B00574632-I1-LA",
	"FilingNumber": "I1",
	"Created On Date": "2021/8/11 12:00:00",
	"Work Type Name": "Oil Work",
	"Filing Type Name": "New Job Filing",
	"LocationBIN": "3173783",
	"Address": "1500 OCEAN PARKWAY",
	"CommunityBoardNumber": "312",
	"LocationBoroughName": "BROOKLYN",
	"Longitude": -73.9689331,
	"Latitude": 40.6121101
 },
 {
	"Item Type Name": "Temporary DOB registered oil fired mobile boiler",
	"JFNPermitNumber": "B00579539-I1-LA",
	"FilingNumber": "I1",
	"Created On Date": "2021/8/19 12:00:00",
	"Work Type Name": "Oil Work",
	"Filing Type Name": "New Job Filing",
	"LocationBIN": "3390451",
	"Address": "750 ROCKAWAY AVENUE",
	"CommunityBoardNumber": "316",
	"LocationBoroughName": "BROOKLYN",
	"Longitude": -73.9089584,
	"Latitude": 40.6615105
 },
 {
	"Item Type Name": "Temporary DOB registered oil fired mobile boiler",
	"JFNPermitNumber": "B00583057-I1-LA",
	"FilingNumber": "I1",
	"Created On Date": "2021/8/25 12:00:00",
	"Work Type Name": "Oil Work",
	"Filing Type Name": "New Job Filing",
	"LocationBIN": "3326174",
	"Address": "390 WILSON AVENUE",
	"CommunityBoardNumber": "304",
	"LocationBoroughName": "BROOKLYN",
	"Longitude": -73.9159088,
	"Latitude": 40.6939697
 },
 {
	"Item Type Name": "Temporary DOB registered oil fired mobile boiler",
	"JFNPermitNumber": "B00583743-I1-LA",
	"FilingNumber": "I1",
	"Created On Date": "2021/8/26 12:00:00",
	"Work Type Name": "Oil Work",
	"Filing Type Name": "New Job Filing",
	"LocationBIN": "3076768",
	"Address": "440 CENTRAL AVENUE",
	"CommunityBoardNumber": "304",
	"LocationBoroughName": "BROOKLYN",
	"Longitude": -73.9160919,
	"Latitude": 40.6926193
 },
 {
	"Item Type Name": "Temporary DOB registered oil fired mobile boiler",
	"JFNPermitNumber": "B00587730-I1-LA",
	"FilingNumber": "I1",
	"Created On Date": "2021/9/2 12:00:00",
	"Work Type Name": "Oil Work",
	"Filing Type Name": "New Job Filing",
	"LocationBIN": "3036109",
	"Address": "161 BUFFALO AVENUE",
	"CommunityBoardNumber": "308",
	"LocationBoroughName": "BROOKLYN",
	"Longitude": -73.9248886,
	"Latitude": 40.6735916
 },
 {
	"Item Type Name": "Temporary DOB registered oil fired mobile boiler",
	"JFNPermitNumber": "B00588621-I1-LA",
	"FilingNumber": "I1",
	"Created On Date": "2021/9/3 12:00:00",
	"Work Type Name": "Oil Work",
	"Filing Type Name": "New Job Filing",
	"LocationBIN": "3326173",
	"Address": "210 PALMETTO STREET",
	"CommunityBoardNumber": "304",
	"LocationBoroughName": "BROOKLYN",
	"Longitude": -73.9159088,
	"Latitude": 40.6939697
 },
 {
	"Item Type Name": "Temporary DOB registered oil fired mobile boiler",
	"JFNPermitNumber": "B00590135-I1-LA",
	"FilingNumber": "I1",
	"Created On Date": "2021/9/8 12:00:00",
	"Work Type Name": "Oil Work",
	"Filing Type Name": "New Job Filing",
	"LocationBIN": "3121358",
	"Address": "1176 OCEAN AVENUE",
	"CommunityBoardNumber": "314",
	"LocationBoroughName": "BROOKLYN",
	"Longitude": -73.9583206,
	"Latitude": 40.6335182
 },
 {
	"Item Type Name": "Temporary DOB registered oil fired mobile boiler",
	"JFNPermitNumber": "B00592503-I1-LA",
	"FilingNumber": "I1",
	"Created On Date": "2021/9/13 12:00:00",
	"Work Type Name": "Oil Work",
	"Filing Type Name": "New Job Filing",
	"LocationBIN": "3348022",
	"Address": "371 JOHNSON AVENUE",
	"CommunityBoardNumber": "301",
	"LocationBoroughName": "BROOKLYN",
	"Longitude": -73.9352264,
	"Latitude": 40.7077484
 },
 {
	"Item Type Name": "Temporary DOB registered oil fired mobile boiler",
	"JFNPermitNumber": "B00594027-I1-LA",
	"FilingNumber": "I1",
	"Created On Date": "2021/9/15 12:00:00",
	"Work Type Name": "Oil Work",
	"Filing Type Name": "New Job Filing",
	"LocationBIN": "3174946",
	"Address": "1510 OCEAN PARKWAY",
	"CommunityBoardNumber": "312",
	"LocationBoroughName": "BROOKLYN",
	"Longitude": -73.9689331,
	"Latitude": 40.6116219
 },
 {
	"Item Type Name": "Temporary DOB registered oil fired mobile boiler",
	"JFNPermitNumber": "B00599103-I1-LA",
	"FilingNumber": "I1",
	"Created On Date": "2021/9/23 12:00:00",
	"Work Type Name": "Oil Work",
	"Filing Type Name": "New Job Filing",
	"LocationBIN": "3136937",
	"Address": "4611 12 AVENUE",
	"CommunityBoardNumber": "312",
	"LocationBoroughName": "BROOKLYN",
	"Longitude": -73.9925537,
	"Latitude": 40.6376686
 },
 {
	"Item Type Name": "Temporary DOB registered oil fired mobile boiler",
	"JFNPermitNumber": "B00607043-I1-LA",
	"FilingNumber": "I1",
	"Created On Date": "2021/10/6 12:00:00",
	"Work Type Name": "Oil Work",
	"Filing Type Name": "New Job Filing",
	"LocationBIN": "3078553",
	"Address": "595 EVERGREEN AVENUE",
	"CommunityBoardNumber": "304",
	"LocationBoroughName": "BROOKLYN",
	"Longitude": -73.9126434,
	"Latitude": 40.6889496
 },
 {
	"Item Type Name": "Temporary DOB registered oil fired mobile boiler",
	"JFNPermitNumber": "B00609761-I1-LA",
	"FilingNumber": "I1",
	"Created On Date": "2021/10/11 12:00:00",
	"Work Type Name": "Oil Work",
	"Filing Type Name": "New Job Filing",
	"LocationBIN": "3174946",
	"Address": "1510 OCEAN PARKWAY",
	"CommunityBoardNumber": "312",
	"LocationBoroughName": "BROOKLYN",
	"Longitude": -73.9689331,
	"Latitude": 40.6116219
 },
 {
	"Item Type Name": "Temporary DOB registered oil fired mobile boiler",
	"JFNPermitNumber": "B00618674-I1-LA",
	"FilingNumber": "I1",
	"Created On Date": "2021/10/26 12:00:00",
	"Work Type Name": "Oil Work",
	"Filing Type Name": "New Job Filing",
	"LocationBIN": "3130664",
	"Address": "1600 55 STREET",
	"CommunityBoardNumber": "312",
	"LocationBoroughName": "BROOKLYN",
	"Longitude": -73.9889526,
	"Latitude": 40.6273613
 },
 {
	"Item Type Name": "Temporary DOB registered oil fired mobile boiler",
	"JFNPermitNumber": "B00620698-I1-LA",
	"FilingNumber": "I1",
	"Created On Date": "2021/10/28 12:00:00",
	"Work Type Name": "Oil Work",
	"Filing Type Name": "New Job Filing",
	"LocationBIN": "3214729",
	"Address": "1037 EAST   54 STREET",
	"CommunityBoardNumber": "318",
	"LocationBoroughName": "BROOKLYN",
	"Longitude": -73.9238968,
	"Latitude": 40.6319504
 },
 {
	"Item Type Name": "Temporary DOB registered oil fired mobile boiler",
	"JFNPermitNumber": "B00626228-I1-LA",
	"FilingNumber": "I1",
	"Created On Date": "2021/11/5 12:00:00",
	"Work Type Name": "Oil Work",
	"Filing Type Name": "New Job Filing",
	"LocationBIN": "3121214",
	"Address": "628 EAST   17 STREET",
	"CommunityBoardNumber": "314",
	"LocationBoroughName": "BROOKLYN",
	"Longitude": -73.9616776,
	"Latitude": 40.6350708
 },
 {
	"Item Type Name": "Temporary DOB registered oil fired mobile boiler",
	"JFNPermitNumber": "B00630431-I1-LA",
	"FilingNumber": "I1",
	"Created On Date": "2021/11/12 12:00:00",
	"Work Type Name": "Oil Work",
	"Filing Type Name": "New Job Filing",
	"LocationBIN": "3330074",
	"Address": "74 KENT STREET",
	"CommunityBoardNumber": "301",
	"LocationBoroughName": "BROOKLYN",
	"Longitude": -73.9582901,
	"Latitude": 40.7303085
 },
 {
	"Item Type Name": "Temporary DOB registered oil fired mobile boiler",
	"JFNPermitNumber": "B00635181-I1-LA",
	"FilingNumber": "I1",
	"Created On Date": "2021/11/21 12:00:00",
	"Work Type Name": "Oil Work",
	"Filing Type Name": "New Job Filing",
	"LocationBIN": "3326137",
	"Address": "1260 GATES AVENUE",
	"CommunityBoardNumber": "304",
	"LocationBoroughName": "BROOKLYN",
	"Longitude": -73.9182129,
	"Latitude": 40.6928215
 },
 {
	"Item Type Name": "Temporary DOB registered oil fired mobile boiler",
	"JFNPermitNumber": "B00637762-I1-LA",
	"FilingNumber": "I1",
	"Created On Date": "2021/11/28 12:00:00",
	"Work Type Name": "Oil Work",
	"Filing Type Name": "New Job Filing",
	"LocationBIN": "3118058",
	"Address": "2815 BEVERLY ROAD",
	"CommunityBoardNumber": "317",
	"LocationBoroughName": "BROOKLYN",
	"Longitude": -73.9504776,
	"Latitude": 40.6454391
 },
 {
	"Item Type Name": "Temporary DOB registered oil fired mobile boiler",
	"JFNPermitNumber": "B00638260-I1-LA",
	"FilingNumber": "I1",
	"Created On Date": "2021/11/29 12:00:00",
	"Work Type Name": "Oil Work",
	"Filing Type Name": "New Job Filing",
	"LocationBIN": "3001588",
	"Address": "55 HICKS STREET",
	"CommunityBoardNumber": "302",
	"LocationBoroughName": "BROOKLYN",
	"Longitude": -73.9933014,
	"Latitude": 40.7000198
 },
 {
	"Item Type Name": "Temporary DOB registered oil fired mobile boiler",
	"JFNPermitNumber": "B00654028-I1-LA",
	"FilingNumber": "I1",
	"Created On Date": "2021/12/27 12:00:00",
	"Work Type Name": "Oil Work",
	"Filing Type Name": "New Job Filing",
	"LocationBIN": "3008670",
	"Address": "155 BAY STREET",
	"CommunityBoardNumber": "306",
	"LocationBoroughName": "BROOKLYN",
	"Longitude": -74.0038528,
	"Latitude": 40.6727905
 },
 {
	"Item Type Name": "Temporary DOB registered oil fired mobile boiler",
	"JFNPermitNumber": "B00661081-I1-LA",
	"FilingNumber": "I1",
	"Created On Date": "2022/1/12 12:00:00",
	"Work Type Name": "Oil Work",
	"Filing Type Name": "New Job Filing",
	"LocationBIN": "3117588",
	"Address": "205 EAST   17 STREET",
	"CommunityBoardNumber": "314",
	"LocationBoroughName": "BROOKLYN",
	"Longitude": -73.9630508,
	"Latitude": 40.6458092
 },
 {
	"Item Type Name": "Temporary DOB registered oil fired mobile boiler",
	"JFNPermitNumber": "B00663611-I1-LA",
	"FilingNumber": "I1",
	"Created On Date": "2022/1/17 12:00:00",
	"Work Type Name": "Oil Work",
	"Filing Type Name": "New Job Filing",
	"LocationBIN": "3338999",
	"Address": "2520 CHURCH AVENUE",
	"CommunityBoardNumber": "317",
	"LocationBoroughName": "BROOKLYN",
	"Longitude": -73.9537888,
	"Latitude": 40.6501198
 },
 {
	"Item Type Name": "Temporary DOB registered oil fired mobile boiler",
	"JFNPermitNumber": "B00671201-I1-LA",
	"FilingNumber": "I1",
	"Created On Date": "2022/1/28 12:00:00",
	"Work Type Name": "Oil Work",
	"Filing Type Name": "New Job Filing",
	"LocationBIN": "3019597",
	"Address": "180 6 AVENUE",
	"CommunityBoardNumber": "306",
	"LocationBoroughName": "BROOKLYN",
	"Longitude": -73.9779892,
	"Latitude": 40.676651
 },
 {
	"Item Type Name": "Temporary DOB registered oil fired mobile boiler",
	"JFNPermitNumber": "B00674612-I1-LA",
	"FilingNumber": "I1",
	"Created On Date": "2022/2/4 12:00:00",
	"Work Type Name": "Oil Work",
	"Filing Type Name": "New Job Filing",
	"LocationBIN": "3117616",
	"Address": "165 EAST   19 STREET",
	"CommunityBoardNumber": "314",
	"LocationBoroughName": "BROOKLYN",
	"Longitude": -73.9610367,
	"Latitude": 40.6455193
 },
 {
	"Item Type Name": "Temporary DOB registered oil fired mobile boiler",
	"JFNPermitNumber": "B00676792-I1-LA",
	"FilingNumber": "I1",
	"Created On Date": "2022/2/8 12:00:00",
	"Work Type Name": "Oil Work",
	"Filing Type Name": "New Job Filing",
	"LocationBIN": "3400387",
	"Address": "161 VARICK AVENUE",
	"CommunityBoardNumber": "301",
	"LocationBoroughName": "BROOKLYN",
	"Longitude": -73.9296722,
	"Latitude": 40.7109604
 },
 {
	"Item Type Name": "Temporary DOB registered oil fired mobile boiler",
	"JFNPermitNumber": "B00685255-I1-LA",
	"FilingNumber": "I1",
	"Created On Date": "2022/2/22 12:00:00",
	"Work Type Name": "Oil Work",
	"Filing Type Name": "New Job Filing",
	"LocationBIN": "3125450",
	"Address": "300 OCEAN PARKWAY",
	"CommunityBoardNumber": "312",
	"LocationBoroughName": "BROOKLYN",
	"Longitude": -73.9744568,
	"Latitude": 40.6417694
 },
 {
	"Item Type Name": "Temporary DOB registered oil fired mobile boiler",
	"JFNPermitNumber": "B00685758-I1-LA",
	"FilingNumber": "I1",
	"Created On Date": "2022/2/23 12:00:00",
	"Work Type Name": "Oil Work",
	"Filing Type Name": "New Job Filing",
	"LocationBIN": "3010685",
	"Address": "354 41 STREET",
	"CommunityBoardNumber": "307",
	"LocationBoroughName": "BROOKLYN",
	"Longitude": -74.0083008,
	"Latitude": 40.6518211
 },
 {
	"Item Type Name": "Temporary DOB registered oil fired mobile boiler",
	"JFNPermitNumber": "B00685931-I1-LA",
	"FilingNumber": "I1",
	"Created On Date": "2022/2/23 12:00:00",
	"Work Type Name": "Oil Work",
	"Filing Type Name": "New Job Filing",
	"LocationBIN": "3000092",
	"Address": "57 JAY STREET",
	"CommunityBoardNumber": "302",
	"LocationBoroughName": "BROOKLYN",
	"Longitude": -73.9863586,
	"Latitude": 40.7029686
 },
 {
	"Item Type Name": "Temporary DOB registered oil fired mobile boiler",
	"JFNPermitNumber": "B00687608-I1-LA",
	"FilingNumber": "I1",
	"Created On Date": "2022/2/25 12:00:00",
	"Work Type Name": "Oil Work",
	"Filing Type Name": "New Job Filing",
	"LocationBIN": "3139614",
	"Address": "5511 FORT HAMILTON PARKWAY",
	"CommunityBoardNumber": "312",
	"LocationBoroughName": "BROOKLYN",
	"Longitude": -74.0019531,
	"Latitude": 40.6351204
 },
 {
	"Item Type Name": "Temporary DOB registered oil fired mobile boiler",
	"JFNPermitNumber": "B00692136-I1-LA",
	"FilingNumber": "I1",
	"Created On Date": "2022/3/4 12:00:00",
	"Work Type Name": "Oil Work",
	"Filing Type Name": "New Job Filing",
	"LocationBIN": "3030348",
	"Address": "1055 BERGEN STREET",
	"CommunityBoardNumber": "308",
	"LocationBoroughName": "BROOKLYN",
	"Longitude": -73.9514771,
	"Latitude": 40.6764183
 },
 {
	"Item Type Name": "Temporary DOB registered oil fired mobile boiler",
	"JFNPermitNumber": "B00698682-I1-LA",
	"FilingNumber": "I1",
	"Created On Date": "2022/3/15 12:00:00",
	"Work Type Name": "Oil Work",
	"Filing Type Name": "New Job Filing",
	"LocationBIN": "3076419",
	"Address": "1152 GATES AVENUE",
	"CommunityBoardNumber": "304",
	"LocationBoroughName": "BROOKLYN",
	"Longitude": -73.9200592,
	"Latitude": 40.6911812
 },
 {
	"Item Type Name": "Temporary DOB registered oil fired mobile boiler",
	"JFNPermitNumber": "B00698971-I1-LA",
	"FilingNumber": "I1",
	"Created On Date": "2022/3/15 12:00:00",
	"Work Type Name": "Oil Work",
	"Filing Type Name": "New Job Filing",
	"LocationBIN": "3138058",
	"Address": "1231 51 STREET",
	"CommunityBoardNumber": "312",
	"LocationBoroughName": "BROOKLYN",
	"Longitude": -73.9944687,
	"Latitude": 40.6349106
 },
 {
	"Item Type Name": "Temporary DOB registered oil fired mobile boiler",
	"JFNPermitNumber": "B00701540-I1-LA",
	"FilingNumber": "I1",
	"Created On Date": "2022/3/18 12:00:00",
	"Work Type Name": "Oil Work",
	"Filing Type Name": "New Job Filing",
	"LocationBIN": "3398591",
	"Address": "461 DEAN STREET",
	"CommunityBoardNumber": "306",
	"LocationBoroughName": "BROOKLYN",
	"Longitude": -73.9754868,
	"Latitude": 40.6819611
 },
 {
	"Item Type Name": "Temporary DOB registered oil fired mobile boiler",
	"JFNPermitNumber": "B00704022-I1-LA",
	"FilingNumber": "I1",
	"Created On Date": "2022/3/22 12:00:00",
	"Work Type Name": "Oil Work",
	"Filing Type Name": "New Job Filing",
	"LocationBIN": "3165172",
	"Address": "1901 84 STREET",
	"CommunityBoardNumber": "311",
	"LocationBoroughName": "BROOKLYN",
	"Longitude": -73.9987106,
	"Latitude": 40.6070518
 },
 {
	"Item Type Name": "Temporary DOB registered oil fired mobile boiler",
	"JFNPermitNumber": "B00704396-I1-LA",
	"FilingNumber": "I1",
	"Created On Date": "2022/3/23 12:00:00",
	"Work Type Name": "Oil Work",
	"Filing Type Name": "New Job Filing",
	"LocationBIN": "3002060",
	"Address": "110 MONTAGUE STREET",
	"CommunityBoardNumber": "302",
	"LocationBoroughName": "BROOKLYN",
	"Longitude": -73.9951172,
	"Latitude": 40.6947784
 },
 {
	"Item Type Name": "Temporary DOB registered oil fired mobile boiler",
	"JFNPermitNumber": "B00710327-I1-LA",
	"FilingNumber": "I1",
	"Created On Date": "2022/3/31 12:00:00",
	"Work Type Name": "Oil Work",
	"Filing Type Name": "New Job Filing",
	"LocationBIN": "3413894",
	"Address": "181 FRONT STREET",
	"CommunityBoardNumber": "302",
	"LocationBoroughName": "BROOKLYN",
	"Longitude": -73.9859619,
	"Latitude": 40.7025986
 },
 {
	"Item Type Name": "Temporary DOB registered oil fired mobile boiler",
	"JFNPermitNumber": "B00713576-I1-LA",
	"FilingNumber": "I1",
	"Created On Date": "2022/4/6 12:00:00",
	"Work Type Name": "Oil Work",
	"Filing Type Name": "New Job Filing",
	"LocationBIN": "3116130",
	"Address": "416 OCEAN AVENUE",
	"CommunityBoardNumber": "314",
	"LocationBoroughName": "BROOKLYN",
	"Longitude": -73.9618073,
	"Latitude": 40.6523705
 },
 {
	"Item Type Name": "Temporary DOB registered oil fired mobile boiler",
	"JFNPermitNumber": "B00718984-I1-LA",
	"FilingNumber": "I1",
	"Created On Date": "2022/4/14 12:00:00",
	"Work Type Name": "Oil Work",
	"Filing Type Name": "New Job Filing",
	"LocationBIN": "3163319",
	"Address": "1803 81 STREET",
	"CommunityBoardNumber": "311",
	"LocationBoroughName": "BROOKLYN",
	"Longitude": -73.9990311,
	"Latitude": 40.6099701
 },
 {
	"Item Type Name": "Temporary DOB registered oil fired mobile boiler",
	"JFNPermitNumber": "B00719127-I1-LA",
	"FilingNumber": "I1",
	"Created On Date": "2022/4/14 12:00:00",
	"Work Type Name": "Oil Work",
	"Filing Type Name": "New Job Filing",
	"LocationBIN": "3129069",
	"Address": "1806 48 STREET",
	"CommunityBoardNumber": "312",
	"LocationBoroughName": "BROOKLYN",
	"Longitude": -73.9803391,
	"Latitude": 40.62854
 },
 {
	"Item Type Name": "Temporary DOB registered oil fired mobile boiler",
	"JFNPermitNumber": "B00719390-I1-LA",
	"FilingNumber": "I1",
	"Created On Date": "2022/4/14 12:00:00",
	"Work Type Name": "Oil Work",
	"Filing Type Name": "New Job Filing",
	"LocationBIN": "3129240",
	"Address": "1801 50 STREET",
	"CommunityBoardNumber": "312",
	"LocationBoroughName": "BROOKLYN",
	"Longitude": -73.9811401,
	"Latitude": 40.6277618
 },
 {
	"Item Type Name": "Temporary DOB registered oil fired mobile boiler",
	"JFNPermitNumber": "B00729026-I1-LA",
	"FilingNumber": "I1",
	"Created On Date": "2022/5/2 12:00:00",
	"Work Type Name": "Oil Work",
	"Filing Type Name": "New Job Filing",
	"LocationBIN": "3138126",
	"Address": "1425 51 STREET",
	"CommunityBoardNumber": "312",
	"LocationBoroughName": "BROOKLYN",
	"Longitude": -73.9903488,
	"Latitude": 40.6324005
 },
 {
	"Item Type Name": "Temporary DOB registered oil fired mobile boiler",
	"JFNPermitNumber": "B00734536-I1-LA",
	"FilingNumber": "I1",
	"Created On Date": "2022/5/9 12:00:00",
	"Work Type Name": "Oil Work",
	"Filing Type Name": "New Job Filing",
	"LocationBIN": "3029652",
	"Address": "255 EASTERN PARKWAY",
	"CommunityBoardNumber": "308",
	"LocationBoroughName": "BROOKLYN",
	"Longitude": -73.960289,
	"Latitude": 40.6717186
 },
 {
	"Item Type Name": "Temporary DOB registered oil fired mobile boiler",
	"JFNPermitNumber": "B00734660-I1-LA",
	"FilingNumber": "I1",
	"Created On Date": "2022/5/10 12:00:00",
	"Work Type Name": "Oil Work",
	"Filing Type Name": "New Job Filing",
	"LocationBIN": "3129068",
	"Address": "1805 49 STREET",
	"CommunityBoardNumber": "312",
	"LocationBoroughName": "BROOKLYN",
	"Longitude": -73.9805679,
	"Latitude": 40.6283302
 },
 {
	"Item Type Name": "Temporary DOB registered oil fired mobile boiler",
	"JFNPermitNumber": "B00739670-I1-LA",
	"FilingNumber": "I1",
	"Created On Date": "2022/5/17 12:00:00",
	"Work Type Name": "Oil Work",
	"Filing Type Name": "New Job Filing",
	"LocationBIN": "3171510",
	"Address": "1012 AVENUE K",
	"CommunityBoardNumber": "312",
	"LocationBoroughName": "BROOKLYN",
	"Longitude": -73.9650269,
	"Latitude": 40.6220894
 },
 {
	"Item Type Name": "Temporary DOB registered oil fired mobile boiler",
	"JFNPermitNumber": "B00742896-I1-LA",
	"FilingNumber": "I1",
	"Created On Date": "2022/5/20 12:00:00",
	"Work Type Name": "Oil Work",
	"Filing Type Name": "New Job Filing",
	"LocationBIN": "3418326",
	"Address": "2415 CHURCH AVENUE",
	"CommunityBoardNumber": "317",
	"LocationBoroughName": "BROOKLYN",
	"Longitude": -73.9551163,
	"Latitude": 40.6508484
 },
 {
	"Item Type Name": "Temporary DOB registered oil fired mobile boiler",
	"JFNPermitNumber": "B00746243-I1-LA",
	"FilingNumber": "I1",
	"Created On Date": "2022/5/26 12:00:00",
	"Work Type Name": "Oil Work",
	"Filing Type Name": "New Job Filing",
	"LocationBIN": "3327372",
	"Address": "217 EAST    7 STREET",
	"CommunityBoardNumber": "312",
	"LocationBoroughName": "BROOKLYN",
	"Longitude": -73.9728165,
	"Latitude": 40.646389
 },
 {
	"Item Type Name": "Temporary DOB registered oil fired mobile boiler",
	"JFNPermitNumber": "B00747926-I1-LA",
	"FilingNumber": "I1",
	"Created On Date": "2022/5/31 12:00:00",
	"Work Type Name": "Oil Work",
	"Filing Type Name": "New Job Filing",
	"LocationBIN": "3055968",
	"Address": "430 CLINTON AVENUE",
	"CommunityBoardNumber": "302",
	"LocationBoroughName": "BROOKLYN",
	"Longitude": -73.9678116,
	"Latitude": 40.6853409
 },
 {
	"Item Type Name": "Temporary DOB registered oil fired mobile boiler",
	"JFNPermitNumber": "B00748875-I1-LA",
	"FilingNumber": "I1",
	"Created On Date": "2022/6/1 12:00:00",
	"Work Type Name": "Oil Work",
	"Filing Type Name": "New Job Filing",
	"LocationBIN": "3136585",
	"Address": "983 46 STREET",
	"CommunityBoardNumber": "312",
	"LocationBoroughName": "BROOKLYN",
	"Longitude": -73.9971008,
	"Latitude": 40.6409607
 },
 {
	"Item Type Name": "Temporary DOB registered oil fired mobile boiler",
	"JFNPermitNumber": "B00749510-I1-LA",
	"FilingNumber": "I1",
	"Created On Date": "2022/6/1 12:00:00",
	"Work Type Name": "Oil Work",
	"Filing Type Name": "New Job Filing",
	"LocationBIN": "3061080",
	"Address": "40 HEYWARD STREET",
	"CommunityBoardNumber": "301",
	"LocationBoroughName": "BROOKLYN",
	"Longitude": -73.9579163,
	"Latitude": 40.7002411
 },
 {
	"Item Type Name": "Temporary DOB registered oil fired mobile boiler",
	"JFNPermitNumber": "B00760621-I1-LA",
	"FilingNumber": "I1",
	"Created On Date": "2022/6/20 12:00:00",
	"Work Type Name": "Oil Work",
	"Filing Type Name": "New Job Filing",
	"LocationBIN": "3180160",
	"Address": "1921 AVENUE K",
	"CommunityBoardNumber": "314",
	"LocationBoroughName": "BROOKLYN",
	"Longitude": -73.9564285,
	"Latitude": 40.6234894
 },
 {
	"Item Type Name": "Temporary DOB registered oil fired mobile boiler",
	"JFNPermitNumber": "B00760994-I1-LA",
	"FilingNumber": "I1",
	"Created On Date": "2022/6/20 12:00:00",
	"Work Type Name": "Oil Work",
	"Filing Type Name": "New Job Filing",
	"LocationBIN": "3047914",
	"Address": "180 CHAUNCEY STREET",
	"CommunityBoardNumber": "303",
	"LocationBoroughName": "BROOKLYN",
	"Longitude": -73.9266663,
	"Latitude": 40.6803513
 },
 {
	"Item Type Name": "Temporary DOB registered oil fired mobile boiler",
	"JFNPermitNumber": "B00762349-I1-LA",
	"FilingNumber": "I1",
	"Created On Date": "2022/6/22 12:00:00",
	"Work Type Name": "Oil Work",
	"Filing Type Name": "New Job Filing",
	"LocationBIN": "3150455",
	"Address": "601 79 STREET",
	"CommunityBoardNumber": "310",
	"LocationBoroughName": "BROOKLYN",
	"Longitude": -74.0208588,
	"Latitude": 40.6249809
 },
 {
	"Item Type Name": "Temporary DOB registered oil fired mobile boiler",
	"JFNPermitNumber": "B00776319-I1-LA",
	"FilingNumber": "I1",
	"Created On Date": "2022/7/18 12:00:00",
	"Work Type Name": "Oil Work",
	"Filing Type Name": "New Job Filing",
	"LocationBIN": "3163419",
	"Address": "8002 21 AVENUE",
	"CommunityBoardNumber": "311",
	"LocationBoroughName": "BROOKLYN",
	"Longitude": -73.9929733,
	"Latitude": 40.6066704
 },
 {
	"Item Type Name": "Temporary DOB registered oil fired mobile boiler",
	"JFNPermitNumber": "B00781943-I1-LA",
	"FilingNumber": "I1",
	"Created On Date": "2022/7/26 12:00:00",
	"Work Type Name": "Oil Work",
	"Filing Type Name": "New Job Filing",
	"LocationBIN": "3002558",
	"Address": "210 JORALEMON STREET",
	"CommunityBoardNumber": "302",
	"LocationBoroughName": "BROOKLYN",
	"Longitude": -73.9904709,
	"Latitude": 40.69207
 },
 {
	"Item Type Name": "Temporary DOB registered oil fired mobile boiler",
	"JFNPermitNumber": "B00783443-I1-LA",
	"FilingNumber": "I1",
	"Created On Date": "2022/7/28 12:00:00",
	"Work Type Name": "Oil Work",
	"Filing Type Name": "New Job Filing",
	"LocationBIN": "3000203",
	"Address": "50 NAVY STREET",
	"CommunityBoardNumber": "302",
	"LocationBoroughName": "BROOKLYN",
	"Longitude": -73.9811172,
	"Latitude": 40.6978493
 },
 {
	"Item Type Name": "Temporary DOB registered oil fired mobile boiler",
	"JFNPermitNumber": "B00784992-I1-LA",
	"FilingNumber": "I1",
	"Created On Date": "2022/8/1 12:00:00",
	"Work Type Name": "Oil Work",
	"Filing Type Name": "New Job Filing",
	"LocationBIN": "3324294",
	"Address": "725 STANLEY AVENUE",
	"CommunityBoardNumber": "305",
	"LocationBoroughName": "BROOKLYN",
	"Longitude": -73.8818512,
	"Latitude": 40.6612206
 },
 {
	"Item Type Name": "Temporary DOB registered oil fired mobile boiler",
	"JFNPermitNumber": "B00789626-I1-LA",
	"FilingNumber": "I1",
	"Created On Date": "2022/8/8 12:00:00",
	"Work Type Name": "Oil Work",
	"Filing Type Name": "New Job Filing",
	"LocationBIN": "3334961",
	"Address": "200 WILLOUGHBY AVENUE",
	"CommunityBoardNumber": "302",
	"LocationBoroughName": "BROOKLYN",
	"Longitude": -73.9638901,
	"Latitude": 40.691021
 },
 {
	"Item Type Name": "Temporary DOB registered oil fired mobile boiler",
	"JFNPermitNumber": "B00792350-I1-LA",
	"FilingNumber": "I1",
	"Created On Date": "2022/8/12 12:00:00",
	"Work Type Name": "Oil Work",
	"Filing Type Name": "New Job Filing",
	"LocationBIN": "3048818",
	"Address": "545 WILLOUGHBY AVENUE",
	"CommunityBoardNumber": "303",
	"LocationBoroughName": "BROOKLYN",
	"Longitude": -73.9473572,
	"Latitude": 40.6944389
 },
 {
	"Item Type Name": "Temporary DOB registered oil fired mobile boiler",
	"JFNPermitNumber": "B00793297-I1-LA",
	"FilingNumber": "I1",
	"Created On Date": "2022/8/15 12:00:00",
	"Work Type Name": "Oil Work",
	"Filing Type Name": "New Job Filing",
	"LocationBIN": "3115529",
	"Address": "75 HAWTHORNE STREET",
	"CommunityBoardNumber": "309",
	"LocationBoroughName": "BROOKLYN",
	"Longitude": -73.9576416,
	"Latitude": 40.6576385
 },
 {
	"Item Type Name": "Temporary DOB registered oil fired mobile boiler",
	"JFNPermitNumber": "B00793518-I1-LA",
	"FilingNumber": "I1",
	"Created On Date": "2022/8/15 12:00:00",
	"Work Type Name": "Oil Work",
	"Filing Type Name": "New Job Filing",
	"LocationBIN": "3224947",
	"Address": "956 EAST   82 STREET",
	"CommunityBoardNumber": "318",
	"LocationBoroughName": "BROOKLYN",
	"Longitude": -73.9112167,
	"Latitude": 40.6353912
 },
 {
	"Item Type Name": "Temporary DOB registered oil fired mobile boiler",
	"JFNPermitNumber": "B00807709-I1-LA",
	"FilingNumber": "I1",
	"Created On Date": "2023/1/4 12:00:00",
	"Work Type Name": "Oil Work",
	"Filing Type Name": "New Job Filing",
	"LocationBIN": "3192661",
	"Address": "345 VAN SICKLEN STREET",
	"CommunityBoardNumber": "315",
	"LocationBoroughName": "BROOKLYN",
	"Longitude": -73.9746704,
	"Latitude": 40.5960007
 },
 {
	"Item Type Name": "Temporary DOB registered oil fired mobile boiler",
	"JFNPermitNumber": "B00810067-I1-LA",
	"FilingNumber": "I1",
	"Created On Date": "2023/1/9 12:00:00",
	"Work Type Name": "Oil Work",
	"Filing Type Name": "New Job Filing",
	"LocationBIN": "3046876",
	"Address": "500 MACON STREET",
	"CommunityBoardNumber": "303",
	"LocationBoroughName": "BROOKLYN",
	"Longitude": -73.93013,
	"Latitude": 40.6829491
 },
 {
	"Item Type Name": "Temporary DOB registered oil fired mobile boiler",
	"JFNPermitNumber": "B00812387-I1-LA",
	"FilingNumber": "I1",
	"Created On Date": "2023/1/13 12:00:00",
	"Work Type Name": "Oil Work",
	"Filing Type Name": "New Job Filing",
	"LocationBIN": "3145633",
	"Address": "237 OVINGTON AVENUE",
	"CommunityBoardNumber": "310",
	"LocationBoroughName": "BROOKLYN",
	"Longitude": -74.0276337,
	"Latitude": 40.6354599
 },
 {
	"Item Type Name": "Temporary DOB registered oil fired mobile boiler",
	"JFNPermitNumber": "B00812688-I1-LA",
	"FilingNumber": "I1",
	"Created On Date": "2023/1/13 12:00:00",
	"Work Type Name": "Oil Work",
	"Filing Type Name": "New Job Filing",
	"LocationBIN": "3034161",
	"Address": "240 CROWN STREET",
	"CommunityBoardNumber": "309",
	"LocationBoroughName": "BROOKLYN",
	"Longitude": -73.9527435,
	"Latitude": 40.6660995
 },
 {
	"Item Type Name": "Temporary DOB registered oil fired mobile boiler",
	"JFNPermitNumber": "B00822608-I1-LA",
	"FilingNumber": "I1",
	"Created On Date": "2023/2/2 12:00:00",
	"Work Type Name": "Oil Work",
	"Filing Type Name": "New Job Filing",
	"LocationBIN": "3392234",
	"Address": "358 GROVE STREET",
	"CommunityBoardNumber": "304",
	"LocationBoroughName": "BROOKLYN",
	"Longitude": -73.9138031,
	"Latitude": 40.6999397
 },
 {
	"Item Type Name": "Temporary DOB registered oil fired mobile boiler",
	"JFNPermitNumber": "B00824521-I1-LA",
	"FilingNumber": "I1",
	"Created On Date": "2023/2/6 12:00:00",
	"Work Type Name": "Oil Work",
	"Filing Type Name": "New Job Filing",
	"LocationBIN": "3324228",
	"Address": "207 PROSPECT PARK SOUTH WEST",
	"CommunityBoardNumber": "307",
	"LocationBoroughName": "BROOKLYN",
	"Longitude": -73.9730682,
	"Latitude": 40.65205
 },
 {
	"Item Type Name": "Temporary DOB registered oil fired mobile boiler",
	"JFNPermitNumber": "B00831937-I1-LA",
	"FilingNumber": "I1",
	"Created On Date": "2023/2/20 12:00:00",
	"Work Type Name": "Oil Work",
	"Filing Type Name": "New Job Filing",
	"LocationBIN": "3117147",
	"Address": "280 EAST   21 STREET",
	"CommunityBoardNumber": "314",
	"LocationBoroughName": "BROOKLYN",
	"Longitude": -73.9597092,
	"Latitude": 40.6476898
 },
 {
	"Item Type Name": "Temporary DOB registered oil fired mobile boiler",
	"JFNPermitNumber": "B00834385-I1-LA",
	"FilingNumber": "I1",
	"Created On Date": "2023/2/23 12:00:00",
	"Work Type Name": "Oil Work",
	"Filing Type Name": "New Job Filing",
	"LocationBIN": "3172747",
	"Address": "1397 EAST    2 STREET",
	"CommunityBoardNumber": "312",
	"LocationBoroughName": "BROOKLYN",
	"Longitude": -73.9728699,
	"Latitude": 40.6155891
 },
 {
	"Item Type Name": "Temporary DOB registered oil fired mobile boiler",
	"JFNPermitNumber": "B00835451-I1-LA",
	"FilingNumber": "I1",
	"Created On Date": "2023/2/27 12:00:00",
	"Work Type Name": "Oil Work",
	"Filing Type Name": "New Job Filing",
	"LocationBIN": "3063012",
	"Address": "231 SOUTH    2 STREET",
	"CommunityBoardNumber": "301",
	"LocationBoroughName": "BROOKLYN",
	"Longitude": -73.9582825,
	"Latitude": 40.7121201
 },
 {
	"Item Type Name": "Temporary DOB registered oil fired mobile boiler",
	"JFNPermitNumber": "B00852822-I1-LA",
	"FilingNumber": "I1",
	"Created On Date": "2023/3/30 12:00:00",
	"Work Type Name": "Oil Work",
	"Filing Type Name": "New Job Filing",
	"LocationBIN": "3008506",
	"Address": "120 RICHARDS STREET",
	"CommunityBoardNumber": "306",
	"LocationBoroughName": "BROOKLYN",
	"Longitude": -74.0099869,
	"Latitude": 40.6778297
 },
 {
	"Item Type Name": "Temporary DOB registered oil fired mobile boiler",
	"JFNPermitNumber": "B00856375-I1-LA",
	"FilingNumber": "I1",
	"Created On Date": "2023/4/6 12:00:00",
	"Work Type Name": "Oil Work",
	"Filing Type Name": "New Job Filing",
	"LocationBIN": "3391534",
	"Address": "171 PROSPECT PLACE",
	"CommunityBoardNumber": "308",
	"LocationBoroughName": "BROOKLYN",
	"Longitude": -73.9709015,
	"Latitude": 40.6783791
 },
 {
	"Item Type Name": "Temporary DOB registered oil fired mobile boiler",
	"JFNPermitNumber": "B00859880-I1-LA",
	"FilingNumber": "I1",
	"Created On Date": "2023/4/14 12:00:00",
	"Work Type Name": "Oil Work",
	"Filing Type Name": "New Job Filing",
	"LocationBIN": "3426346",
	"Address": "50 BRIDGE PARK DRIVE",
	"CommunityBoardNumber": "302",
	"LocationBoroughName": "BROOKLYN",
	"Longitude": -74.0006866,
	"Latitude": 40.6928291
 },
 {
	"Item Type Name": "Temporary DOB registered oil fired mobile boiler",
	"JFNPermitNumber": "B00871479-I1-LA",
	"FilingNumber": "I1",
	"Created On Date": "2023/6/7 12:00:00",
	"Work Type Name": "Oil Work",
	"Filing Type Name": "New Job Filing",
	"LocationBIN": "3338597",
	"Address": "991 MYRTLE AVENUE",
	"CommunityBoardNumber": "303",
	"LocationBoroughName": "BROOKLYN",
	"Longitude": -73.9420395,
	"Latitude": 40.6972198
 },
 {
	"Item Type Name": "Temporary DOB registered oil fired mobile boiler",
	"JFNPermitNumber": "B00873707-I1-LA",
	"FilingNumber": "I1",
	"Created On Date": "2023/5/11 12:00:00",
	"Work Type Name": "Oil Work",
	"Filing Type Name": "New Job Filing",
	"LocationBIN": "3150481",
	"Address": "7805 7 AVENUE",
	"CommunityBoardNumber": "310",
	"LocationBoroughName": "BROOKLYN",
	"Longitude": -74.0184708,
	"Latitude": 40.6237297
 },
 {
	"Item Type Name": "Temporary DOB registered oil fired mobile boiler",
	"JFNPermitNumber": "B00881202-I1-LA",
	"FilingNumber": "I1",
	"Created On Date": "2023/5/25 12:00:00",
	"Work Type Name": "Oil Work",
	"Filing Type Name": "New Job Filing",
	"LocationBIN": "3079428",
	"Address": "84 SCHAEFFER STREET",
	"CommunityBoardNumber": "304",
	"LocationBoroughName": "BROOKLYN",
	"Longitude": -73.9104233,
	"Latitude": 40.6864395
 },
 {
	"Item Type Name": "Temporary DOB registered oil fired mobile boiler",
	"JFNPermitNumber": "B00899064-I1-LA",
	"FilingNumber": "I1",
	"Created On Date": "2023/7/3 12:00:00",
	"Work Type Name": "Oil Work",
	"Filing Type Name": "New Job Filing",
	"LocationBIN": "3116368",
	"Address": "10 WESTMINSTER ROAD",
	"CommunityBoardNumber": "314",
	"LocationBoroughName": "BROOKLYN",
	"Longitude": -73.9690094,
	"Latitude": 40.6489105
 },
 {
	"Item Type Name": "Temporary DOB registered oil fired mobile boiler",
	"JFNPermitNumber": "B00903009-I1-LA",
	"FilingNumber": "I1",
	"Created On Date": "2023/7/12 12:00:00",
	"Work Type Name": "Oil Work",
	"Filing Type Name": "New Job Filing",
	"LocationBIN": "3037262",
	"Address": "1188 LINCOLN PLACE",
	"CommunityBoardNumber": "308",
	"LocationBoroughName": "BROOKLYN",
	"Longitude": -73.9372864,
	"Latitude": 40.669899
 },
 {
	"Item Type Name": "Temporary DOB registered oil fired mobile boiler",
	"JFNPermitNumber": "B00908020-I1-LA",
	"FilingNumber": "I1",
	"Created On Date": "2023/7/21 12:00:00",
	"Work Type Name": "Oil Work",
	"Filing Type Name": "New Job Filing",
	"LocationBIN": "3215705",
	"Address": "1199 EAST   53 STREET",
	"CommunityBoardNumber": "318",
	"LocationBoroughName": "BROOKLYN",
	"Longitude": -73.9245682,
	"Latitude": 40.6297493
 },
 {
	"Item Type Name": "Temporary DOB registered oil fired mobile boiler",
	"JFNPermitNumber": "B00908032-I1-LA",
	"FilingNumber": "I1",
	"Created On Date": "2023/7/21 12:00:00",
	"Work Type Name": "Oil Work",
	"Filing Type Name": "New Job Filing",
	"LocationBIN": "3215627",
	"Address": "1275 EAST   51 STREET",
	"CommunityBoardNumber": "318",
	"LocationBoroughName": "BROOKLYN",
	"Longitude": -73.9265594,
	"Latitude": 40.6298103
 },
 {
	"Item Type Name": "Temporary DOB registered oil fired mobile boiler",
	"JFNPermitNumber": "B00909905-I1-LA",
	"FilingNumber": "I1",
	"Created On Date": "2023/7/26 12:00:00",
	"Work Type Name": "Oil Work",
	"Filing Type Name": "New Job Filing",
	"LocationBIN": "3327832",
	"Address": "295 JACKSON STREET",
	"CommunityBoardNumber": "301",
	"LocationBoroughName": "BROOKLYN",
	"Longitude": -73.9384537,
	"Latitude": 40.718071
 },
 {
	"Item Type Name": "Temporary DOB registered oil fired mobile boiler",
	"JFNPermitNumber": "B00909986-I1-LA",
	"FilingNumber": "I1",
	"Created On Date": "2023/7/26 12:00:00",
	"Work Type Name": "Oil Work",
	"Filing Type Name": "New Job Filing",
	"LocationBIN": "3327832",
	"Address": "295 JACKSON STREET",
	"CommunityBoardNumber": "301",
	"LocationBoroughName": "BROOKLYN",
	"Longitude": -73.9384537,
	"Latitude": 40.718071
 },
 {
	"Item Type Name": "Temporary DOB registered oil fired mobile boiler",
	"JFNPermitNumber": "B00910269-I1-LA",
	"FilingNumber": "I1",
	"Created On Date": "2023/7/26 12:00:00",
	"Work Type Name": "Oil Work",
	"Filing Type Name": "New Job Filing",
	"LocationBIN": "3025343",
	"Address": "575 3 STREET",
	"CommunityBoardNumber": "306",
	"LocationBoroughName": "BROOKLYN",
	"Longitude": -73.9757767,
	"Latitude": 40.6694412
 },
 {
	"Item Type Name": "Temporary DOB registered oil fired mobile boiler",
	"JFNPermitNumber": "B00917649-I1-LA",
	"FilingNumber": "I1",
	"Created On Date": "2023/8/10 12:00:00",
	"Work Type Name": "Oil Work",
	"Filing Type Name": "New Job Filing",
	"LocationBIN": "3031037",
	"Address": "850 ST MARKS AVENUE",
	"CommunityBoardNumber": "308",
	"LocationBoroughName": "BROOKLYN",
	"Longitude": -73.9448318,
	"Latitude": 40.6746101
 },
 {
	"Item Type Name": "Temporary DOB registered oil fired mobile boiler",
	"JFNPermitNumber": "B00918204-I1-LA",
	"FilingNumber": "I1",
	"Created On Date": "2023/8/11 12:00:00",
	"Work Type Name": "Oil Work",
	"Filing Type Name": "New Job Filing",
	"LocationBIN": "3076470",
	"Address": "1478 GATES AVENUE",
	"CommunityBoardNumber": "304",
	"LocationBoroughName": "BROOKLYN",
	"Longitude": -73.9135666,
	"Latitude": 40.6977882
 },
 {
	"Item Type Name": "Temporary DOB registered oil fired mobile boiler",
	"JFNPermitNumber": "B00919091-I1-LA",
	"FilingNumber": "I1",
	"Created On Date": "2023/8/14 12:00:00",
	"Work Type Name": "Oil Work",
	"Filing Type Name": "New Job Filing",
	"LocationBIN": "3325172",
	"Address": "329 PATCHEN AVENUE",
	"CommunityBoardNumber": "303",
	"LocationBoroughName": "BROOKLYN",
	"Longitude": -73.9238586,
	"Latitude": 40.6803703
 },
 {
	"Item Type Name": "Temporary DOB registered oil fired mobile boiler",
	"JFNPermitNumber": "B00919111-I1-LA",
	"FilingNumber": "I1",
	"Created On Date": "2023/8/14 12:00:00",
	"Work Type Name": "Oil Work",
	"Filing Type Name": "New Job Filing",
	"LocationBIN": "3325172",
	"Address": "329 PATCHEN AVENUE",
	"CommunityBoardNumber": "303",
	"LocationBoroughName": "BROOKLYN",
	"Longitude": -73.9238586,
	"Latitude": 40.6803703
 },
 {
	"Item Type Name": "Temporary DOB registered oil fired mobile boiler",
	"JFNPermitNumber": "B08006576-I1-LA",
	"FilingNumber": "I1",
	"Created On Date": "2022/9/20 12:00:00",
	"Work Type Name": "Oil Work",
	"Filing Type Name": "New Job Filing",
	"LocationBIN": "3326174",
	"Address": "390 WILSON AVENUE",
	"CommunityBoardNumber": "304",
	"LocationBoroughName": "BROOKLYN",
	"Longitude": -73.9159088,
	"Latitude": 40.6939697
 },
 {
	"Item Type Name": "Temporary DOB registered oil fired mobile boiler",
	"JFNPermitNumber": "B08006577-I1-LA",
	"FilingNumber": "I1",
	"Created On Date": "2022/9/20 12:00:00",
	"Work Type Name": "Oil Work",
	"Filing Type Name": "New Job Filing",
	"LocationBIN": "3326173",
	"Address": "210 PALMETTO STREET",
	"CommunityBoardNumber": "304",
	"LocationBoroughName": "BROOKLYN",
	"Longitude": -73.9159088,
	"Latitude": 40.6939697
 },
 {
	"Item Type Name": "Temporary DOB registered oil fired mobile boiler",
	"JFNPermitNumber": "B08006794-I1-LA",
	"FilingNumber": "I1",
	"Created On Date": "2022/9/20 12:00:00",
	"Work Type Name": "Oil Work",
	"Filing Type Name": "New Job Filing",
	"LocationBIN": "3076768",
	"Address": "440 CENTRAL AVENUE",
	"CommunityBoardNumber": "304",
	"LocationBoroughName": "BROOKLYN",
	"Longitude": -73.9160919,
	"Latitude": 40.6926193
 },
 {
	"Item Type Name": "Temporary DOB registered oil fired mobile boiler",
	"JFNPermitNumber": "B08006857-I1-LA",
	"FilingNumber": "I1",
	"Created On Date": "2022/9/20 12:00:00",
	"Work Type Name": "Oil Work",
	"Filing Type Name": "New Job Filing",
	"LocationBIN": "3338492",
	"Address": "339 WILSON AVENUE",
	"CommunityBoardNumber": "304",
	"LocationBoroughName": "BROOKLYN",
	"Longitude": -73.916687,
	"Latitude": 40.6967888
 },
 {
	"Item Type Name": "Temporary DOB registered oil fired mobile boiler",
	"JFNPermitNumber": "B08006959-I1-LA",
	"FilingNumber": "I1",
	"Created On Date": "2022/9/20 12:00:00",
	"Work Type Name": "Oil Work",
	"Filing Type Name": "New Job Filing",
	"LocationBIN": "3338493",
	"Address": "357 WILSON AVENUE",
	"CommunityBoardNumber": "304",
	"LocationBoroughName": "BROOKLYN",
	"Longitude": -73.9159775,
	"Latitude": 40.6963005
 },
 {
	"Item Type Name": "Temporary DOB registered oil fired mobile boiler",
	"JFNPermitNumber": "B08015985-I1-LA",
	"FilingNumber": "I1",
	"Created On Date": "2022/10/5 12:00:00",
	"Work Type Name": "Oil Work",
	"Filing Type Name": "New Job Filing",
	"LocationBIN": "3063128",
	"Address": "183 SOUTH    3 STREET",
	"CommunityBoardNumber": "301",
	"LocationBoroughName": "BROOKLYN",
	"Longitude": -73.9601288,
	"Latitude": 40.7119217
 },
 {
	"Item Type Name": "Temporary DOB registered oil fired mobile boiler",
	"JFNPermitNumber": "B08016137-I1-LA",
	"FilingNumber": "I1",
	"Created On Date": "2022/10/5 12:00:00",
	"Work Type Name": "Oil Work",
	"Filing Type Name": "New Job Filing",
	"LocationBIN": "3152318",
	"Address": "8301 SHORE ROAD",
	"CommunityBoardNumber": "310",
	"LocationBoroughName": "BROOKLYN",
	"Longitude": -74.0380783,
	"Latitude": 40.6268082
 },
 {
	"Item Type Name": "Temporary DOB registered oil fired mobile boiler",
	"JFNPermitNumber": "B08018030-I1-LA",
	"FilingNumber": "I1",
	"Created On Date": "2022/10/9 12:00:00",
	"Work Type Name": "Oil Work",
	"Filing Type Name": "New Job Filing",
	"LocationBIN": "3119523",
	"Address": "2107 DITMAS AVENUE",
	"CommunityBoardNumber": "314",
	"LocationBoroughName": "BROOKLYN",
	"Longitude": -73.9576263,
	"Latitude": 40.6402397
 },
 {
	"Item Type Name": "Temporary DOB registered oil fired mobile boiler",
	"JFNPermitNumber": "B08019199-I1-LA",
	"FilingNumber": "I1",
	"Created On Date": "2022/10/11 12:00:00",
	"Work Type Name": "Oil Work",
	"Filing Type Name": "New Job Filing",
	"LocationBIN": "3025486",
	"Address": "636 3 STREET",
	"CommunityBoardNumber": "306",
	"LocationBoroughName": "BROOKLYN",
	"Longitude": -73.9742737,
	"Latitude": 40.6681595
 },
 {
	"Item Type Name": "Temporary DOB registered oil fired mobile boiler",
	"JFNPermitNumber": "B08024482-I1-LA",
	"FilingNumber": "I1",
	"Created On Date": "2022/10/20 12:00:00",
	"Work Type Name": "Oil Work",
	"Filing Type Name": "New Job Filing",
	"LocationBIN": "3246887",
	"Address": "1516 ORIENTAL BOULEVARD",
	"CommunityBoardNumber": "315",
	"LocationBoroughName": "BROOKLYN",
	"Longitude": -73.9383087,
	"Latitude": 40.5761909
 },
 {
	"Item Type Name": "Temporary DOB registered oil fired mobile boiler",
	"JFNPermitNumber": "B08028626-I1-LA",
	"FilingNumber": "I1",
	"Created On Date": "2022/10/26 12:00:00",
	"Work Type Name": "Oil Work",
	"Filing Type Name": "New Job Filing",
	"LocationBIN": "3196929",
	"Address": "1970 EAST   18 STREET",
	"CommunityBoardNumber": "315",
	"LocationBoroughName": "BROOKLYN",
	"Longitude": -73.9543991,
	"Latitude": 40.6021004
 },
 {
	"Item Type Name": "Temporary DOB registered oil fired mobile boiler",
	"JFNPermitNumber": "B08033224-I1-LA",
	"FilingNumber": "I1",
	"Created On Date": "2022/11/2 12:00:00",
	"Work Type Name": "Oil Work",
	"Filing Type Name": "New Job Filing",
	"LocationBIN": "3327301",
	"Address": "2915 CLARENDON ROAD",
	"CommunityBoardNumber": "317",
	"LocationBoroughName": "BROOKLYN",
	"Longitude": -73.9490738,
	"Latitude": 40.6434593
 },
 {
	"Item Type Name": "Temporary DOB registered oil fired mobile boiler",
	"JFNPermitNumber": "B08033959-I1-LA",
	"FilingNumber": "I1",
	"Created On Date": "2022/11/3 12:00:00",
	"Work Type Name": "Oil Work",
	"Filing Type Name": "New Job Filing",
	"LocationBIN": "3422980",
	"Address": "362 MASPETH AVENUE",
	"CommunityBoardNumber": "301",
	"LocationBoroughName": "BROOKLYN",
	"Longitude": -73.9293365,
	"Latitude": 40.7179718
 },
 {
	"Item Type Name": "Temporary DOB registered oil fired mobile boiler",
	"JFNPermitNumber": "B08036007-I1-LA",
	"FilingNumber": "I1",
	"Created On Date": "2022/11/7 12:00:00",
	"Work Type Name": "Oil Work",
	"Filing Type Name": "New Job Filing",
	"LocationBIN": "3326830",
	"Address": "5100 AVENUE U",
	"CommunityBoardNumber": "318",
	"LocationBoroughName": "BROOKLYN",
	"Longitude": -73.9195175,
	"Latitude": 40.6097183
 },
 {
	"Item Type Name": "Temporary DOB registered oil fired mobile boiler",
	"JFNPermitNumber": "B08038551-I1-LA",
	"FilingNumber": "I1",
	"Created On Date": "2022/11/11 12:00:00",
	"Work Type Name": "Oil Work",
	"Filing Type Name": "New Job Filing",
	"LocationBIN": "3070575",
	"Address": "185 RANDOLPH STREET",
	"CommunityBoardNumber": "301",
	"LocationBoroughName": "BROOKLYN",
	"Longitude": -73.9254684,
	"Latitude": 40.7100601
 },
 {
	"Item Type Name": "Temporary DOB registered oil fired mobile boiler",
	"JFNPermitNumber": "B08043307-I1-LA",
	"FilingNumber": "I1",
	"Created On Date": "2022/11/21 12:00:00",
	"Work Type Name": "Oil Work",
	"Filing Type Name": "New Job Filing",
	"LocationBIN": "3029701",
	"Address": "991 PRESIDENT STREET",
	"CommunityBoardNumber": "309",
	"LocationBoroughName": "BROOKLYN",
	"Longitude": -73.959343,
	"Latitude": 40.6693306
 },
 {
	"Item Type Name": "Temporary DOB registered oil fired mobile boiler",
	"JFNPermitNumber": "B08043464-I1-LA",
	"FilingNumber": "I1",
	"Created On Date": "2022/11/21 12:00:00",
	"Work Type Name": "Oil Work",
	"Filing Type Name": "New Job Filing",
	"LocationBIN": "3020278",
	"Address": "233 5 AVENUE",
	"CommunityBoardNumber": "306",
	"LocationBoroughName": "BROOKLYN",
	"Longitude": -73.9809036,
	"Latitude": 40.6753311
 },
 {
	"Item Type Name": "Temporary DOB registered oil fired mobile boiler",
	"JFNPermitNumber": "B08043956-I1-LA",
	"FilingNumber": "I1",
	"Created On Date": "2022/11/22 12:00:00",
	"Work Type Name": "Oil Work",
	"Filing Type Name": "New Job Filing",
	"LocationBIN": "3014545",
	"Address": "5422 4 AVENUE",
	"CommunityBoardNumber": "307",
	"LocationBoroughName": "BROOKLYN",
	"Longitude": -74.0156708,
	"Latitude": 40.643959
 },
 {
	"Item Type Name": "Temporary DOB registered oil fired mobile boiler",
	"JFNPermitNumber": "B08044623-I1-LA",
	"FilingNumber": "I1",
	"Created On Date": "2022/11/23 12:00:00",
	"Work Type Name": "Oil Work",
	"Filing Type Name": "New Job Filing",
	"LocationBIN": "3392234",
	"Address": "358 GROVE STREET",
	"CommunityBoardNumber": "304",
	"LocationBoroughName": "BROOKLYN",
	"Longitude": -73.9138031,
	"Latitude": 40.6999397
 },
 {
	"Item Type Name": "Temporary DOB registered oil fired mobile boiler",
	"JFNPermitNumber": "B08045815-I1-LA",
	"FilingNumber": "I1",
	"Created On Date": "2022/11/28 12:00:00",
	"Work Type Name": "Oil Work",
	"Filing Type Name": "New Job Filing",
	"LocationBIN": "3331325",
	"Address": "94 ROSS STREET",
	"CommunityBoardNumber": "301",
	"LocationBoroughName": "BROOKLYN",
	"Longitude": -73.9622269,
	"Latitude": 40.7031708
 },
 {
	"Item Type Name": "Temporary DOB registered oil fired mobile boiler",
	"JFNPermitNumber": "M00087893-I1-LA",
	"FilingNumber": "I1",
	"Created On Date": "2018/10/15 12:00:00",
	"Work Type Name": "Oil Work",
	"Filing Type Name": "New Job Filing",
	"LocationBIN": "1079828",
	"Address": "333 BOWERY",
	"CommunityBoardNumber": "103",
	"LocationBoroughName": "MANHATTAN",
	"Longitude": -73.9915695,
	"Latitude": 40.7258301
 },
 {
	"Item Type Name": "Temporary DOB registered oil fired mobile boiler",
	"JFNPermitNumber": "M00087985-I1-LA",
	"FilingNumber": "I1",
	"Created On Date": "2018/10/15 12:00:00",
	"Work Type Name": "Oil Work",
	"Filing Type Name": "New Job Filing",
	"LocationBIN": "1009134",
	"Address": "817 BROADWAY",
	"CommunityBoardNumber": "102",
	"LocationBoroughName": "MANHATTAN",
	"Longitude": -73.9915237,
	"Latitude": 40.7332001
 },
 {
	"Item Type Name": "Temporary DOB registered oil fired mobile boiler",
	"JFNPermitNumber": "M00087985-I1-LA",
	"FilingNumber": "I1",
	"Created On Date": "2018/10/16 12:00:00",
	"Work Type Name": "Oil Work",
	"Filing Type Name": "New Job Filing",
	"LocationBIN": "1009134",
	"Address": "817 BROADWAY",
	"CommunityBoardNumber": "102",
	"LocationBoroughName": "MANHATTAN",
	"Longitude": -73.9915237,
	"Latitude": 40.7332001
 },
 {
	"Item Type Name": "Temporary DOB registered oil fired mobile boiler",
	"JFNPermitNumber": "M00088020-I1-LA",
	"FilingNumber": "I1",
	"Created On Date": "2018/10/15 12:00:00",
	"Work Type Name": "Oil Work",
	"Filing Type Name": "New Job Filing",
	"LocationBIN": "1037995",
	"Address": "212 EAST   48 STREET",
	"CommunityBoardNumber": "106",
	"LocationBoroughName": "MANHATTAN",
	"Longitude": -73.9710464,
	"Latitude": 40.7540588
 },
 {
	"Item Type Name": "Temporary DOB registered oil fired mobile boiler",
	"JFNPermitNumber": "M00088130-I1-LA",
	"FilingNumber": "I1",
	"Created On Date": "2018/10/15 12:00:00",
	"Work Type Name": "Oil Work",
	"Filing Type Name": "New Job Filing",
	"LocationBIN": "1009722",
	"Address": "55 WEST   13 STREET",
	"CommunityBoardNumber": "102",
	"LocationBoroughName": "MANHATTAN",
	"Longitude": -73.9964981,
	"Latitude": 40.7365608
 },
 {
	"Item Type Name": "Temporary DOB registered oil fired mobile boiler",
	"JFNPermitNumber": "M00088130-S1-LA",
	"FilingNumber": "S1",
	"Created On Date": "2019/4/26 12:00:00",
	"Work Type Name": "Oil Work",
	"Filing Type Name": "Subsequent Filing",
	"LocationBIN": "1009722",
	"Address": "55 WEST   13 STREET",
	"CommunityBoardNumber": "102",
	"LocationBoroughName": "MANHATTAN",
	"Longitude": -73.9964981,
	"Latitude": 40.7365608
 },
 {
	"Item Type Name": "Temporary DOB registered oil fired mobile boiler",
	"JFNPermitNumber": "M00089009-I1-LA",
	"FilingNumber": "I1",
	"Created On Date": "2018/10/17 12:00:00",
	"Work Type Name": "Oil Work",
	"Filing Type Name": "New Job Filing",
	"LocationBIN": "1013561",
	"Address": "481 8 AVENUE",
	"CommunityBoardNumber": "104",
	"LocationBoroughName": "MANHATTAN",
	"Longitude": -73.9936371,
	"Latitude": 40.7527199
 },
 {
	"Item Type Name": "Temporary DOB registered oil fired mobile boiler",
	"JFNPermitNumber": "M00089015-I1-LA",
	"FilingNumber": "I1",
	"Created On Date": "2018/10/17 12:00:00",
	"Work Type Name": "Oil Work",
	"Filing Type Name": "New Job Filing",
	"LocationBIN": "1063096",
	"Address": "142 AUDUBON AVENUE",
	"CommunityBoardNumber": "112",
	"LocationBoroughName": "MANHATTAN",
	"Longitude": -73.9366531,
	"Latitude": 40.8433495
 },
 {
	"Item Type Name": "Temporary DOB registered oil fired mobile boiler",
	"JFNPermitNumber": "M00089613-I1-LA",
	"FilingNumber": "I1",
	"Created On Date": "2018/10/18 12:00:00",
	"Work Type Name": "Oil Work",
	"Filing Type Name": "New Job Filing",
	"LocationBIN": "1057085",
	"Address": "265 RIVERSIDE DRIVE",
	"CommunityBoardNumber": "107",
	"LocationBoroughName": "MANHATTAN",
	"Longitude": -73.9732819,
	"Latitude": 40.7975807
 },
 {
	"Item Type Name": "Temporary DOB registered oil fired mobile boiler",
	"JFNPermitNumber": "M00090177-I1-LA",
	"FilingNumber": "I1",
	"Created On Date": "2018/10/19 12:00:00",
	"Work Type Name": "Oil Work",
	"Filing Type Name": "New Job Filing",
	"LocationBIN": "1002831",
	"Address": "67 VESTRY STREET",
	"CommunityBoardNumber": "101",
	"LocationBoroughName": "MANHATTAN",
	"Longitude": -74.0112228,
	"Latitude": 40.7227402
 },
 {
	"Item Type Name": "Temporary DOB registered oil fired mobile boiler",
	"JFNPermitNumber": "M00090834-I1-LA",
	"FilingNumber": "I1",
	"Created On Date": "2018/10/22 12:00:00",
	"Work Type Name": "Oil Work",
	"Filing Type Name": "New Job Filing",
	"LocationBIN": "1040138",
	"Address": "439 EAST   51 STREET",
	"CommunityBoardNumber": "106",
	"LocationBoroughName": "MANHATTAN",
	"Longitude": -73.9641037,
	"Latitude": 40.7540703
 },
 {
	"Item Type Name": "Temporary DOB registered oil fired mobile boiler",
	"JFNPermitNumber": "M00091230-I1-LA",
	"FilingNumber": "I1",
	"Created On Date": "2018/10/23 12:00:00",
	"Work Type Name": "Oil Work",
	"Filing Type Name": "New Job Filing",
	"LocationBIN": "1005563",
	"Address": "104 FORSYTH STREET",
	"CommunityBoardNumber": "103",
	"LocationBoroughName": "MANHATTAN",
	"Longitude": -73.9925385,
	"Latitude": 40.71838
 },
 {
	"Item Type Name": "Temporary DOB registered oil fired mobile boiler",
	"JFNPermitNumber": "M00091422-I1-LA",
	"FilingNumber": "I1",
	"Created On Date": "2018/10/23 12:00:00",
	"Work Type Name": "Oil Work",
	"Filing Type Name": "New Job Filing",
	"LocationBIN": "1009270",
	"Address": "5 EAST   10 STREET",
	"CommunityBoardNumber": "102",
	"LocationBoroughName": "MANHATTAN",
	"Longitude": -73.9946899,
	"Latitude": 40.7333412
 },
 {
	"Item Type Name": "Temporary DOB registered oil fired mobile boiler",
	"JFNPermitNumber": "M00092929-I1-LA",
	"FilingNumber": "I1",
	"Created On Date": "2018/10/26 12:00:00",
	"Work Type Name": "Oil Work",
	"Filing Type Name": "New Job Filing",
	"LocationBIN": "1012641",
	"Address": "193 9 AVENUE",
	"CommunityBoardNumber": "104",
	"LocationBoroughName": "MANHATTAN",
	"Longitude": -74.0022812,
	"Latitude": 40.7456703
 },
 {
	"Item Type Name": "Temporary DOB registered oil fired mobile boiler",
	"JFNPermitNumber": "M00092963-I1-LA",
	"FilingNumber": "I1",
	"Created On Date": "2018/10/26 12:00:00",
	"Work Type Name": "Oil Work",
	"Filing Type Name": "New Job Filing",
	"LocationBIN": "1015198",
	"Address": "131 WEST   33 STREET",
	"CommunityBoardNumber": "105",
	"LocationBoroughName": "MANHATTAN",
	"Longitude": -73.9896774,
	"Latitude": 40.7499695
 },
 {
	"Item Type Name": "Temporary DOB registered oil fired mobile boiler",
	"JFNPermitNumber": "M00093537-I1-LA",
	"FilingNumber": "I1",
	"Created On Date": "2018/10/29 12:00:00",
	"Work Type Name": "Oil Work",
	"Filing Type Name": "New Job Filing",
	"LocationBIN": "1008817",
	"Address": "2 WASHINGTON PLACE",
	"CommunityBoardNumber": "102",
	"LocationBoroughName": "MANHATTAN",
	"Longitude": -73.994133,
	"Latitude": 40.7290115
 },
 {
	"Item Type Name": "Temporary DOB registered oil fired mobile boiler",
	"JFNPermitNumber": "M00096948-I1-LA",
	"FilingNumber": "I1",
	"Created On Date": "2018/11/6 12:00:00",
	"Work Type Name": "Oil Work",
	"Filing Type Name": "New Job Filing",
	"LocationBIN": "1008633",
	"Address": "222 THOMPSON STREET",
	"CommunityBoardNumber": "102",
	"LocationBoroughName": "MANHATTAN",
	"Longitude": -73.9988327,
	"Latitude": 40.7290802
 },
 {
	"Item Type Name": "Temporary DOB registered oil fired mobile boiler",
	"JFNPermitNumber": "M00105073-I1-LA",
	"FilingNumber": "I1",
	"Created On Date": "2018/11/30 12:00:00",
	"Work Type Name": "Oil Work",
	"Filing Type Name": "New Job Filing",
	"LocationBIN": "1031162",
	"Address": "465 COLUMBUS AVENUE",
	"CommunityBoardNumber": "107",
	"LocationBoroughName": "MANHATTAN",
	"Longitude": -73.973587,
	"Latitude": 40.7840004
 },
 {
	"Item Type Name": "Temporary DOB registered oil fired mobile boiler",
	"JFNPermitNumber": "M00106216-I1-LA",
	"FilingNumber": "I1",
	"Created On Date": "2018/12/6 12:00:00",
	"Work Type Name": "Oil Work",
	"Filing Type Name": "New Job Filing",
	"LocationBIN": "1059807",
	"Address": "522 WEST  136 STREET",
	"CommunityBoardNumber": "109",
	"LocationBoroughName": "MANHATTAN",
	"Longitude": -73.9534607,
	"Latitude": 40.8200493
 },
 {
	"Item Type Name": "Temporary DOB registered oil fired mobile boiler",
	"JFNPermitNumber": "M00106779-I1-LA",
	"FilingNumber": "I1",
	"Created On Date": "2018/12/5 12:00:00",
	"Work Type Name": "Oil Work",
	"Filing Type Name": "New Job Filing",
	"LocationBIN": "1057183",
	"Address": "308 WEST  103 STREET",
	"CommunityBoardNumber": "107",
	"LocationBoroughName": "MANHATTAN",
	"Longitude": -73.9708176,
	"Latitude": 40.7998085
 },
 {
	"Item Type Name": "Temporary DOB registered oil fired mobile boiler",
	"JFNPermitNumber": "M00109951-I1-LA",
	"FilingNumber": "I1",
	"Created On Date": "2018/12/20 12:00:00",
	"Work Type Name": "Oil Work",
	"Filing Type Name": "New Job Filing",
	"LocationBIN": "1055056",
	"Address": "160 WEST  116 STREET",
	"CommunityBoardNumber": "110",
	"LocationBoroughName": "MANHATTAN",
	"Longitude": -73.9518738,
	"Latitude": 40.8026314
 },
 {
	"Item Type Name": "Temporary DOB registered oil fired mobile boiler",
	"JFNPermitNumber": "M00112144-I1-LA",
	"FilingNumber": "I1",
	"Created On Date": "2018/12/19 12:00:00",
	"Work Type Name": "Oil Work",
	"Filing Type Name": "New Job Filing",
	"LocationBIN": "1052774",
	"Address": "312 EAST  106 STREET",
	"CommunityBoardNumber": "111",
	"LocationBoroughName": "MANHATTAN",
	"Longitude": -73.9417572,
	"Latitude": 40.7900314
 },
 {
	"Item Type Name": "Temporary DOB registered oil fired mobile boiler",
	"JFNPermitNumber": "M00112866-I1-LA",
	"FilingNumber": "I1",
	"Created On Date": "2018/12/21 12:00:00",
	"Work Type Name": "Oil Work",
	"Filing Type Name": "New Job Filing",
	"LocationBIN": "1032760",
	"Address": "462 AMSTERDAM AVENUE",
	"CommunityBoardNumber": "107",
	"LocationBoroughName": "MANHATTAN",
	"Longitude": -73.9770889,
	"Latitude": 40.7854004
 },
 {
	"Item Type Name": "Temporary DOB registered oil fired mobile boiler",
	"JFNPermitNumber": "M00114375-I1-LA",
	"FilingNumber": "I1",
	"Created On Date": "2018/12/28 12:00:00",
	"Work Type Name": "Oil Work",
	"Filing Type Name": "New Job Filing",
	"LocationBIN": "1087709",
	"Address": "54 ST MARKS PLACE",
	"CommunityBoardNumber": "103",
	"LocationBoroughName": "MANHATTAN",
	"Longitude": -73.9867935,
	"Latitude": 40.7279701
 },
 {
	"Item Type Name": "Temporary DOB registered oil fired mobile boiler",
	"JFNPermitNumber": "M00115433-I1-LA",
	"FilingNumber": "I1",
	"Created On Date": "2019/1/3 12:00:00",
	"Work Type Name": "Oil Work",
	"Filing Type Name": "New Job Filing",
	"LocationBIN": "1060738",
	"Address": "132 EDGECOMBE AVENUE",
	"CommunityBoardNumber": "110",
	"LocationBoroughName": "MANHATTAN",
	"Longitude": -73.9447098,
	"Latitude": 40.8209686
 },
 {
	"Item Type Name": "Temporary DOB registered oil fired mobile boiler",
	"JFNPermitNumber": "M00116402-I1-LA",
	"FilingNumber": "I1",
	"Created On Date": "2019/1/7 12:00:00",
	"Work Type Name": "Oil Work",
	"Filing Type Name": "New Job Filing",
	"LocationBIN": "1084164",
	"Address": "85 BRADHURST AVENUE",
	"CommunityBoardNumber": "110",
	"LocationBoroughName": "MANHATTAN",
	"Longitude": -73.9411316,
	"Latitude": 40.82658
 },
 {
	"Item Type Name": "Temporary DOB registered oil fired mobile boiler",
	"JFNPermitNumber": "M00116900-I1-LA",
	"FilingNumber": "I1",
	"Created On Date": "2019/1/9 12:00:00",
	"Work Type Name": "Oil Work",
	"Filing Type Name": "New Job Filing",
	"LocationBIN": "1063231",
	"Address": "599 WEST  177 STREET",
	"CommunityBoardNumber": "112",
	"LocationBoroughName": "MANHATTAN",
	"Longitude": -73.9352264,
	"Latitude": 40.8467102
 },
 {
	"Item Type Name": "Temporary DOB registered oil fired mobile boiler",
	"JFNPermitNumber": "M00118211-I1-LA",
	"FilingNumber": "I1",
	"Created On Date": "2019/1/10 12:00:00",
	"Work Type Name": "Oil Work",
	"Filing Type Name": "New Job Filing",
	"LocationBIN": "1004968",
	"Address": "184 EAST    3 STREET",
	"CommunityBoardNumber": "103",
	"LocationBoroughName": "MANHATTAN",
	"Longitude": -73.9839096,
	"Latitude": 40.7228088
 },
 {
	"Item Type Name": "Temporary DOB registered oil fired mobile boiler",
	"JFNPermitNumber": "M00121381-I1-LA",
	"FilingNumber": "I1",
	"Created On Date": "2019/1/18 12:00:00",
	"Work Type Name": "Oil Work",
	"Filing Type Name": "New Job Filing",
	"LocationBIN": "1009204",
	"Address": "39 EAST   12 STREET",
	"CommunityBoardNumber": "102",
	"LocationBoroughName": "MANHATTAN",
	"Longitude": -73.9917908,
	"Latitude": 40.7337608
 },
 {
	"Item Type Name": "Temporary DOB registered oil fired mobile boiler",
	"JFNPermitNumber": "M00122047-I1-LA",
	"FilingNumber": "I1",
	"Created On Date": "2019/1/22 12:00:00",
	"Work Type Name": "Oil Work",
	"Filing Type Name": "New Job Filing",
	"LocationBIN": "1022658",
	"Address": "138 WEST   46 STREET",
	"CommunityBoardNumber": "105",
	"LocationBoroughName": "MANHATTAN",
	"Longitude": -73.9840317,
	"Latitude": 40.7578888
 },
 {
	"Item Type Name": "Temporary DOB registered oil fired mobile boiler",
	"JFNPermitNumber": "M00122211-I1-LA",
	"FilingNumber": "I1",
	"Created On Date": "2019/1/22 12:00:00",
	"Work Type Name": "Oil Work",
	"Filing Type Name": "New Job Filing",
	"LocationBIN": "1061700",
	"Address": "75 ST NICHOLAS PLACE",
	"CommunityBoardNumber": "109",
	"LocationBoroughName": "MANHATTAN",
	"Longitude": -73.9411774,
	"Latitude": 40.8294792
 },
 {
	"Item Type Name": "Temporary DOB registered oil fired mobile boiler",
	"JFNPermitNumber": "M00122544-I1-LA",
	"FilingNumber": "I1",
	"Created On Date": "2019/1/23 12:00:00",
	"Work Type Name": "Oil Work",
	"Filing Type Name": "New Job Filing",
	"LocationBIN": "1019634",
	"Address": "207 EAST   21 STREET",
	"CommunityBoardNumber": "106",
	"LocationBoroughName": "MANHATTAN",
	"Longitude": -73.9833298,
	"Latitude": 40.7374802
 },
 {
	"Item Type Name": "Temporary DOB registered oil fired mobile boiler",
	"JFNPermitNumber": "M00124295-I1-LA",
	"FilingNumber": "I1",
	"Created On Date": "2019/1/28 12:00:00",
	"Work Type Name": "Oil Work",
	"Filing Type Name": "New Job Filing",
	"LocationBIN": "1085790",
	"Address": "140 EAST   14 STREET",
	"CommunityBoardNumber": "103",
	"LocationBoroughName": "MANHATTAN",
	"Longitude": -73.9882736,
	"Latitude": 40.7333107
 },
 {
	"Item Type Name": "Temporary DOB registered oil fired mobile boiler",
	"JFNPermitNumber": "M00124341-I1-LA",
	"FilingNumber": "I1",
	"Created On Date": "2019/1/28 12:00:00",
	"Work Type Name": "Oil Work",
	"Filing Type Name": "New Job Filing",
	"LocationBIN": "1034063",
	"Address": "317 WEST   88 STREET",
	"CommunityBoardNumber": "107",
	"LocationBoroughName": "MANHATTAN",
	"Longitude": -73.9775696,
	"Latitude": 40.7907219
 },