[
  {
	"Item Type Name": "Temporary Oil Tank (above ground)",
	"JFNPermitNumber": "M00154808-I1-LA",
	"FilingNumber": "I1",
	"Created On Date": "04/15/2019 00:00:00-0400",
	"Work Type Name": "Oil Work",
	"Filing Type Name": "New Job Filing",
	"LocationBIN": "1000007",
	"Address": "4 NEW YORK PLAZA",
	"CommunityBoardNumber": 101,
	"LocationBoroughName": "MANHATTAN",
	"Longitude": -74.0107192993164,
	"Latitude": 40.702781677246094
 },
 {
	"Item Type Name": "Temporary DOB registered oil fired mobile boiler",
	"JFNPermitNumber": "M00178122-I1-LA",
	"FilingNumber": "I1",
	"Created On Date": "06/10/2019 00:00:00-0400",
	"Work Type Name": "Oil Work",
	"Filing Type Name": "New Job Filing",
	"LocationBIN": "1001416",
	"Address": "240 GREENWICH STREET",
	"CommunityBoardNumber": 101,
	"LocationBoroughName": "MANHATTAN",
	"Longitude": -74.01223754882812,
	"Latitude": 40.71451187133789
 },
 {
	"Item Type Name": "Temporary DOB registered oil fired mobile boiler",
	"JFNPermitNumber": "M00158303-S1-LA",
	"FilingNumber": "S1",
	"Created On Date": "06/27/2019 00:00:00-0400",
	"Work Type Name": "Oil Work",
	"Filing Type Name": "Subsequent Filing",
	"LocationBIN": "1001531",
	"Address": "166 DUANE STREET",
	"CommunityBoardNumber": 101,
	"LocationBoroughName": "MANHATTAN",
	"Longitude": -74.00940704345703,
	"Latitude": 40.716739654541016
 },
 {
	"Item Type Name": "Temporary DOB registered oil fired mobile boiler",
	"JFNPermitNumber": "M00158303-I1-LA",
	"FilingNumber": "I1",
	"Created On Date": "04/23/2019 00:00:00-0400",
	"Work Type Name": "Oil Work",
	"Filing Type Name": "New Job Filing",
	"LocationBIN": "1001531",
	"Address": "166 DUANE STREET",
	"CommunityBoardNumber": 101,
	"LocationBoroughName": "MANHATTAN",
	"Longitude": -74.00940704345703,
	"Latitude": 40.716739654541016
 },
 {
	"Item Type Name": "Temporary DOB registered oil fired mobile boiler",
	"JFNPermitNumber": "M00217534-I1-LA",
	"FilingNumber": "I1",
	"Created On Date": "08/27/2019 00:00:00-0400",
	"Work Type Name": "Oil Work",
	"Filing Type Name": "New Job Filing",
	"LocationBIN": "1001874",
	"Address": "80 LEONARD STREET",
	"CommunityBoardNumber": 101,
	"LocationBoroughName": "MANHATTAN",
	"Longitude": -74.00525665283203,
	"Latitude": 40.71709060668945
 },
 {
	"Item Type Name": "Temporary DOB registered oil fired mobile boiler",
	"JFNPermitNumber": "M00090177-I1-LA",
	"FilingNumber": "I1",
	"Created On Date": "10/19/2018 00:00:00-0400",
	"Work Type Name": "Oil Work",
	"Filing Type Name": "New Job Filing",
	"LocationBIN": "1002831",
	"Address": "67 VESTRY STREET",
	"CommunityBoardNumber": 101,
	"LocationBoroughName": "MANHATTAN",
	"Longitude": -74.0112075805664,
	"Latitude": 40.722740173339844
 },
 {
	"Item Type Name": "Temporary DOB registered oil fired mobile boiler",
	"JFNPermitNumber": "M00262400-I1-LA",
	"FilingNumber": "I1",
	"Created On Date": "11/11/2019 00:00:00-0500",
	"Work Type Name": "Oil Work",
	"Filing Type Name": "New Job Filing",
	"LocationBIN": "1004564",
	"Address": "730 EAST   12 STREET",
	"CommunityBoardNumber": 103,
	"LocationBoroughName": "MANHATTAN",
	"Longitude": -73.97505950927734,
	"Latitude": 40.726009368896484
 },
 {
	"Item Type Name": "Temporary Oil Tank (above ground)",
	"JFNPermitNumber": "M00157816-I1-LA",
	"FilingNumber": "I1",
	"Created On Date": "04/22/2019 00:00:00-0400",
	"Work Type Name": "Oil Work",
	"Filing Type Name": "New Job Filing",
	"LocationBIN": "1004645",
	"Address": "55 AVENUE C",
	"CommunityBoardNumber": 103,
	"LocationBoroughName": "MANHATTAN",
	"Longitude": -73.98027038574219,
	"Latitude": 40.72261047363281
 },
 {
	"Item Type Name": "Temporary DOB registered oil fired mobile boiler",
	"JFNPermitNumber": "M00118211-I1-LA",
	"FilingNumber": "I1",
	"Created On Date": "01/10/2019 00:00:00-0500",
	"Work Type Name": "Oil Work",
	"Filing Type Name": "New Job Filing",
	"LocationBIN": "1004968",
	"Address": "184 EAST    3 STREET",
	"CommunityBoardNumber": 103,
	"LocationBoroughName": "MANHATTAN",
	"Longitude": -73.9839096069336,
	"Latitude": 40.722808837890625
 },
 {
	"Item Type Name": "Temporary Oil Tank (above ground)",
	"JFNPermitNumber": "M00115489-I1-LA",
	"FilingNumber": "I1",
	"Created On Date": "01/03/2019 00:00:00-0500",
	"Work Type Name": "Oil Work",
	"Filing Type Name": "New Job Filing",
	"LocationBIN": "1005201",
	"Address": "204 AVENUE A",
	"CommunityBoardNumber": 103,
	"LocationBoroughName": "MANHATTAN",
	"Longitude": -73.98075103759766,
	"Latitude": 40.7293815612793
 },
 {
	"Item Type Name": "Temporary Oil Tank (above ground)",
	"JFNPermitNumber": "M00090131-I1-LA",
	"FilingNumber": "I1",
	"Created On Date": "10/19/2018 00:00:00-0400",
	"Work Type Name": "Oil Work",
	"Filing Type Name": "New Job Filing",
	"LocationBIN": "1005528",
	"Address": "164 ALLEN STREET",
	"CommunityBoardNumber": 103,
	"LocationBoroughName": "MANHATTAN",
	"Longitude": -73.98902130126953,
	"Latitude": 40.72101974487305
 },
 {
	"Item Type Name": "Temporary Oil Tank (above ground)",
	"JFNPermitNumber": "M00114837-I1-LA",
	"FilingNumber": "I1",
	"Created On Date": "01/02/2019 00:00:00-0500",
	"Work Type Name": "Oil Work",
	"Filing Type Name": "New Job Filing",
	"LocationBIN": "1005562",
	"Address": "102 FORSYTH STREET",
	"CommunityBoardNumber": 103,
	"LocationBoroughName": "MANHATTAN",
	"Longitude": -73.99256896972656,
	"Latitude": 40.71831130981445
 },
 {
	"Item Type Name": "Temporary DOB registered oil fired mobile boiler",
	"JFNPermitNumber": "M00091230-I1-LA",
	"FilingNumber": "I1",
	"Created On Date": "10/23/2018 00:00:00-0400",
	"Work Type Name": "Oil Work",
	"Filing Type Name": "New Job Filing",
	"LocationBIN": "1005563",
	"Address": "104 FORSYTH STREET",
	"CommunityBoardNumber": 103,
	"LocationBoroughName": "MANHATTAN",
	"Longitude": -73.99253845214844,
	"Latitude": 40.718379974365234
 },
 {
	"Item Type Name": "Temporary DOB registered oil fired mobile boiler",
	"JFNPermitNumber": "M00219688-I1-LA",
	"FilingNumber": "I1",
	"Created On Date": "08/29/2019 00:00:00-0400",
	"Work Type Name": "Oil Work",
	"Filing Type Name": "New Job Filing",
	"LocationBIN": "1005591",
	"Address": "135 ELDRIDGE STREET",
	"CommunityBoardNumber": 103,
	"LocationBoroughName": "MANHATTAN",
	"Longitude": -73.99176025390625,
	"Latitude": 40.71910858154297
 },
 {
	"Item Type Name": "Temporary DOB registered oil fired mobile boiler",
	"JFNPermitNumber": "M00160849-I1-LA",
	"FilingNumber": "I1",
	"Created On Date": "04/30/2019 00:00:00-0400",
	"Work Type Name": "Oil Work",
	"Filing Type Name": "New Job Filing",
	"LocationBIN": "1006463",
	"Address": "219 EAST   10 STREET",
	"CommunityBoardNumber": 103,
	"LocationBoroughName": "MANHATTAN",
	"Longitude": -73.9856185913086,
	"Latitude": 40.72951126098633
 },
 {
	"Item Type Name": "Temporary DOB registered oil fired mobile boiler",
	"JFNPermitNumber": "M00221878-I1-LA",
	"FilingNumber": "I1",
	"Created On Date": "09/04/2019 00:00:00-0400",
	"Work Type Name": "Oil Work",
	"Filing Type Name": "New Job Filing",
	"LocationBIN": "1006640",
	"Address": "211 EAST    5 STREET",
	"CommunityBoardNumber": 103,
	"LocationBoroughName": "MANHATTAN",
	"Longitude": -73.99040985107422,
	"Latitude": 40.727630615234375
 },
 {
	"Item Type Name": "Temporary DOB registered oil fired mobile boiler",
	"JFNPermitNumber": "M00207537-I1-LA",
	"FilingNumber": "I1",
	"Created On Date": "08/21/2019 00:00:00-0400",
	"Work Type Name": "Oil Work",
	"Filing Type Name": "New Job Filing",
	"LocationBIN": "1007048",
	"Address": "483 BROADWAY",
	"CommunityBoardNumber": 102,
	"LocationBoroughName": "MANHATTAN",
	"Longitude": -74.00045013427734,
	"Latitude": 40.7218017578125
 },
 {
	"Item Type Name": "Temporary DOB registered oil fired mobile boiler",
	"JFNPermitNumber": "M00255762-I1-LA",
	"FilingNumber": "I1",
	"Created On Date": "10/30/2019 00:00:00-0400",
	"Work Type Name": "Oil Work",
	"Filing Type Name": "New Job Filing",
	"LocationBIN": "1008020",
	"Address": "143 PRINCE STREET",
	"CommunityBoardNumber": 102,
	"LocationBoroughName": "MANHATTAN",
	"Longitude": -74.00061798095703,
	"Latitude": 40.725830078125
 },
 {
	"Item Type Name": "Temporary DOB registered oil fired mobile boiler",
	"JFNPermitNumber": "M00181550-I1-LA",
	"FilingNumber": "I1",
	"Created On Date": "06/20/2019 00:00:00-0400",
	"Work Type Name": "Oil Work",
	"Filing Type Name": "New Job Filing",
	"LocationBIN": "1008471",
	"Address": "682 BROADWAY",
	"CommunityBoardNumber": 102,
	"LocationBoroughName": "MANHATTAN",
	"Longitude": -73.9945297241211,
	"Latitude": 40.727569580078125
 },
 {
	"Item Type Name": "Temporary DOB registered oil fired mobile boiler",
	"JFNPermitNumber": "M00184197-I1-LA",
	"FilingNumber": "I1",
	"Created On Date": "06/24/2019 00:00:00-0400",
	"Work Type Name": "Oil Work",
	"Filing Type Name": "New Job Filing",
	"LocationBIN": "1008507",
	"Address": "686 BROADWAY",
	"CommunityBoardNumber": 102,
	"LocationBoroughName": "MANHATTAN",
	"Longitude": -73.99424743652344,
	"Latitude": 40.727909088134766
 },
 {
	"Item Type Name": "Temporary DOB registered oil fired mobile boiler",
	"JFNPermitNumber": "M00096948-I1-LA",
	"FilingNumber": "I1",
	"Created On Date": "11/06/2018 00:00:00-0500",
	"Work Type Name": "Oil Work",
	"Filing Type Name": "New Job Filing",
	"LocationBIN": "1008633",
	"Address": "222 THOMPSON STREET",
	"CommunityBoardNumber": 102,
	"LocationBoroughName": "MANHATTAN",
	"Longitude": -73.99883270263672,
	"Latitude": 40.72908020019531
 },
 {
	"Item Type Name": "Temporary DOB registered oil fired mobile boiler",
	"JFNPermitNumber": "M00196207-I1-LA",
	"FilingNumber": "I1",
	"Created On Date": "07/18/2019 00:00:00-0400",
	"Work Type Name": "Oil Work",
	"Filing Type Name": "New Job Filing",
	"LocationBIN": "1008731",
	"Address": "103 MACDOUGAL STREET",
	"CommunityBoardNumber": 102,
	"LocationBoroughName": "MANHATTAN",
	"Longitude": -74.00106048583984,
	"Latitude": 40.729801177978516
 },
 {
	"Item Type Name": "Temporary DOB registered oil fired mobile boiler",
	"JFNPermitNumber": "M00093537-I1-LA",
	"FilingNumber": "I1",
	"Created On Date": "10/29/2018 00:00:00-0400",
	"Work Type Name": "Oil Work",
	"Filing Type Name": "New Job Filing",
	"LocationBIN": "1008817",
	"Address": "2 WASHINGTON PLACE",
	"CommunityBoardNumber": 102,
	"LocationBoroughName": "MANHATTAN",
	"Longitude": -73.99413299560547,
	"Latitude": 40.72901153564453
 },
 {
	"Item Type Name": "Temporary DOB registered oil fired mobile boiler",
	"JFNPermitNumber": "M00232601-I1-LA",
	"FilingNumber": "I1",
	"Created On Date": "09/21/2019 00:00:00-0400",
	"Work Type Name": "Oil Work",
	"Filing Type Name": "New Job Filing",
	"LocationBIN": "1008855",
	"Address": "27 WASHINGTON SQUARE NORTH",
	"CommunityBoardNumber": 102,
	"LocationBoroughName": "MANHATTAN",
	"Longitude": -73.998291015625,
	"Latitude": 40.73234939575195
 },
 {
	"Item Type Name": "Temporary DOB registered oil fired mobile boiler",
	"JFNPermitNumber": "M00087985-I1-LA",
	"FilingNumber": "I1",
	"Created On Date": "10/16/2018 00:00:00-0400",
	"Work Type Name": "Oil Work",
	"Filing Type Name": "New Job Filing",
	"LocationBIN": "1009134",
	"Address": "817 BROADWAY",
	"CommunityBoardNumber": 102,
	"LocationBoroughName": "MANHATTAN",
	"Longitude": -73.99152374267578,
	"Latitude": 40.73320007324219
 },
 {
	"Item Type Name": "Temporary DOB registered oil fired mobile boiler",
	"JFNPermitNumber": "M00087985-I1-LA",
	"FilingNumber": "I1",
	"Created On Date": "10/15/2018 00:00:00-0400",
	"Work Type Name": "Oil Work",
	"Filing Type Name": "New Job Filing",
	"LocationBIN": "1009134",
	"Address": "817 BROADWAY",
	"CommunityBoardNumber": 102,
	"LocationBoroughName": "MANHATTAN",
	"Longitude": -73.99152374267578,
	"Latitude": 40.73320007324219
 },
 {
	"Item Type Name": "Temporary DOB registered oil fired mobile boiler",
	"JFNPermitNumber": "M00121381-I1-LA",
	"FilingNumber": "I1",
	"Created On Date": "01/18/2019 00:00:00-0500",
	"Work Type Name": "Oil Work",
	"Filing Type Name": "New Job Filing",
	"LocationBIN": "1009204",
	"Address": "39 EAST   12 STREET",
	"CommunityBoardNumber": 102,
	"LocationBoroughName": "MANHATTAN",
	"Longitude": -73.99179077148438,
	"Latitude": 40.733760833740234
 },
 {
	"Item Type Name": "Temporary DOB registered oil fired mobile boiler",
	"JFNPermitNumber": "M00091422-I1-LA",
	"FilingNumber": "I1",
	"Created On Date": "10/23/2018 00:00:00-0400",
	"Work Type Name": "Oil Work",
	"Filing Type Name": "New Job Filing",
	"LocationBIN": "1009270",
	"Address": "5 EAST   10 STREET",
	"CommunityBoardNumber": 102,
	"LocationBoroughName": "MANHATTAN",
	"Longitude": -73.99468994140625,
	"Latitude": 40.733341217041016
 },
 {
	"Item Type Name": "Temporary DOB registered oil fired mobile boiler",
	"JFNPermitNumber": "M00088130-S1-LA",
	"FilingNumber": "S1",
	"Created On Date": "04/26/2019 00:00:00-0400",
	"Work Type Name": "Oil Work",
	"Filing Type Name": "Subsequent Filing",
	"LocationBIN": "1009722",
	"Address": "55 WEST   13 STREET",
	"CommunityBoardNumber": 102,
	"LocationBoroughName": "MANHATTAN",
	"Longitude": -73.99649810791016,
	"Latitude": 40.7365608215332
 },
 {
	"Item Type Name": "Temporary DOB registered oil fired mobile boiler",
	"JFNPermitNumber": "M00088130-I1-LA",
	"FilingNumber": "I1",
	"Created On Date": "10/15/2018 00:00:00-0400",
	"Work Type Name": "Oil Work",
	"Filing Type Name": "New Job Filing",
	"LocationBIN": "1009722",
	"Address": "55 WEST   13 STREET",
	"CommunityBoardNumber": 102,
	"LocationBoroughName": "MANHATTAN",
	"Longitude": -73.99649810791016,
	"Latitude": 40.7365608215332
 },
 {
	"Item Type Name": "Temporary DOB registered oil fired mobile boiler",
	"JFNPermitNumber": "null",
	"FilingNumber": "P1",
	"Created On Date": "10/02/2019 00:00:00-0400",
	"Work Type Name": "Oil Work",
	"Filing Type Name": "PAA",
	"LocationBIN": "1010258",
	"Address": "129 WASHINGTON PLACE",
	"CommunityBoardNumber": 102,
	"LocationBoroughName": "MANHATTAN",
	"Longitude": -74.00173950195312,
	"Latitude": 40.73313903808594
 },
 {
	"Item Type Name": "Temporary DOB registered oil fired mobile boiler",
	"JFNPermitNumber": "M00177190-I1-LA",
	"FilingNumber": "I1",
	"Created On Date": "06/06/2019 00:00:00-0400",
	"Work Type Name": "Oil Work",
	"Filing Type Name": "New Job Filing",
	"LocationBIN": "1010258",
	"Address": "129 WASHINGTON PLACE",
	"CommunityBoardNumber": 102,
	"LocationBoroughName": "MANHATTAN",
	"Longitude": -74.00173950195312,
	"Latitude": 40.73313903808594
 },
 {
	"Item Type Name": "Temporary Oil Tank (above ground)",
	"JFNPermitNumber": "M00208054-I1-LA",
	"FilingNumber": "I1",
	"Created On Date": "08/09/2019 00:00:00-0400",
	"Work Type Name": "Oil Work",
	"Filing Type Name": "New Job Filing",
	"LocationBIN": "1011302",
	"Address": "286 WEST   11 STREET",
	"CommunityBoardNumber": 102,
	"LocationBoroughName": "MANHATTAN",
	"Longitude": -74.00495147705078,
	"Latitude": 40.73585891723633
 },
 {
	"Item Type Name": "Temporary Oil Tank (above ground)",
	"JFNPermitNumber": "Permit Not Yet Issued",
	"FilingNumber": "I1",
	"Created On Date": "09/30/2019 00:00:00-0400",
	"Work Type Name": "Oil Work",
	"Filing Type Name": "New Job Filing",
	"LocationBIN": "1012047",
	"Address": "463 WEST STREET",
	"CommunityBoardNumber": 102,
	"LocationBoroughName": "MANHATTAN",
	"Longitude": -74.00907897949219,
	"Latitude": 40.73653030395508
 },
 {
	"Item Type Name": "Temporary DOB registered oil fired mobile boiler",
	"JFNPermitNumber": "M00192471-I1-LA",
	"FilingNumber": "I1",
	"Created On Date": "07/12/2019 00:00:00-0400",
	"Work Type Name": "Oil Work",
	"Filing Type Name": "New Job Filing",
	"LocationBIN": "1012136",
	"Address": "84 HORATIO STREET",
	"CommunityBoardNumber": 102,
	"LocationBoroughName": "MANHATTAN",
	"Longitude": -74.0074462890625,
	"Latitude": 40.73857116699219
 },
 {
	"Item Type Name": "Temporary Oil Tank (above ground)",
	"JFNPermitNumber": "M00160706-I1-LA",
	"FilingNumber": "I1",
	"Created On Date": "05/14/2019 00:00:00-0400",
	"Work Type Name": "Oil Work",
	"Filing Type Name": "New Job Filing",
	"LocationBIN": "1012541",
	"Address": "75 9 AVENUE",
	"CommunityBoardNumber": 104,
	"LocationBoroughName": "MANHATTAN",
	"Longitude": -74.00605773925781,
	"Latitude": 40.742549896240234
 },
 {
	"Item Type Name": "Temporary DOB registered oil fired mobile boiler",
	"JFNPermitNumber": "M00092929-I1-LA",
	"FilingNumber": "I1",
	"Created On Date": "10/26/2018 00:00:00-0400",
	"Work Type Name": "Oil Work",
	"Filing Type Name": "New Job Filing",
	"LocationBIN": "1012641",
	"Address": "193 9 AVENUE",
	"CommunityBoardNumber": 104,
	"LocationBoroughName": "MANHATTAN",
	"Longitude": -74.00228118896484,
	"Latitude": 40.745670318603516
 },
 {
	"Item Type Name": "Temporary Oil Tank (above ground)",
	"JFNPermitNumber": "M00250623-I1-LA",
	"FilingNumber": "I1",
	"Created On Date": "10/22/2019 00:00:00-0400",
	"Work Type Name": "Oil Work",
	"Filing Type Name": "New Job Filing",
	"LocationBIN": "1012662",
	"Address": "188 10 AVENUE",
	"CommunityBoardNumber": 104,
	"LocationBoroughName": "MANHATTAN",
	"Longitude": -74.0047378540039,
	"Latitude": 40.746578216552734
 },
 {
	"Item Type Name": "Temporary DOB registered oil fired mobile boiler",
	"JFNPermitNumber": "M00089009-I1-LA",
	"FilingNumber": "I1",
	"Created On Date": "10/17/2018 00:00:00-0400",
	"Work Type Name": "Oil Work",
	"Filing Type Name": "New Job Filing",
	"LocationBIN": "1013561",
	"Address": "481 8 AVENUE",
	"CommunityBoardNumber": 104,
	"LocationBoroughName": "MANHATTAN",
	"Longitude": -73.99363708496094,
	"Latitude": 40.75271987915039
 },
 {
	"Item Type Name": "Temporary DOB registered oil fired mobile boiler",
	"JFNPermitNumber": "M00092963-I1-LA",
	"FilingNumber": "I1",
	"Created On Date": "10/26/2018 00:00:00-0400",
	"Work Type Name": "Oil Work",
	"Filing Type Name": "New Job Filing",
	"LocationBIN": "1015198",
	"Address": "131 WEST   33 STREET",
	"CommunityBoardNumber": 105,
	"LocationBoroughName": "MANHATTAN",
	"Longitude": -73.98967742919922,
	"Latitude": 40.749969482421875
 },
 {
	"Item Type Name": "Temporary Oil Tank (above ground)",
	"JFNPermitNumber": "M00258098-I1-LA",
	"FilingNumber": "I1",
	"Created On Date": "11/04/2019 00:00:00-0500",
	"Work Type Name": "Oil Work",
	"Filing Type Name": "New Job Filing",
	"LocationBIN": "1015300",
	"Address": "42 WEST   15 STREET",
	"CommunityBoardNumber": 105,
	"LocationBoroughName": "MANHATTAN",
	"Longitude": -73.99527740478516,
	"Latitude": 40.73735046386719
 },
 {
	"Item Type Name": "Temporary Oil Tank (above ground)",
	"JFNPermitNumber": "M00099126-I1-LA",
	"FilingNumber": "I1",
	"Created On Date": "11/19/2018 00:00:00-0500",
	"Work Type Name": "Oil Work",
	"Filing Type Name": "New Job Filing",
	"LocationBIN": "1017104",
	"Address": "55 EAST   34 STREET",
	"CommunityBoardNumber": 106,
	"LocationBoroughName": "MANHATTAN",
	"Longitude": -73.98177337646484,
	"Latitude": 40.7475700378418
 },
 {
	"Item Type Name": "Temporary Oil Tank (above ground)",
	"JFNPermitNumber": "M00152952-I1-LA",
	"FilingNumber": "I1",
	"Created On Date": "04/12/2019 00:00:00-0400",
	"Work Type Name": "Oil Work",
	"Filing Type Name": "New Job Filing",
	"LocationBIN": "1017220",
	"Address": "22 EAST   38 STREET",
	"CommunityBoardNumber": 106,
	"LocationBoroughName": "MANHATTAN",
	"Longitude": -73.98094940185547,
	"Latitude": 40.749969482421875
 },
 {
	"Item Type Name": "Temporary DOB registered oil fired mobile boiler",
	"JFNPermitNumber": "M00138092-I1-LA",
	"FilingNumber": "I1",
	"Created On Date": "03/05/2019 00:00:00-0500",
	"Work Type Name": "Oil Work",
	"Filing Type Name": "New Job Filing",
	"LocationBIN": "1017881",
	"Address": "153 EAST   18 STREET",
	"CommunityBoardNumber": 106,
	"LocationBoroughName": "MANHATTAN",
	"Longitude": -73.98577117919922,
	"Latitude": 40.73619079589844
 },
 {
	"Item Type Name": "Temporary Oil Tank (above ground)",
	"JFNPermitNumber": "M00230666-I1-LA",
	"FilingNumber": "I1",
	"Created On Date": "09/18/2019 00:00:00-0400",
	"Work Type Name": "Oil Work",
	"Filing Type Name": "New Job Filing",
	"LocationBIN": "1017893",
	"Address": "132 EAST   19 STREET",
	"CommunityBoardNumber": 106,
	"LocationBoroughName": "MANHATTAN",
	"Longitude": -73.98596954345703,
	"Latitude": 40.7365608215332
 },
 {
	"Item Type Name": "Temporary DOB registered oil fired mobile boiler",
	"JFNPermitNumber": "M00122544-I1-LA",
	"FilingNumber": "I1",
	"Created On Date": "01/23/2019 00:00:00-0500",
	"Work Type Name": "Oil Work",
	"Filing Type Name": "New Job Filing",
	"LocationBIN": "1019634",
	"Address": "207 EAST   21 STREET",
	"CommunityBoardNumber": 106,
	"LocationBoroughName": "MANHATTAN",
	"Longitude": -73.98332977294922,
	"Latitude": 40.73748016357422
 },
 {
	"Item Type Name": "Temporary Oil Tank (above ground)",
	"JFNPermitNumber": "null",
	"FilingNumber": "P1",
	"Created On Date": "12/21/2018 00:00:00-0500",
	"Work Type Name": "Oil Work",
	"Filing Type Name": "PAA",
	"LocationBIN": "1020464",
	"Address": "316 2 AVENUE",
	"CommunityBoardNumber": 106,
	"LocationBoroughName": "MANHATTAN",
	"Longitude": -73.98265075683594,
	"Latitude": 40.73493957519531
 },
 {
	"Item Type Name": "Temporary Oil Tank (above ground)",
	"JFNPermitNumber": "M00102635-I1-LA",
	"FilingNumber": "I1",
	"Created On Date": "11/23/2018 00:00:00-0500",
	"Work Type Name": "Oil Work",
	"Filing Type Name": "New Job Filing",
	"LocationBIN": "1020464",
	"Address": "316 2 AVENUE",
	"CommunityBoardNumber": 106,
	"LocationBoroughName": "MANHATTAN",
	"Longitude": -73.98265075683594,
	"Latitude": 40.73493957519531
 },
 {
	"Item Type Name": "Temporary Oil Tank (above ground)",
	"JFNPermitNumber": "M00194569-I1-LA",
	"FilingNumber": "I1",
	"Created On Date": "07/16/2019 00:00:00-0400",
	"Work Type Name": "Oil Work",
	"Filing Type Name": "New Job Filing",
	"LocationBIN": "1020570",
	"Address": "321 EAST   22 STREET",
	"CommunityBoardNumber": 106,
	"LocationBoroughName": "MANHATTAN",
	"Longitude": -73.98023223876953,
	"Latitude": 40.73698043823242
 },
 {
	"Item Type Name": "Temporary Oil Tank (above ground)",
	"JFNPermitNumber": "M00173659-I1-LA",
	"FilingNumber": "I1",
	"Created On Date": "05/29/2019 00:00:00-0400",
	"Work Type Name": "Oil Work",
	"Filing Type Name": "New Job Filing",
	"LocationBIN": "1020570",
	"Address": "321 EAST   22 STREET",
	"CommunityBoardNumber": 106,
	"LocationBoroughName": "MANHATTAN",
	"Longitude": -73.98023223876953,
	"Latitude": 40.73698043823242
 },
 {
	"Item Type Name": "Temporary DOB registered oil fired mobile boiler",
	"JFNPermitNumber": "M00122047-I1-LA",
	"FilingNumber": "I1",
	"Created On Date": "01/22/2019 00:00:00-0500",
	"Work Type Name": "Oil Work",
	"Filing Type Name": "New Job Filing",
	"LocationBIN": "1022658",
	"Address": "138 WEST   46 STREET",
	"CommunityBoardNumber": 105,
	"LocationBoroughName": "MANHATTAN",
	"Longitude": -73.9840316772461,
	"Latitude": 40.75788879394531
 },
 {
	"Item Type Name": "Temporary DOB registered oil fired mobile boiler",
	"JFNPermitNumber": "Permit Not Yet Issued",
	"FilingNumber": "I1",
	"Created On Date": "06/06/2019 00:00:00-0400",
	"Work Type Name": "Oil Work",
	"Filing Type Name": "New Job Filing",
	"LocationBIN": "1023751",
	"Address": "145 WEST   58 STREET",
	"CommunityBoardNumber": 105,
	"LocationBoroughName": "MANHATTAN",
	"Longitude": -73.97810363769531,
	"Latitude": 40.76580047607422
 },
 {
	"Item Type Name": "Temporary DOB registered oil fired mobile boiler",
	"JFNPermitNumber": "M00129743-I1-LA",
	"FilingNumber": "I1",
	"Created On Date": "02/11/2019 00:00:00-0500",
	"Work Type Name": "Oil Work",
	"Filing Type Name": "New Job Filing",
	"LocationBIN": "1024739",
	"Address": "205 WEST   46 STREET",
	"CommunityBoardNumber": 105,
	"LocationBoroughName": "MANHATTAN",
	"Longitude": -73.98592376708984,
	"Latitude": 40.759178161621094
 },
 {
	"Item Type Name": "Temporary DOB registered oil fired mobile boiler",
	"JFNPermitNumber": "M00131163-I1-LA",
	"FilingNumber": "I1",
	"Created On Date": "02/14/2019 00:00:00-0500",
	"Work Type Name": "Oil Work",
	"Filing Type Name": "New Job Filing",
	"LocationBIN": "1026344",
	"Address": "600 10 AVENUE",
	"CommunityBoardNumber": 104,
	"LocationBoroughName": "MANHATTAN",
	"Longitude": -73.9945068359375,
	"Latitude": 40.76039123535156
 },
 {
	"Item Type Name": "Temporary Oil Tank (above ground)",
	"JFNPermitNumber": "M00100559-I1-LA",
	"FilingNumber": "I1",
	"Created On Date": "11/16/2018 00:00:00-0500",
	"Work Type Name": "Oil Work",
	"Filing Type Name": "New Job Filing",
	"LocationBIN": "1026567",
	"Address": "401 WEST   47 STREET",
	"CommunityBoardNumber": 104,
	"LocationBoroughName": "MANHATTAN",
	"Longitude": -73.99051666259766,
	"Latitude": 40.76184844970703
 },
 {
	"Item Type Name": "Temporary DOB registered oil fired mobile boiler",
	"JFNPermitNumber": "M00137489-I1-LA",
	"FilingNumber": "I1",
	"Created On Date": "03/04/2019 00:00:00-0500",
	"Work Type Name": "Oil Work",
	"Filing Type Name": "New Job Filing",
	"LocationBIN": "1026715",
	"Address": "457 WEST   51 STREET",
	"CommunityBoardNumber": 104,
	"LocationBoroughName": "MANHATTAN",
	"Longitude": -73.99053955078125,
	"Latitude": 40.765220642089844
 },
 {
	"Item Type Name": "Temporary DOB registered oil fired mobile boiler",
	"JFNPermitNumber": "M00178066-I1-LA",
	"FilingNumber": "I1",
	"Created On Date": "06/10/2019 00:00:00-0400",
	"Work Type Name": "Oil Work",
	"Filing Type Name": "New Job Filing",
	"LocationBIN": "1027365",
	"Address": "44 WEST   62 STREET",
	"CommunityBoardNumber": 107,
	"LocationBoroughName": "MANHATTAN",
	"Longitude": -73.9831314086914,
	"Latitude": 40.770729064941406
 },
 {
	"Item Type Name": "Temporary DOB registered oil fired mobile boiler",
	"JFNPermitNumber": "M00202743-I1-LA",
	"FilingNumber": "I1",
	"Created On Date": "07/31/2019 00:00:00-0400",
	"Work Type Name": "Oil Work",
	"Filing Type Name": "New Job Filing",
	"LocationBIN": "1027463",
	"Address": "30 WEST   63 STREET",
	"CommunityBoardNumber": 107,
	"LocationBoroughName": "MANHATTAN",
	"Longitude": -73.98158264160156,
	"Latitude": 40.77077102661133
 },
 {
	"Item Type Name": "Temporary Oil Tank (above ground)",
	"JFNPermitNumber": "M00132125-I1-LA",
	"FilingNumber": "I1",
	"Created On Date": "02/18/2019 00:00:00-0500",
	"Work Type Name": "Oil Work",
	"Filing Type Name": "New Job Filing",
	"LocationBIN": "1028453",
	"Address": "25 WEST   68 STREET",
	"CommunityBoardNumber": 107,
	"LocationBoroughName": "MANHATTAN",
	"Longitude": -73.97889709472656,
	"Latitude": 40.774349212646484
 },
 {
	"Item Type Name": "Temporary DOB registered oil fired mobile boiler",
	"JFNPermitNumber": "M00137368-I1-LA",
	"FilingNumber": "I1",
	"Created On Date": "03/04/2019 00:00:00-0500",
	"Work Type Name": "Oil Work",
	"Filing Type Name": "New Job Filing",
	"LocationBIN": "1030162",
	"Address": "135 WEST   75 STREET",
	"CommunityBoardNumber": 107,
	"LocationBoroughName": "MANHATTAN",
	"Longitude": -73.9787368774414,
	"Latitude": 40.780189514160156
 },
 {
	"Item Type Name": "Temporary DOB registered oil fired mobile boiler",
	"JFNPermitNumber": "M00163524-I1-LA",
	"FilingNumber": "I1",
	"Created On Date": "05/06/2019 00:00:00-0400",
	"Work Type Name": "Oil Work",
	"Filing Type Name": "New Job Filing",
	"LocationBIN": "1030893",
	"Address": "226 WEST   78 STREET",
	"CommunityBoardNumber": 107,
	"LocationBoroughName": "MANHATTAN",
	"Longitude": -73.97991180419922,
	"Latitude": 40.78266906738281
 },
 {
	"Item Type Name": "Temporary DOB registered oil fired mobile boiler",
	"JFNPermitNumber": "M00250576-I1-LA",
	"FilingNumber": "I1",
	"Created On Date": "10/22/2019 00:00:00-0400",
	"Work Type Name": "Oil Work",
	"Filing Type Name": "New Job Filing",
	"LocationBIN": "1030966",
	"Address": "255 WEST END AVENUE",
	"CommunityBoardNumber": 107,
	"LocationBoroughName": "MANHATTAN",
	"Longitude": -73.9849624633789,
	"Latitude": 40.779571533203125
 },
 {
	"Item Type Name": "Temporary DOB registered oil fired mobile boiler",
	"JFNPermitNumber": "M00214265-I1-LA",
	"FilingNumber": "I1",
	"Created On Date": "08/21/2019 00:00:00-0400",
	"Work Type Name": "Oil Work",
	"Filing Type Name": "New Job Filing",
	"LocationBIN": "1031162",
	"Address": "465 COLUMBUS AVENUE",
	"CommunityBoardNumber": 107,
	"LocationBoroughName": "MANHATTAN",
	"Longitude": -73.97358703613281,
	"Latitude": 40.784000396728516
 },
 {
	"Item Type Name": "Temporary DOB registered oil fired mobile boiler",
	"JFNPermitNumber": "M00105073-I1-LA",
	"FilingNumber": "I1",
	"Created On Date": "11/30/2018 00:00:00-0500",
	"Work Type Name": "Oil Work",
	"Filing Type Name": "New Job Filing",
	"LocationBIN": "1031162",
	"Address": "465 COLUMBUS AVENUE",
	"CommunityBoardNumber": 107,
	"LocationBoroughName": "MANHATTAN",
	"Longitude": -73.97358703613281,
	"Latitude": 40.784000396728516
 },
 {
	"Item Type Name": "Temporary Oil Tank (above ground)",
	"JFNPermitNumber": "M00211665-I1-LA",
	"FilingNumber": "I1",
	"Created On Date": "08/15/2019 00:00:00-0400",
	"Work Type Name": "Oil Work",
	"Filing Type Name": "New Job Filing",
	"LocationBIN": "1031181",
	"Address": "225 CENTRAL PARK WEST",
	"CommunityBoardNumber": 107,
	"LocationBoroughName": "MANHATTAN",
	"Longitude": -73.9714126586914,
	"Latitude": 40.78310012817383
 },
 {
	"Item Type Name": "Temporary Oil Tank (above ground)",
	"JFNPermitNumber": "null",
	"FilingNumber": "P1",
	"Created On Date": "07/30/2019 00:00:00-0400",
	"Work Type Name": "Oil Work",
	"Filing Type Name": "PAA",
	"LocationBIN": "1031308",
	"Address": "11 WEST   84 STREET",
	"CommunityBoardNumber": 107,
	"LocationBoroughName": "MANHATTAN",
	"Longitude": -73.97088623046875,
	"Latitude": 40.78446960449219
 },
 {
	"Item Type Name": "Temporary Oil Tank (above ground)",
	"JFNPermitNumber": "M00147656-I1-LA",
	"FilingNumber": "I1",
	"Created On Date": "03/28/2019 00:00:00-0400",
	"Work Type Name": "Oil Work",
	"Filing Type Name": "New Job Filing",
	"LocationBIN": "1031308",
	"Address": "11 WEST   84 STREET",
	"CommunityBoardNumber": 107,
	"LocationBoroughName": "MANHATTAN",
	"Longitude": -73.97088623046875,
	"Latitude": 40.78446960449219
 },
 {
	"Item Type Name": "Temporary DOB registered oil fired mobile boiler",
	"JFNPermitNumber": "M00126008-I1-LA",
	"FilingNumber": "I1",
	"Created On Date": "02/01/2019 00:00:00-0500",
	"Work Type Name": "Oil Work",
	"Filing Type Name": "New Job Filing",
	"LocationBIN": "1031422",
	"Address": "40 WEST   87 STREET",
	"CommunityBoardNumber": 107,
	"LocationBoroughName": "MANHATTAN",
	"Longitude": -73.97058868408203,
	"Latitude": 40.786460876464844
 },
 {
	"Item Type Name": "Temporary DOB registered oil fired mobile boiler",
	"JFNPermitNumber": "M00152378-I1-LA",
	"FilingNumber": "I1",
	"Created On Date": "04/09/2019 00:00:00-0400",
	"Work Type Name": "Oil Work",
	"Filing Type Name": "New Job Filing",
	"LocationBIN": "1031472",
	"Address": "28 WEST   88 STREET",
	"CommunityBoardNumber": 107,
	"LocationBoroughName": "MANHATTAN",
	"Longitude": -73.96965026855469,
	"Latitude": 40.78688049316406
 },
 {
	"Item Type Name": "Temporary Oil Tank (above ground)",
	"JFNPermitNumber": "M00089729-I1-LA",
	"FilingNumber": "I1",
	"Created On Date": "10/18/2018 00:00:00-0400",
	"Work Type Name": "Oil Work",
	"Filing Type Name": "New Job Filing",
	"LocationBIN": "1031749",
	"Address": "26 WEST   96 STREET",
	"CommunityBoardNumber": 107,
	"LocationBoroughName": "MANHATTAN",
	"Longitude": -73.9658203125,
	"Latitude": 40.791839599609375
 },
 {
	"Item Type Name": "Temporary DOB registered oil fired mobile boiler",
	"JFNPermitNumber": "M00112866-I1-LA",
	"FilingNumber": "I1",
	"Created On Date": "12/21/2018 00:00:00-0500",
	"Work Type Name": "Oil Work",
	"Filing Type Name": "New Job Filing",
	"LocationBIN": "1032760",
	"Address": "462 AMSTERDAM AVENUE",
	"CommunityBoardNumber": 107,
	"LocationBoroughName": "MANHATTAN",
	"Longitude": -73.97708892822266,
	"Latitude": 40.785400390625
 },
 {
	"Item Type Name": "Temporary Oil Tank (above ground)",
	"JFNPermitNumber": "M00186725-I1-LA",
	"FilingNumber": "I1",
	"Created On Date": "06/28/2019 00:00:00-0400",
	"Work Type Name": "Oil Work",
	"Filing Type Name": "New Job Filing",
	"LocationBIN": "1033867",
	"Address": "340 WEST   85 STREET",
	"CommunityBoardNumber": 107,
	"LocationBoroughName": "MANHATTAN",
	"Longitude": -73.9799575805664,
	"Latitude": 40.788631439208984
 },
 {
	"Item Type Name": "Temporary DOB registered oil fired mobile boiler",
	"JFNPermitNumber": "M00124341-I1-LA",
	"FilingNumber": "I1",
	"Created On Date": "01/28/2019 00:00:00-0500",
	"Work Type Name": "Oil Work",
	"Filing Type Name": "New Job Filing",
	"LocationBIN": "1034063",
	"Address": "317 WEST   88 STREET",
	"CommunityBoardNumber": 107,
	"LocationBoroughName": "MANHATTAN",
	"Longitude": -73.97756958007812,
	"Latitude": 40.79072189331055
 },
 {
	"Item Type Name": "Temporary Oil Tank (above ground)",
	"JFNPermitNumber": "M00194734-I1-LA",
	"FilingNumber": "I1",
	"Created On Date": "07/17/2019 00:00:00-0400",
	"Work Type Name": "Oil Work",
	"Filing Type Name": "New Job Filing",
	"LocationBIN": "1034185",
	"Address": "336 WEST   95 STREET",
	"CommunityBoardNumber": 107,
	"LocationBoroughName": "MANHATTAN",
	"Longitude": -73.97545623779297,
	"Latitude": 40.79507064819336
 },
 {
	"Item Type Name": "Temporary Oil Tank (above ground)",
	"JFNPermitNumber": "M00173910-I1-LA",
	"FilingNumber": "I1",
	"Created On Date": "05/30/2019 00:00:00-0400",
	"Work Type Name": "Oil Work",
	"Filing Type Name": "New Job Filing",
	"LocationBIN": "1034185",
	"Address": "336 WEST   95 STREET",
	"CommunityBoardNumber": 107,
	"LocationBoroughName": "MANHATTAN",
	"Longitude": -73.97545623779297,
	"Latitude": 40.79507064819336
 },
 {
	"Item Type Name": "Temporary DOB registered oil fired mobile boiler",
	"JFNPermitNumber": "M00088020-I1-LA",
	"FilingNumber": "I1",
	"Created On Date": "10/15/2018 00:00:00-0400",
	"Work Type Name": "Oil Work",
	"Filing Type Name": "New Job Filing",
	"LocationBIN": "1037995",
	"Address": "212 EAST   48 STREET",
	"CommunityBoardNumber": 106,
	"LocationBoroughName": "MANHATTAN",
	"Longitude": -73.9710464477539,
	"Latitude": 40.754058837890625
 },
 {
	"Item Type Name": "Temporary DOB registered oil fired mobile boiler",
	"JFNPermitNumber": "M00147096-I1-LA",
	"FilingNumber": "I1",
	"Created On Date": "03/27/2019 00:00:00-0400",
	"Work Type Name": "Oil Work",
	"Filing Type Name": "New Job Filing",
	"LocationBIN": "1039659",
	"Address": "349 EAST   51 STREET",
	"CommunityBoardNumber": 106,
	"LocationBoroughName": "MANHATTAN",
	"Longitude": -73.96614837646484,
	"Latitude": 40.754940032958984
 },
 {
	"Item Type Name": "Temporary DOB registered oil fired mobile boiler",
	"JFNPermitNumber": "M00090834-I1-LA",
	"FilingNumber": "I1",
	"Created On Date": "10/22/2018 00:00:00-0400",
	"Work Type Name": "Oil Work",
	"Filing Type Name": "New Job Filing",
	"LocationBIN": "1040138",
	"Address": "439 EAST   51 STREET",
	"CommunityBoardNumber": 106,
	"LocationBoroughName": "MANHATTAN",
	"Longitude": -73.96410369873047,
	"Latitude": 40.75407028198242
 },
 {
	"Item Type Name": "Temporary DOB registered oil fired mobile boiler",
	"JFNPermitNumber": "M00236344-I1-LA",
	"FilingNumber": "I1",
	"Created On Date": "09/27/2019 00:00:00-0400",
	"Work Type Name": "Oil Work",
	"Filing Type Name": "New Job Filing",
	"LocationBIN": "1040472",
	"Address": "430 EAST   57 STREET",
	"CommunityBoardNumber": 106,
	"LocationBoroughName": "MANHATTAN",
	"Longitude": -73.96195220947266,
	"Latitude": 40.757568359375
 },
 {
	"Item Type Name": "Temporary DOB registered oil fired mobile boiler",
	"JFNPermitNumber": "M00163154-I1-LA",
	"FilingNumber": "I1",
	"Created On Date": "05/06/2019 00:00:00-0400",
	"Work Type Name": "Oil Work",
	"Filing Type Name": "New Job Filing",
	"LocationBIN": "1040543",
	"Address": "4 SUTTON PLACE",
	"CommunityBoardNumber": 106,
	"LocationBoroughName": "MANHATTAN",
	"Longitude": -73.9607162475586,
	"Latitude": 40.7576904296875
 },
 {
	"Item Type Name": "Temporary DOB registered oil fired mobile boiler",
	"JFNPermitNumber": "M00229348-I1-LA",
	"FilingNumber": "I1",
	"Created On Date": "09/17/2019 00:00:00-0400",
	"Work Type Name": "Oil Work",
	"Filing Type Name": "New Job Filing",
	"LocationBIN": "1043937",
	"Address": "211 EAST   71 STREET",
	"CommunityBoardNumber": 108,
	"LocationBoroughName": "MANHATTAN",
	"Longitude": -73.96018981933594,
	"Latitude": 40.76892852783203
 },
 {
	"Item Type Name": "Temporary DOB registered oil fired mobile boiler",
	"JFNPermitNumber": "M00159968-S1-LA",
	"FilingNumber": "S1",
	"Created On Date": "04/30/2019 00:00:00-0400",
	"Work Type Name": "Oil Work",
	"Filing Type Name": "Subsequent Filing",
	"LocationBIN": "1043946",
	"Address": "260 EAST   72 STREET",
	"CommunityBoardNumber": 108,
	"LocationBoroughName": "MANHATTAN",
	"Longitude": -73.95879364013672,
	"Latitude": 40.76866912841797
 },
 {
	"Item Type Name": "Temporary DOB registered oil fired mobile boiler",
	"JFNPermitNumber": "M00159968-I1-LA",
	"FilingNumber": "I1",
	"Created On Date": "04/26/2019 00:00:00-0400",
	"Work Type Name": "Oil Work",
	"Filing Type Name": "New Job Filing",
	"LocationBIN": "1043946",
	"Address": "260 EAST   72 STREET",
	"CommunityBoardNumber": 108,
	"LocationBoroughName": "MANHATTAN",
	"Longitude": -73.95879364013672,
	"Latitude": 40.76866912841797
 },
 {
	"Item Type Name": "Temporary DOB registered oil fired mobile boiler",
	"JFNPermitNumber": "M00235734-I1-LA",
	"FilingNumber": "I1",
	"Created On Date": "09/26/2019 00:00:00-0400",
	"Work Type Name": "Oil Work",
	"Filing Type Name": "New Job Filing",
	"LocationBIN": "1044722",
	"Address": "349 EAST   65 STREET",
	"CommunityBoardNumber": 108,
	"LocationBoroughName": "MANHATTAN",
	"Longitude": -73.9593734741211,
	"Latitude": 40.763729095458984
 },
 {
	"Item Type Name": "Temporary Oil Tank (above ground)",
	"JFNPermitNumber": "null",
	"FilingNumber": "P1",
	"Created On Date": "10/30/2019 00:00:00-0400",
	"Work Type Name": "Oil Work",
	"Filing Type Name": "PAA",
	"LocationBIN": "1044739",
	"Address": "321 EAST   66 STREET",
	"CommunityBoardNumber": 108,
	"LocationBoroughName": "MANHATTAN",
	"Longitude": -73.95970916748047,
	"Latitude": 40.76462936401367
 },
 {
	"Item Type Name": "Temporary Oil Tank (above ground)",
	"JFNPermitNumber": "M00252132-I1-LA",
	"FilingNumber": "I1",
	"Created On Date": "10/24/2019 00:00:00-0400",
	"Work Type Name": "Oil Work",
	"Filing Type Name": "New Job Filing",
	"LocationBIN": "1044739",
	"Address": "321 EAST   66 STREET",
	"CommunityBoardNumber": 108,
	"LocationBoroughName": "MANHATTAN",
	"Longitude": -73.95970916748047,
	"Latitude": 40.76462936401367
 },
 {
	"Item Type Name": "Temporary DOB registered oil fired mobile boiler",
	"JFNPermitNumber": "M00233496-I1-LA",
	"FilingNumber": "I1",
	"Created On Date": "09/23/2019 00:00:00-0400",
	"Work Type Name": "Oil Work",
	"Filing Type Name": "New Job Filing",
	"LocationBIN": "1044739",
	"Address": "321 EAST   66 STREET",
	"CommunityBoardNumber": 108,
	"LocationBoroughName": "MANHATTAN",
	"Longitude": -73.95970916748047,
	"Latitude": 40.76462936401367
 },
 {
	"Item Type Name": "Temporary DOB registered oil fired mobile boiler",
	"JFNPermitNumber": "M00174702-I1-LA",
	"FilingNumber": "I1",
	"Created On Date": "05/31/2019 00:00:00-0400",
	"Work Type Name": "Oil Work",
	"Filing Type Name": "New Job Filing",
	"LocationBIN": "1044890",
	"Address": "326 EAST   73 STREET",
	"CommunityBoardNumber": 108,
	"LocationBoroughName": "MANHATTAN",
	"Longitude": -73.95661926269531,
	"Latitude": 40.76871109008789
 },
 {
	"Item Type Name": "Temporary DOB registered oil fired mobile boiler",
	"JFNPermitNumber": "M00130686-I1-LA",
	"FilingNumber": "I1",
	"Created On Date": "02/13/2019 00:00:00-0500",
	"Work Type Name": "Oil Work",
	"Filing Type Name": "New Job Filing",
	"LocationBIN": "1044890",
	"Address": "326 EAST   73 STREET",
	"CommunityBoardNumber": 108,
	"LocationBoroughName": "MANHATTAN",
	"Longitude": -73.95661926269531,
	"Latitude": 40.76871109008789
 },
 {
	"Item Type Name": "Temporary Oil Tank (above ground)",
	"JFNPermitNumber": "M00248312-I1-LA",
	"FilingNumber": "I1",
	"Created On Date": "10/17/2019 00:00:00-0400",
	"Work Type Name": "Oil Work",
	"Filing Type Name": "New Job Filing",
	"LocationBIN": "1047404",
	"Address": "71 EAST   94 STREET",
	"CommunityBoardNumber": 108,
	"LocationBoroughName": "MANHATTAN",
	"Longitude": -73.95413208007812,
	"Latitude": 40.785919189453125
 },
 {
	"Item Type Name": "Temporary DOB registered oil fired mobile boiler",
	"JFNPermitNumber": "M00254257-I1-LA",
	"FilingNumber": "I1",
	"Created On Date": "10/28/2019 00:00:00-0400",
	"Work Type Name": "Oil Work",
	"Filing Type Name": "New Job Filing",
	"LocationBIN": "1047627",
	"Address": "140 EAST   83 STREET",
	"CommunityBoardNumber": 108,
	"LocationBoroughName": "MANHATTAN",
	"Longitude": -73.95690155029297,
	"Latitude": 40.77724838256836
 },
 {
	"Item Type Name": "Temporary DOB registered oil fired mobile boiler",
	"JFNPermitNumber": "M00231927-I1-LA",
	"FilingNumber": "I1",
	"Created On Date": "09/20/2019 00:00:00-0400",
	"Work Type Name": "Oil Work",
	"Filing Type Name": "New Job Filing",
	"LocationBIN": "1048077",
	"Address": "127 EAST   88 STREET",
	"CommunityBoardNumber": 108,
	"LocationBoroughName": "MANHATTAN",
	"Longitude": -73.95468139648438,
	"Latitude": 40.78105926513672
 },
 {
	"Item Type Name": "Temporary Oil Tank (above ground)",
	"JFNPermitNumber": "M00117043-I1-LA",
	"FilingNumber": "I1",
	"Created On Date": "01/08/2019 00:00:00-0500",
	"Work Type Name": "Oil Work",
	"Filing Type Name": "New Job Filing",
	"LocationBIN": "1048406",
	"Address": "130 EAST   94 STREET",
	"CommunityBoardNumber": 108,
	"LocationBoroughName": "MANHATTAN",
	"Longitude": -73.95250701904297,
	"Latitude": 40.78458023071289
 },
 {
	"Item Type Name": "Temporary DOB registered oil fired mobile boiler",
	"JFNPermitNumber": "M00224617-I1-LA",
	"FilingNumber": "I1",
	"Created On Date": "09/09/2019 00:00:00-0400",
	"Work Type Name": "Oil Work",
	"Filing Type Name": "New Job Filing",
	"LocationBIN": "1048571",
	"Address": "236 EAST   82 STREET",
	"CommunityBoardNumber": 108,
	"LocationBoroughName": "MANHATTAN",
	"Longitude": -73.95452880859375,
	"Latitude": 40.775421142578125
 },
 {
	"Item Type Name": "Temporary DOB registered oil fired mobile boiler",
	"JFNPermitNumber": "M00231556-I1-LA",
	"FilingNumber": "I1",
	"Created On Date": "09/19/2019 00:00:00-0400",
	"Work Type Name": "Oil Work",
	"Filing Type Name": "New Job Filing",
	"LocationBIN": "1050385",
	"Address": "401 EAST   81 STREET",
	"CommunityBoardNumber": 108,
	"LocationBoroughName": "MANHATTAN",
	"Longitude": -73.95117950439453,
	"Latitude": 40.773681640625
 },
 {
	"Item Type Name": "Temporary DOB registered oil fired mobile boiler",
	"JFNPermitNumber": "M00253234-I1-LA",
	"FilingNumber": "I1",
	"Created On Date": "10/25/2019 00:00:00-0400",
	"Work Type Name": "Oil Work",
	"Filing Type Name": "New Job Filing",
	"LocationBIN": "1051595",
	"Address": "2 EAST  109 STREET",
	"CommunityBoardNumber": 111,
	"LocationBoroughName": "MANHATTAN",
	"Longitude": -73.94950103759766,
	"Latitude": 40.79589080810547
 },
 {
	"Item Type Name": "Temporary DOB registered oil fired mobile boiler",
	"JFNPermitNumber": "M00112144-I1-LA",
	"FilingNumber": "I1",
	"Created On Date": "12/19/2018 00:00:00-0500",
	"Work Type Name": "Oil Work",
	"Filing Type Name": "New Job Filing",
	"LocationBIN": "1052774",
	"Address": "312 EAST  106 STREET",
	"CommunityBoardNumber": 111,
	"LocationBoroughName": "MANHATTAN",
	"Longitude": -73.94175720214844,
	"Latitude": 40.79003143310547
 },
 {
	"Item Type Name": "Temporary DOB registered oil fired mobile boiler",
	"JFNPermitNumber": "Permit Not Yet Issued",
	"FilingNumber": "I1",
	"Created On Date": "03/15/2019 00:00:00-0400",
	"Work Type Name": "Oil Work",
	"Filing Type Name": "New Job Filing",
	"LocationBIN": "1053056",
	"Address": "432 EAST  116 STREET",
	"CommunityBoardNumber": 111,
	"LocationBoroughName": "MANHATTAN",
	"Longitude": -73.93437957763672,
	"Latitude": 40.79526138305664
 },
 {
	"Item Type Name": "Temporary DOB registered oil fired mobile boiler",
	"JFNPermitNumber": "Permit Not Yet Issued",
	"FilingNumber": "I1",
	"Created On Date": "01/11/2019 00:00:00-0500",
	"Work Type Name": "Oil Work",
	"Filing Type Name": "New Job Filing",
	"LocationBIN": "1053919",
	"Address": "2254 5 AVENUE",
	"CommunityBoardNumber": 110,
	"LocationBoroughName": "MANHATTAN",
	"Longitude": -73.93675994873047,
	"Latitude": 40.81439971923828
 },
 {
	"Item Type Name": "Temporary DOB registered oil fired mobile boiler",
	"JFNPermitNumber": "Permit Not Yet Issued",
	"FilingNumber": "I1",
	"Created On Date": "01/10/2019 00:00:00-0500",
	"Work Type Name": "Oil Work",
	"Filing Type Name": "New Job Filing",
	"LocationBIN": "1053919",
	"Address": "2254 5 AVENUE",
	"CommunityBoardNumber": 110,
	"LocationBoroughName": "MANHATTAN",
	"Longitude": -73.93675994873047,
	"Latitude": 40.81439971923828
 },
 {
	"Item Type Name": "Temporary Oil Tank (above ground)",
	"JFNPermitNumber": "M00264519-I1-LA",
	"FilingNumber": "I1",
	"Created On Date": "11/13/2019 00:00:00-0500",
	"Work Type Name": "Oil Work",
	"Filing Type Name": "New Job Filing",
	"LocationBIN": "1054128",
	"Address": "2 EAST  127 STREET",
	"CommunityBoardNumber": 111,
	"LocationBoroughName": "MANHATTAN",
	"Longitude": -73.94110107421875,
	"Latitude": 40.80744934082031
 },
 {
	"Item Type Name": "Temporary DOB registered oil fired mobile boiler",
	"JFNPermitNumber": "M00265148-I1-LA",
	"FilingNumber": "I1",
	"Created On Date": "11/14/2019 00:00:00-0500",
	"Work Type Name": "Oil Work",
	"Filing Type Name": "New Job Filing",
	"LocationBIN": "1054181",
	"Address": "2015 MADISON AVENUE",
	"CommunityBoardNumber": 111,
	"LocationBoroughName": "MANHATTAN",
	"Longitude": -73.93881225585938,
	"Latitude": 40.80772018432617
 },
 {
	"Item Type Name": "Temporary DOB registered oil fired mobile boiler",
	"JFNPermitNumber": "M00109951-I1-LA",
	"FilingNumber": "I1",
	"Created On Date": "12/20/2018 00:00:00-0500",
	"Work Type Name": "Oil Work",
	"Filing Type Name": "New Job Filing",
	"LocationBIN": "1055056",
	"Address": "160 WEST  116 STREET",
	"CommunityBoardNumber": 110,
	"LocationBoroughName": "MANHATTAN",
	"Longitude": -73.95187377929688,
	"Latitude": 40.80263137817383
 },
 {
	"Item Type Name": "Temporary DOB registered oil fired mobile boiler",
	"JFNPermitNumber": "M00242546-I1-LA",
	"FilingNumber": "I1",
	"Created On Date": "10/08/2019 00:00:00-0400",
	"Work Type Name": "Oil Work",
	"Filing Type Name": "New Job Filing",
	"LocationBIN": "1057044",
	"Address": "544 WEST  114 STREET",
	"CommunityBoardNumber": 109,
	"LocationBoroughName": "MANHATTAN",
	"Longitude": -73.96401977539062,
	"Latitude": 40.80611038208008
 },
 {
	"Item Type Name": "Temporary DOB registered oil fired mobile boiler",
	"JFNPermitNumber": "null",
	"FilingNumber": "P1",
	"Created On Date": "01/21/2019 00:00:00-0500",
	"Work Type Name": "Oil Work",
	"Filing Type Name": "PAA",
	"LocationBIN": "1057085",
	"Address": "265 RIVERSIDE DRIVE",
	"CommunityBoardNumber": 107,
	"LocationBoroughName": "MANHATTAN",
	"Longitude": -73.97328186035156,
	"Latitude": 40.79758071899414
 },
 {
	"Item Type Name": "Temporary DOB registered oil fired mobile boiler",
	"JFNPermitNumber": "M00089613-I1-LA",
	"FilingNumber": "I1",
	"Created On Date": "10/18/2018 00:00:00-0400",
	"Work Type Name": "Oil Work",
	"Filing Type Name": "New Job Filing",
	"LocationBIN": "1057085",
	"Address": "265 RIVERSIDE DRIVE",
	"CommunityBoardNumber": 107,
	"LocationBoroughName": "MANHATTAN",
	"Longitude": -73.97328186035156,
	"Latitude": 40.79758071899414
 },
 {
	"Item Type Name": "Temporary DOB registered oil fired mobile boiler",
	"JFNPermitNumber": "M00106779-I1-LA",
	"FilingNumber": "I1",
	"Created On Date": "12/05/2018 00:00:00-0500",
	"Work Type Name": "Oil Work",
	"Filing Type Name": "New Job Filing",
	"LocationBIN": "1057183",
	"Address": "308 WEST  103 STREET",
	"CommunityBoardNumber": 107,
	"LocationBoroughName": "MANHATTAN",
	"Longitude": -73.97081756591797,
	"Latitude": 40.799808502197266
 },
 {
	"Item Type Name": "Temporary Oil Tank (above ground)",
	"JFNPermitNumber": "M00170526-I1-LA",
	"FilingNumber": "I1",
	"Created On Date": "05/22/2019 00:00:00-0400",
	"Work Type Name": "Oil Work",
	"Filing Type Name": "New Job Filing",
	"LocationBIN": "1057683",
	"Address": "134 WEST  122 STREET",
	"CommunityBoardNumber": 110,
	"LocationBoroughName": "MANHATTAN",
	"Longitude": -73.94837188720703,
	"Latitude": 40.8060417175293
 },
 {
	"Item Type Name": "Temporary DOB registered oil fired mobile boiler",
	"JFNPermitNumber": "M00170526-I1-LA",
	"FilingNumber": "I1",
	"Created On Date": "05/21/2019 00:00:00-0400",
	"Work Type Name": "Oil Work",
	"Filing Type Name": "New Job Filing",
	"LocationBIN": "1057683",
	"Address": "134 WEST  122 STREET",
	"CommunityBoardNumber": 110,
	"LocationBoroughName": "MANHATTAN",
	"Longitude": -73.94837188720703,
	"Latitude": 40.8060417175293
 },
 {
	"Item Type Name": "Temporary DOB registered oil fired mobile boiler",
	"JFNPermitNumber": "M00252890-I1-LA",
	"FilingNumber": "I1",
	"Created On Date": "10/25/2019 00:00:00-0400",
	"Work Type Name": "Oil Work",
	"Filing Type Name": "New Job Filing",
	"LocationBIN": "1058230",
	"Address": "106 WEST  134 STREET",
	"CommunityBoardNumber": 110,
	"LocationBoroughName": "MANHATTAN",
	"Longitude": -73.9422836303711,
	"Latitude": 40.813568115234375
 },
 {
	"Item Type Name": "Temporary DOB registered oil fired mobile boiler",
	"JFNPermitNumber": "M00153427-I1-LA",
	"FilingNumber": "I1",
	"Created On Date": "04/10/2019 00:00:00-0400",
	"Work Type Name": "Oil Work",
	"Filing Type Name": "New Job Filing",
	"LocationBIN": "1058789",
	"Address": "208 WEST  133 STREET",
	"CommunityBoardNumber": 110,
	"LocationBoroughName": "MANHATTAN",
	"Longitude": -73.94576263427734,
	"Latitude": 40.814231872558594
 },
 {
	"Item Type Name": "Temporary DOB registered oil fired mobile boiler",
	"JFNPermitNumber": "M00145859-I1-LA",
	"FilingNumber": "I1",
	"Created On Date": "03/25/2019 00:00:00-0400",
	"Work Type Name": "Oil Work",
	"Filing Type Name": "New Job Filing",
	"LocationBIN": "1058791",
	"Address": "212 WEST  133 STREET",
	"CommunityBoardNumber": 110,
	"LocationBoroughName": "MANHATTAN",
	"Longitude": -73.94612121582031,
	"Latitude": 40.81438064575195
 },
 {
	"Item Type Name": "Temporary Oil Tank (above ground)",
	"JFNPermitNumber": "M00156560-I1-LA",
	"FilingNumber": "I1",
	"Created On Date": "04/18/2019 00:00:00-0400",
	"Work Type Name": "Oil Work",
	"Filing Type Name": "New Job Filing",
	"LocationBIN": "1059053",
	"Address": "34 MORNINGSIDE AVENUE",
	"CommunityBoardNumber": 110,
	"LocationBoroughName": "MANHATTAN",
	"Longitude": -73.95719909667969,
	"Latitude": 40.80643844604492
 },
 {
	"Item Type Name": "Temporary DOB registered oil fired mobile boiler",
	"JFNPermitNumber": "M00106216-I1-LA",
	"FilingNumber": "I1",
	"Created On Date": "12/06/2018 00:00:00-0500",
	"Work Type Name": "Oil Work",
	"Filing Type Name": "New Job Filing",
	"LocationBIN": "1059807",
	"Address": "522 WEST  136 STREET",
	"CommunityBoardNumber": 109,
	"LocationBoroughName": "MANHATTAN",
	"Longitude": -73.95346069335938,
	"Latitude": 40.82004928588867
 },
 {
	"Item Type Name": "Temporary Oil Tank (above ground)",
	"JFNPermitNumber": "M00160953-I1-LA",
	"FilingNumber": "I1",
	"Created On Date": "04/30/2019 00:00:00-0400",
	"Work Type Name": "Oil Work",
	"Filing Type Name": "New Job Filing",
	"LocationBIN": "1059809",
	"Address": "536 WEST  136 STREET",
	"CommunityBoardNumber": 109,
	"LocationBoroughName": "MANHATTAN",
	"Longitude": -73.95404052734375,
	"Latitude": 40.820289611816406
 },
 {
	"Item Type Name": "Temporary Oil Tank (above ground)",
	"JFNPermitNumber": "M00257222-I1-LA",
	"FilingNumber": "I1",
	"Created On Date": "11/01/2019 00:00:00-0400",
	"Work Type Name": "Oil Work",
	"Filing Type Name": "New Job Filing",
	"LocationBIN": "1059836",
	"Address": "3041 BROADWAY",
	"CommunityBoardNumber": 109,
	"LocationBoroughName": "MANHATTAN",
	"Longitude": -73.96214294433594,
	"Latitude": 40.81142044067383
 },
 {
	"Item Type Name": "Temporary DOB registered oil fired mobile boiler",
	"JFNPermitNumber": "M00169206-I1-LA",
	"FilingNumber": "I1",
	"Created On Date": "05/17/2019 00:00:00-0400",
	"Work Type Name": "Oil Work",
	"Filing Type Name": "New Job Filing",
	"LocationBIN": "1059836",
	"Address": "3041 BROADWAY",
	"CommunityBoardNumber": 109,
	"LocationBoroughName": "MANHATTAN",
	"Longitude": -73.96214294433594,
	"Latitude": 40.81142044067383
 },
 {
	"Item Type Name": "Temporary DOB registered oil fired mobile boiler",
	"JFNPermitNumber": "M00252828-I1-LA",
	"FilingNumber": "I1",
	"Created On Date": "10/25/2019 00:00:00-0400",
	"Work Type Name": "Oil Work",
	"Filing Type Name": "New Job Filing",
	"LocationBIN": "1060045",
	"Address": "132 WEST  139 STREET",
	"CommunityBoardNumber": 110,
	"LocationBoroughName": "MANHATTAN",
	"Longitude": -73.94097900390625,
	"Latitude": 40.817230224609375
 },
 {
	"Item Type Name": "Temporary DOB registered oil fired mobile boiler",
	"JFNPermitNumber": "M00257409-I1-LA",
	"FilingNumber": "I1",
	"Created On Date": "11/01/2019 00:00:00-0400",
	"Work Type Name": "Oil Work",
	"Filing Type Name": "New Job Filing",
	"LocationBIN": "1060538",
	"Address": "200 WEST  148 STREET",
	"CommunityBoardNumber": 110,
	"LocationBoroughName": "MANHATTAN",
	"Longitude": -73.93814849853516,
	"Latitude": 40.82360076904297
 },
 {
	"Item Type Name": "Temporary DOB registered oil fired mobile boiler",
	"JFNPermitNumber": "M00248249-I1-LA",
	"FilingNumber": "I1",
	"Created On Date": "10/18/2019 00:00:00-0400",
	"Work Type Name": "Oil Work",
	"Filing Type Name": "New Job Filing",
	"LocationBIN": "1060569",
	"Address": "202 WEST  149 STREET",
	"CommunityBoardNumber": 110,
	"LocationBoroughName": "MANHATTAN",
	"Longitude": -73.93795013427734,
	"Latitude": 40.824241638183594
 },
 {
	"Item Type Name": "Temporary DOB registered oil fired mobile boiler",
	"JFNPermitNumber": "M00233553-I1-LA",
	"FilingNumber": "I1",
	"Created On Date": "09/23/2019 00:00:00-0400",
	"Work Type Name": "Oil Work",
	"Filing Type Name": "New Job Filing",
	"LocationBIN": "1060573",
	"Address": "216 WEST  149 STREET",
	"CommunityBoardNumber": 110,
	"LocationBoroughName": "MANHATTAN",
	"Longitude": -73.93852996826172,
	"Latitude": 40.82448959350586
 },
 {
	"Item Type Name": "Temporary DOB registered oil fired mobile boiler",
	"JFNPermitNumber": "M00115433-I1-LA",
	"FilingNumber": "I1",
	"Created On Date": "01/03/2019 00:00:00-0500",
	"Work Type Name": "Oil Work",
	"Filing Type Name": "New Job Filing",
	"LocationBIN": "1060738",
	"Address": "132 EDGECOMBE AVENUE",
	"CommunityBoardNumber": 110,
	"LocationBoroughName": "MANHATTAN",
	"Longitude": -73.94470977783203,
	"Latitude": 40.82096862792969
 },
 {
	"Item Type Name": "Temporary DOB registered oil fired mobile boiler",
	"JFNPermitNumber": "M00122211-I1-LA",
	"FilingNumber": "I1",
	"Created On Date": "01/22/2019 00:00:00-0500",
	"Work Type Name": "Oil Work",
	"Filing Type Name": "New Job Filing",
	"LocationBIN": "1061700",
	"Address": "75 ST NICHOLAS PLACE",
	"CommunityBoardNumber": 109,
	"LocationBoroughName": "MANHATTAN",
	"Longitude": -73.94117736816406,
	"Latitude": 40.8294792175293
 },
 {
	"Item Type Name": "Temporary DOB registered oil fired mobile boiler",
	"JFNPermitNumber": "M00202859-I1-LA",
	"FilingNumber": "I1",
	"Created On Date": "07/31/2019 00:00:00-0400",
	"Work Type Name": "Oil Work",
	"Filing Type Name": "New Job Filing",
	"LocationBIN": "1062326",
	"Address": "640 RIVERSIDE DRIVE",
	"CommunityBoardNumber": 109,
	"LocationBoroughName": "MANHATTAN",
	"Longitude": -73.95379638671875,
	"Latitude": 40.82476043701172
 },
 {
	"Item Type Name": "Temporary Oil Tank (above ground)",
	"JFNPermitNumber": "M00101831-I1-LA",
	"FilingNumber": "I1",
	"Created On Date": "11/20/2018 00:00:00-0500",
	"Work Type Name": "Oil Work",
	"Filing Type Name": "New Job Filing",
	"LocationBIN": "1062439",
	"Address": "600 WEST  149 STREET",
	"CommunityBoardNumber": 109,
	"LocationBoroughName": "MANHATTAN",
	"Longitude": -73.94911193847656,
	"Latitude": 40.828948974609375
 },
 {
	"Item Type Name": "Temporary Oil Tank (above ground)",
	"JFNPermitNumber": "M00148881-I1-LA",
	"FilingNumber": "I1",
	"Created On Date": "04/01/2019 00:00:00-0400",
	"Work Type Name": "Oil Work",
	"Filing Type Name": "New Job Filing",
	"LocationBIN": "1062675",
	"Address": "2185 AMSTERDAM AVENUE",
	"CommunityBoardNumber": 112,
	"LocationBoroughName": "MANHATTAN",
	"Longitude": -73.93636322021484,
	"Latitude": 40.84008026123047
 },
 {
	"Item Type Name": "Temporary DOB registered oil fired mobile boiler",
	"JFNPermitNumber": "M00089015-I1-LA",
	"FilingNumber": "I1",
	"Created On Date": "10/17/2018 00:00:00-0400",
	"Work Type Name": "Oil Work",
	"Filing Type Name": "New Job Filing",
	"LocationBIN": "1063096",
	"Address": "142 AUDUBON AVENUE",
	"CommunityBoardNumber": 112,
	"LocationBoroughName": "MANHATTAN",
	"Longitude": -73.93665313720703,
	"Latitude": 40.84334945678711
 },
 {
	"Item Type Name": "Temporary DOB registered oil fired mobile boiler",
	"JFNPermitNumber": "M00116900-I1-LA",
	"FilingNumber": "I1",
	"Created On Date": "01/09/2019 00:00:00-0500",
	"Work Type Name": "Oil Work",
	"Filing Type Name": "New Job Filing",
	"LocationBIN": "1063231",
	"Address": "599 WEST  177 STREET",
	"CommunityBoardNumber": 112,
	"LocationBoroughName": "MANHATTAN",
	"Longitude": -73.93522644042969,
	"Latitude": 40.846710205078125
 },
 {
	"Item Type Name": "Temporary Oil Tank (above ground)",
	"JFNPermitNumber": "M00137597-I1-LA",
	"FilingNumber": "I1",
	"Created On Date": "03/04/2019 00:00:00-0500",
	"Work Type Name": "Oil Work",
	"Filing Type Name": "New Job Filing",
	"LocationBIN": "1063351",
	"Address": "600 WEST  161 STREET",
	"CommunityBoardNumber": 112,
	"LocationBoroughName": "MANHATTAN",
	"Longitude": -73.94361877441406,
	"Latitude": 40.83654022216797
 },
 {
	"Item Type Name": "Temporary Oil Tank (above ground)",
	"JFNPermitNumber": "M00117518-I1-LA",
	"FilingNumber": "I1",
	"Created On Date": "01/09/2019 00:00:00-0500",
	"Work Type Name": "Oil Work",
	"Filing Type Name": "New Job Filing",
	"LocationBIN": "1063363",
	"Address": "600 WEST  163 STREET",
	"CommunityBoardNumber": 112,
	"LocationBoroughName": "MANHATTAN",
	"Longitude": -73.94271087646484,
	"Latitude": 40.837711334228516
 },
 {
	"Item Type Name": "Temporary DOB registered oil fired mobile boiler",
	"JFNPermitNumber": "M00199203-I1-LA",
	"FilingNumber": "I1",
	"Created On Date": "07/24/2019 00:00:00-0400",
	"Work Type Name": "Oil Work",
	"Filing Type Name": "New Job Filing",
	"LocationBIN": "1063382",
	"Address": "617 WEST  168 STREET",
	"CommunityBoardNumber": 112,
	"LocationBoroughName": "MANHATTAN",
	"Longitude": -73.94039916992188,
	"Latitude": 40.84175109863281
 },
 {
	"Item Type Name": "Temporary DOB registered oil fired mobile boiler",
	"JFNPermitNumber": "M00191947-I1-LA",
	"FilingNumber": "I1",
	"Created On Date": "07/11/2019 00:00:00-0400",
	"Work Type Name": "Oil Work",
	"Filing Type Name": "New Job Filing",
	"LocationBIN": "1063501",
	"Address": "4109 BROADWAY",
	"CommunityBoardNumber": 112,
	"LocationBoroughName": "MANHATTAN",
	"Longitude": -73.93916320800781,
	"Latitude": 40.84518814086914
 },
 {
	"Item Type Name": "Temporary DOB registered oil fired mobile boiler",
	"JFNPermitNumber": "M00209941-I1-LA",
	"FilingNumber": "I1",
	"Created On Date": "08/13/2019 00:00:00-0400",
	"Work Type Name": "Oil Work",
	"Filing Type Name": "New Job Filing",
	"LocationBIN": "1063518",
	"Address": "635 WEST  174 STREET",
	"CommunityBoardNumber": 112,
	"LocationBoroughName": "MANHATTAN",
	"Longitude": -73.93903350830078,
	"Latitude": 40.84579849243164
 },
 {
	"Item Type Name": "Temporary Oil Tank (above ground)",
	"JFNPermitNumber": "null",
	"FilingNumber": "P1",
	"Created On Date": "11/28/2018 00:00:00-0500",
	"Work Type Name": "Oil Work",
	"Filing Type Name": "PAA",
	"LocationBIN": "1063864",
	"Address": "1610 ST NICHOLAS AVENUE",
	"CommunityBoardNumber": 112,
	"LocationBoroughName": "MANHATTAN",
	"Longitude": -73.92899322509766,
	"Latitude": 40.855228424072266
 },
 {
	"Item Type Name": "Temporary Oil Tank (above ground)",
	"JFNPermitNumber": "M00089886-S1-LA",
	"FilingNumber": "S1",
	"Created On Date": "12/11/2018 00:00:00-0500",
	"Work Type Name": "Oil Work",
	"Filing Type Name": "Subsequent Filing",
	"LocationBIN": "1063864",
	"Address": "1610 ST NICHOLAS AVENUE",
	"CommunityBoardNumber": 112,
	"LocationBoroughName": "MANHATTAN",
	"Longitude": -73.92899322509766,
	"Latitude": 40.855228424072266
 },
 {
	"Item Type Name": "Temporary Oil Tank (above ground)",
	"JFNPermitNumber": "M00089886-I1-LA",
	"FilingNumber": "I1",
	"Created On Date": "10/18/2018 00:00:00-0400",
	"Work Type Name": "Oil Work",
	"Filing Type Name": "New Job Filing",
	"LocationBIN": "1063864",
	"Address": "1610 ST NICHOLAS AVENUE",
	"CommunityBoardNumber": 112,
	"LocationBoroughName": "MANHATTAN",
	"Longitude": -73.92899322509766,
	"Latitude": 40.855228424072266
 },
 {
	"Item Type Name": "Temporary DOB registered oil fired mobile boiler",
	"JFNPermitNumber": "M00170409-I1-LA",
	"FilingNumber": "I1",
	"Created On Date": "05/21/2019 00:00:00-0400",
	"Work Type Name": "Oil Work",
	"Filing Type Name": "New Job Filing",
	"LocationBIN": "1063919",
	"Address": "130 WADSWORTH AVENUE",
	"CommunityBoardNumber": 112,
	"LocationBoroughName": "MANHATTAN",
	"Longitude": -73.93586730957031,
	"Latitude": 40.849098205566406
 },
 {
	"Item Type Name": "Temporary DOB registered oil fired mobile boiler",
	"JFNPermitNumber": "M00243161-I1-LA",
	"FilingNumber": "I1",
	"Created On Date": "10/09/2019 00:00:00-0400",
	"Work Type Name": "Oil Work",
	"Filing Type Name": "New Job Filing",
	"LocationBIN": "1063947",
	"Address": "185 WADSWORTH AVENUE",
	"CommunityBoardNumber": 112,
	"LocationBoroughName": "MANHATTAN",
	"Longitude": -73.93396759033203,
	"Latitude": 40.85055923461914
 },
 {
	"Item Type Name": "Temporary DOB registered oil fired mobile boiler",
	"JFNPermitNumber": "M00179624-I1-LA",
	"FilingNumber": "I1",
	"Created On Date": "06/12/2019 00:00:00-0400",
	"Work Type Name": "Oil Work",
	"Filing Type Name": "New Job Filing",
	"LocationBIN": "1064007",
	"Address": "621 WEST  188 STREET",
	"CommunityBoardNumber": 112,
	"LocationBoroughName": "MANHATTAN",
	"Longitude": -73.93135833740234,
	"Latitude": 40.854278564453125
 },
 {
	"Item Type Name": "Temporary DOB registered oil fired mobile boiler",
	"JFNPermitNumber": "M00145499-I1-LA",
	"FilingNumber": "I1",
	"Created On Date": "03/22/2019 00:00:00-0400",
	"Work Type Name": "Oil Work",
	"Filing Type Name": "New Job Filing",
	"LocationBIN": "1064708",
	"Address": "9 POST AVENUE",
	"CommunityBoardNumber": 112,
	"LocationBoroughName": "MANHATTAN",
	"Longitude": -73.92455291748047,
	"Latitude": 40.86254119873047
 },
 {
	"Item Type Name": "Temporary Oil Tank (above ground)",
	"JFNPermitNumber": "M00194243-I1-LA",
	"FilingNumber": "I1",
	"Created On Date": "07/16/2019 00:00:00-0400",
	"Work Type Name": "Oil Work",
	"Filing Type Name": "New Job Filing",
	"LocationBIN": "1064728",
	"Address": "240 NAGLE AVENUE",
	"CommunityBoardNumber": 112,
	"LocationBoroughName": "MANHATTAN",
	"Longitude": -73.92140197753906,
	"Latitude": 40.86330032348633
 },
 {
	"Item Type Name": "Temporary DOB registered oil fired mobile boiler",
	"JFNPermitNumber": "M00125869-I1-LA",
	"FilingNumber": "I1",
	"Created On Date": "01/31/2019 00:00:00-0500",
	"Work Type Name": "Oil Work",
	"Filing Type Name": "New Job Filing",
	"LocationBIN": "1075433",
	"Address": "545 WEST  111 STREET",
	"CommunityBoardNumber": 109,
	"LocationBoroughName": "MANHATTAN",
	"Longitude": -73.9654769897461,
	"Latitude": 40.80474853515625
 },
 {
	"Item Type Name": "Temporary DOB registered oil fired mobile boiler",
	"JFNPermitNumber": "M00259484-I1-LA",
	"FilingNumber": "I1",
	"Created On Date": "11/06/2019 00:00:00-0500",
	"Work Type Name": "Oil Work",
	"Filing Type Name": "New Job Filing",
	"LocationBIN": "1076145",
	"Address": "40 WEST   20 STREET",
	"CommunityBoardNumber": 105,
	"LocationBoroughName": "MANHATTAN",
	"Longitude": -73.99336242675781,
	"Latitude": 40.74045944213867
 },
 {
	"Item Type Name": "Temporary DOB registered oil fired mobile boiler",
	"JFNPermitNumber": "M00218484-I1-LA",
	"FilingNumber": "I1",
	"Created On Date": "08/28/2019 00:00:00-0400",
	"Work Type Name": "Oil Work",
	"Filing Type Name": "New Job Filing",
	"LocationBIN": "1076164",
	"Address": "310 EAST   23 STREET",
	"CommunityBoardNumber": 106,
	"LocationBoroughName": "MANHATTAN",
	"Longitude": -73.98040771484375,
	"Latitude": 40.737369537353516
 },
 {
	"Item Type Name": "Temporary DOB registered oil fired mobile boiler",
	"JFNPermitNumber": "Permit Not Yet Issued",
	"FilingNumber": "I1",
	"Created On Date": "11/12/2018 00:00:00-0500",
	"Work Type Name": "Oil Work",
	"Filing Type Name": "New Job Filing",
	"LocationBIN": "1077403",
	"Address": "33 GOLD STREET",
	"CommunityBoardNumber": 101,
	"LocationBoroughName": "MANHATTAN",
	"Longitude": -74.00601196289062,
	"Latitude": 40.70891189575195
 },
 {
	"Item Type Name": "Temporary Oil Tank (above ground)",
	"JFNPermitNumber": "M00102323-I1-LA",
	"FilingNumber": "I1",
	"Created On Date": "11/21/2018 00:00:00-0500",
	"Work Type Name": "Oil Work",
	"Filing Type Name": "New Job Filing",
	"LocationBIN": "1077643",
	"Address": "153 AVENUE A",
	"CommunityBoardNumber": 103,
	"LocationBoroughName": "MANHATTAN",
	"Longitude": -73.98269653320312,
	"Latitude": 40.72774124145508
 },
 {
	"Item Type Name": "Temporary Oil Tank (above ground)",
	"JFNPermitNumber": "M00205850-I1-LA",
	"FilingNumber": "I1",
	"Created On Date": "08/06/2019 00:00:00-0400",
	"Work Type Name": "Oil Work",
	"Filing Type Name": "New Job Filing",
	"LocationBIN": "1077748",
	"Address": "174 SPRING STREET",
	"CommunityBoardNumber": 102,
	"LocationBoroughName": "MANHATTAN",
	"Longitude": -74.00240325927734,
	"Latitude": 40.724578857421875
 },
 {
	"Item Type Name": "Temporary DOB registered oil fired mobile boiler",
	"JFNPermitNumber": "M00236514-I1-LA",
	"FilingNumber": "I1",
	"Created On Date": "09/27/2019 00:00:00-0400",
	"Work Type Name": "Oil Work",
	"Filing Type Name": "New Job Filing",
	"LocationBIN": "1078156",
	"Address": "26 JANE STREET",
	"CommunityBoardNumber": 102,
	"LocationBoroughName": "MANHATTAN",
	"Longitude": -74.0032730102539,
	"Latitude": 40.73796844482422
 },
 {
	"Item Type Name": "Temporary DOB registered oil fired mobile boiler",
	"JFNPermitNumber": "M00151512-I1-LA",
	"FilingNumber": "I1",
	"Created On Date": "04/05/2019 00:00:00-0400",
	"Work Type Name": "Oil Work",
	"Filing Type Name": "New Job Filing",
	"LocationBIN": "1078809",
	"Address": "356 EAST   19 STREET",
	"CommunityBoardNumber": 106,
	"LocationBoroughName": "MANHATTAN",
	"Longitude": -73.98074340820312,
	"Latitude": 40.734371185302734
 },
 {
	"Item Type Name": "Temporary DOB registered oil fired mobile boiler",
	"JFNPermitNumber": "M00171867-I1-LA",
	"FilingNumber": "I1",
	"Created On Date": "05/24/2019 00:00:00-0400",
	"Work Type Name": "Oil Work",
	"Filing Type Name": "New Job Filing",
	"LocationBIN": "1078881",
	"Address": "347 WEST   48 STREET",
	"CommunityBoardNumber": 104,
	"LocationBoroughName": "MANHATTAN",
	"Longitude": -73.98857879638672,
	"Latitude": 40.761940002441406
 },
 {
	"Item Type Name": "Temporary DOB registered oil fired mobile boiler",
	"JFNPermitNumber": "M00136713-I1-LA",
	"FilingNumber": "I1",
	"Created On Date": "03/01/2019 00:00:00-0500",
	"Work Type Name": "Oil Work",
	"Filing Type Name": "New Job Filing",
	"LocationBIN": "1079521",
	"Address": "129 WEST   81 STREET",
	"CommunityBoardNumber": 107,
	"LocationBoroughName": "MANHATTAN",
	"Longitude": -73.97537231445312,
	"Latitude": 40.783870697021484
 },
 {
	"Item Type Name": "Temporary DOB registered oil fired mobile boiler",
	"JFNPermitNumber": "M00087893-I1-LA",
	"FilingNumber": "I1",
	"Created On Date": "10/15/2018 00:00:00-0400",
	"Work Type Name": "Oil Work",
	"Filing Type Name": "New Job Filing",
	"LocationBIN": "1079828",
	"Address": "333 BOWERY",
	"CommunityBoardNumber": 103,
	"LocationBoroughName": "MANHATTAN",
	"Longitude": -73.99156951904297,
	"Latitude": 40.725830078125
 },
 {
	"Item Type Name": "Temporary Oil Tank (above ground)",
	"JFNPermitNumber": "Permit Not Yet Issued",
	"FilingNumber": "I1",
	"Created On Date": "01/16/2019 00:00:00-0500",
	"Work Type Name": "Oil Work",
	"Filing Type Name": "New Job Filing",
	"LocationBIN": "1080771",
	"Address": "1 EAST   28 STREET",
	"CommunityBoardNumber": 105,
	"LocationBoroughName": "MANHATTAN",
	"Longitude": -73.98681640625,
	"Latitude": 40.74467086791992
 },
 {
	"Item Type Name": "Temporary Oil Tank (above ground)",
	"JFNPermitNumber": "M00088406-I1-LA",
	"FilingNumber": "I1",
	"Created On Date": "10/16/2018 00:00:00-0400",
	"Work Type Name": "Oil Work",
	"Filing Type Name": "New Job Filing",
	"LocationBIN": "1082652",
	"Address": "66 WEST   94 STREET",
	"CommunityBoardNumber": 107,
	"LocationBoroughName": "MANHATTAN",
	"Longitude": -73.96842956542969,
	"Latitude": 40.79106903076172
 },
 {
	"Item Type Name": "Temporary DOB registered oil fired mobile boiler",
	"JFNPermitNumber": "M00145138-I1-LA",
	"FilingNumber": "I1",
	"Created On Date": "03/22/2019 00:00:00-0400",
	"Work Type Name": "Oil Work",
	"Filing Type Name": "New Job Filing",
	"LocationBIN": "1083853",
	"Address": "32 WEST   83 STREET",
	"CommunityBoardNumber": 107,
	"LocationBoroughName": "MANHATTAN",
	"Longitude": -73.97213745117188,
	"Latitude": 40.783668518066406
 },
 {
	"Item Type Name": "Temporary Oil Tank (above ground)",
	"JFNPermitNumber": "M00172964-I1-LA",
	"FilingNumber": "I1",
	"Created On Date": "05/28/2019 00:00:00-0400",
	"Work Type Name": "Oil Work",
	"Filing Type Name": "New Job Filing",
	"LocationBIN": "1083931",
	"Address": "420 EAST  102 STREET",
	"CommunityBoardNumber": 111,
	"LocationBoroughName": "MANHATTAN",
	"Longitude": -73.94151306152344,
	"Latitude": 40.78643035888672
 },
 {
	"Item Type Name": "Temporary DOB registered oil fired mobile boiler",
	"JFNPermitNumber": "M00116402-I1-LA",
	"FilingNumber": "I1",
	"Created On Date": "01/07/2019 00:00:00-0500",
	"Work Type Name": "Oil Work",
	"Filing Type Name": "New Job Filing",
	"LocationBIN": "1084164",
	"Address": "85 BRADHURST AVENUE",
	"CommunityBoardNumber": 110,
	"LocationBoroughName": "MANHATTAN",
	"Longitude": -73.94113159179688,
	"Latitude": 40.82658004760742
 },
 {
	"Item Type Name": "Temporary DOB registered oil fired mobile boiler",
	"JFNPermitNumber": "M00261559-I1-LA",
	"FilingNumber": "I1",
	"Created On Date": "11/08/2019 00:00:00-0500",
	"Work Type Name": "Oil Work",
	"Filing Type Name": "New Job Filing",
	"LocationBIN": "1084350",
	"Address": "408 AUDUBON AVENUE",
	"CommunityBoardNumber": 112,
	"LocationBoroughName": "MANHATTAN",
	"Longitude": -73.93057250976562,
	"Latitude": 40.85163879394531
 },
 {
	"Item Type Name": "Temporary Oil Tank (above ground)",
	"JFNPermitNumber": "Permit Not Yet Issued",
	"FilingNumber": "I1",
	"Created On Date": "11/23/2018 00:00:00-0500",
	"Work Type Name": "Oil Work",
	"Filing Type Name": "New Job Filing",
	"LocationBIN": "1085125",
	"Address": "400 EAST   53 STREET",
	"CommunityBoardNumber": 106,
	"LocationBoroughName": "MANHATTAN",
	"Longitude": -73.96465301513672,
	"Latitude": 40.75545120239258
 },
 {
	"Item Type Name": "Temporary Oil Tank (above ground)",
	"JFNPermitNumber": "M00260066-I1-LA",
	"FilingNumber": "I1",
	"Created On Date": "11/06/2019 00:00:00-0500",
	"Work Type Name": "Oil Work",
	"Filing Type Name": "New Job Filing",
	"LocationBIN": "1085317",
	"Address": "223 WEST  105 STREET",
	"CommunityBoardNumber": 107,
	"LocationBoroughName": "MANHATTAN",
	"Longitude": -73.96697235107422,
	"Latitude": 40.800331115722656
 },
 {
	"Item Type Name": "Temporary DOB registered oil fired mobile boiler",
	"JFNPermitNumber": "M00124295-I1-LA",
	"FilingNumber": "I1",
	"Created On Date": "01/28/2019 00:00:00-0500",
	"Work Type Name": "Oil Work",
	"Filing Type Name": "New Job Filing",
	"LocationBIN": "1085790",
	"Address": "140 EAST   14 STREET",
	"CommunityBoardNumber": 103,
	"LocationBoroughName": "MANHATTAN",
	"Longitude": -73.98827362060547,
	"Latitude": 40.73331069946289
 },
 {
	"Item Type Name": "Temporary DOB registered oil fired mobile boiler",
	"JFNPermitNumber": "M00114375-I1-LA",
	"FilingNumber": "I1",
	"Created On Date": "12/28/2018 00:00:00-0500",
	"Work Type Name": "Oil Work",
	"Filing Type Name": "New Job Filing",
	"LocationBIN": "1087709",
	"Address": "54 ST MARKS PLACE",
	"CommunityBoardNumber": 103,
	"LocationBoroughName": "MANHATTAN",
	"Longitude": -73.9867935180664,
	"Latitude": 40.727970123291016
 },
 {
	"Item Type Name": "Temporary DOB registered oil fired mobile boiler",
	"JFNPermitNumber": "M00178045-I1-LA",
	"FilingNumber": "I1",
	"Created On Date": "06/10/2019 00:00:00-0400",
	"Work Type Name": "Oil Work",
	"Filing Type Name": "New Job Filing",
	"LocationBIN": "1087941",
	"Address": "50 WEST   15 STREET",
	"CommunityBoardNumber": 105,
	"LocationBoroughName": "MANHATTAN",
	"Longitude": -73.99546813964844,
	"Latitude": 40.737430572509766
 },
 {
	"Item Type Name": "Temporary DOB registered oil fired mobile boiler",
	"JFNPermitNumber": "M00171659-I1-LA",
	"FilingNumber": "I1",
	"Created On Date": "05/23/2019 00:00:00-0400",
	"Work Type Name": "Oil Work",
	"Filing Type Name": "New Job Filing",
	"LocationBIN": "1089381",
	"Address": "101 AVENUE D",
	"CommunityBoardNumber": 103,
	"LocationBoroughName": "MANHATTAN",
	"Longitude": -73.97657775878906,
	"Latitude": 40.7235107421875
 },
 {
	"Item Type Name": "Temporary DOB registered oil fired mobile boiler",
	"JFNPermitNumber": "M00253224-I1-LA",
	"FilingNumber": "I1",
	"Created On Date": "10/25/2019 00:00:00-0400",
	"Work Type Name": "Oil Work",
	"Filing Type Name": "New Job Filing",
	"LocationBIN": "1090766",
	"Address": "610 WEST   58 STREET",
	"CommunityBoardNumber": 104,
	"LocationBoroughName": "MANHATTAN",
	"Longitude": -73.9916000366211,
	"Latitude": 40.77103042602539
 },
 {
	"Item Type Name": "Temporary Oil Tank (above ground)",
	"JFNPermitNumber": "M00194530-I1-LA",
	"FilingNumber": "I1",
	"Created On Date": "07/16/2019 00:00:00-0400",
	"Work Type Name": "Oil Work",
	"Filing Type Name": "New Job Filing",
	"LocationBIN": "1806930",
	"Address": "336 WEST 96 STREET",
	"CommunityBoardNumber": 107,
	"LocationBoroughName": "MANHATTAN",
	"Longitude": -73.97395324707031,
	"Latitude": 40.79555892944336
 },
 {
	"Item Type Name": "Temporary DOB registered oil fired mobile boiler",
	"JFNPermitNumber": "X00125781-I1-LA",
	"FilingNumber": "I1",
	"Created On Date": "01/31/2019 00:00:00-0500",
	"Work Type Name": "Oil Work",
	"Filing Type Name": "New Job Filing",
	"LocationBIN": "2000207",
	"Address": "439 EAST  135 STREET",
	"CommunityBoardNumber": 201,
	"LocationBoroughName": "BRONX",
	"Longitude": -73.92269897460938,
	"Latitude": 40.806758880615234
 },
 {
	"Item Type Name": "Temporary Oil Tank (above ground)",
	"JFNPermitNumber": "null",
	"FilingNumber": "P1",
	"Created On Date": "02/05/2019 00:00:00-0500",
	"Work Type Name": "Oil Work",
	"Filing Type Name": "PAA",
	"LocationBIN": "2000217",
	"Address": "401 EAST  136 STREET",
	"CommunityBoardNumber": 201,
	"LocationBoroughName": "BRONX",
	"Longitude": -73.92350006103516,
	"Latitude": 40.80780029296875
 },
 {
	"Item Type Name": "Temporary Oil Tank (above ground)",
	"JFNPermitNumber": "X00126741-I1-LA",
	"FilingNumber": "I1",
	"Created On Date": "02/04/2019 00:00:00-0500",
	"Work Type Name": "Oil Work",
	"Filing Type Name": "New Job Filing",
	"LocationBIN": "2000217",
	"Address": "401 EAST  136 STREET",
	"CommunityBoardNumber": 201,
	"LocationBoroughName": "BRONX",
	"Longitude": -73.92350006103516,
	"Latitude": 40.80780029296875
 },
 {
	"Item Type Name": "Temporary DOB registered oil fired mobile boiler",
	"JFNPermitNumber": "Permit Not Yet Issued",
	"FilingNumber": "I1",
	"Created On Date": "04/16/2019 00:00:00-0400",
	"Work Type Name": "Oil Work",
	"Filing Type Name": "New Job Filing",
	"LocationBIN": "2001348",
	"Address": "408 EAST  152 STREET",
	"CommunityBoardNumber": 201,
	"LocationBoroughName": "BRONX",
	"Longitude": -73.91634368896484,
	"Latitude": 40.81787109375
 },
 {
	"Item Type Name": "Temporary DOB registered oil fired mobile boiler",
	"JFNPermitNumber": "X00144691-I1-LA",
	"FilingNumber": "I1",
	"Created On Date": "03/21/2019 00:00:00-0400",
	"Work Type Name": "Oil Work",
	"Filing Type Name": "New Job Filing",
	"LocationBIN": "2001467",
	"Address": "464 EAST  159 STREET",
	"CommunityBoardNumber": 201,
	"LocationBoroughName": "BRONX",
	"Longitude": -73.9124526977539,
	"Latitude": 40.82210159301758
 },
 {
	"Item Type Name": "Temporary DOB registered oil fired mobile boiler",
	"JFNPermitNumber": "X00247902-I1-LA",
	"FilingNumber": "I1",
	"Created On Date": "10/17/2019 00:00:00-0400",
	"Work Type Name": "Oil Work",
	"Filing Type Name": "New Job Filing",
	"LocationBIN": "2002047",
	"Address": "367 EAST  163 STREET",
	"CommunityBoardNumber": 204,
	"LocationBoroughName": "BRONX",
	"Longitude": -73.91451263427734,
	"Latitude": 40.826629638671875
 },
 {
	"Item Type Name": "Temporary DOB registered oil fired mobile boiler",
	"JFNPermitNumber": "X00141943-I1-LA",
	"FilingNumber": "I1",
	"Created On Date": "03/14/2019 00:00:00-0400",
	"Work Type Name": "Oil Work",
	"Filing Type Name": "New Job Filing",
	"LocationBIN": "2002734",
	"Address": "1060 SHERIDAN AVENUE",
	"CommunityBoardNumber": 204,
	"LocationBoroughName": "BRONX",
	"Longitude": -73.91829681396484,
	"Latitude": 40.830909729003906
 },
 {
	"Item Type Name": "Temporary Oil Tank (above ground)",
	"JFNPermitNumber": "X00124526-I1-LA",
	"FilingNumber": "I1",
	"Created On Date": "01/29/2019 00:00:00-0500",
	"Work Type Name": "Oil Work",
	"Filing Type Name": "New Job Filing",
	"LocationBIN": "2003864",
	"Address": "720 SAINT MARYS STREET",
	"CommunityBoardNumber": 201,
	"LocationBoroughName": "BRONX",
	"Longitude": -73.91050720214844,
	"Latitude": 40.808528900146484
 },
 {
	"Item Type Name": "Temporary DOB registered oil fired mobile boiler",
	"JFNPermitNumber": "X00133164-I1-LA",
	"FilingNumber": "I1",
	"Created On Date": "02/20/2019 00:00:00-0500",
	"Work Type Name": "Oil Work",
	"Filing Type Name": "New Job Filing",
	"LocationBIN": "2005057",
	"Address": "1200 UNION AVENUE",
	"CommunityBoardNumber": 203,
	"LocationBoroughName": "BRONX",
	"Longitude": -73.8989028930664,
	"Latitude": 40.8290901184082
 },
 {
	"Item Type Name": "Temporary Oil Tank (above ground)",
	"JFNPermitNumber": "X00253982-I1-LA",
	"FilingNumber": "I1",
	"Created On Date": "10/28/2019 00:00:00-0400",
	"Work Type Name": "Oil Work",
	"Filing Type Name": "New Job Filing",
	"LocationBIN": "2005987",
	"Address": "857 MANIDA STREET",
	"CommunityBoardNumber": 202,
	"LocationBoroughName": "BRONX",
	"Longitude": -73.89021301269531,
	"Latitude": 40.817970275878906
 },
 {
	"Item Type Name": "Temporary DOB registered oil fired mobile boiler",
	"JFNPermitNumber": "null",
	"FilingNumber": "P1",
	"Created On Date": "10/01/2019 00:00:00-0400",
	"Work Type Name": "Oil Work",
	"Filing Type Name": "PAA",
	"LocationBIN": "2007654",
	"Address": "1985 CRESTON AVENUE",
	"CommunityBoardNumber": 205,
	"LocationBoroughName": "BRONX",
	"Longitude": -73.90666198730469,
	"Latitude": 40.85111999511719
 },
 {
	"Item Type Name": "Temporary DOB registered oil fired mobile boiler",
	"JFNPermitNumber": "X00194425-I1-LA",
	"FilingNumber": "I1",
	"Created On Date": "07/16/2019 00:00:00-0400",
	"Work Type Name": "Oil Work",
	"Filing Type Name": "New Job Filing",
	"LocationBIN": "2007654",
	"Address": "1985 CRESTON AVENUE",
	"CommunityBoardNumber": 205,
	"LocationBoroughName": "BRONX",
	"Longitude": -73.90666198730469,
	"Latitude": 40.85111999511719
 },
 {
	"Item Type Name": "Temporary Oil Tank (above ground)",
	"JFNPermitNumber": "X00118483-I1-LA",
	"FilingNumber": "I1",
	"Created On Date": "01/11/2019 00:00:00-0500",
	"Work Type Name": "Oil Work",
	"Filing Type Name": "New Job Filing",
	"LocationBIN": "2007701",
	"Address": "1916 GRAND CONCOURSE",
	"CommunityBoardNumber": 205,
	"LocationBoroughName": "BRONX",
	"Longitude": -73.90522003173828,
	"Latitude": 40.8496208190918
 },
 {
	"Item Type Name": "Temporary DOB registered oil fired mobile boiler",
	"JFNPermitNumber": "X00168692-I1-LA",
	"FilingNumber": "I1",
	"Created On Date": "05/16/2019 00:00:00-0400",
	"Work Type Name": "Oil Work",
	"Filing Type Name": "New Job Filing",
	"LocationBIN": "2007710",
	"Address": "264 ECHO PLACE",
	"CommunityBoardNumber": 205,
	"LocationBoroughName": "BRONX",
	"Longitude": -73.90335083007812,
	"Latitude": 40.84928894042969
 },
 {
	"Item Type Name": "Temporary Oil Tank (above ground)",
	"JFNPermitNumber": "X00218884-I1-LA",
	"FilingNumber": "I1",
	"Created On Date": "08/28/2019 00:00:00-0400",
	"Work Type Name": "Oil Work",
	"Filing Type Name": "New Job Filing",
	"LocationBIN": "2008012",
	"Address": "1555 GRAND CONCOURSE",
	"CommunityBoardNumber": 204,
	"LocationBoroughName": "BRONX",
	"Longitude": -73.91291046142578,
	"Latitude": 40.842201232910156
 },
 {
	"Item Type Name": "Temporary DOB registered oil fired mobile boiler",
	"JFNPermitNumber": "X00198249-I1-LA",
	"FilingNumber": "I1",
	"Created On Date": "07/23/2019 00:00:00-0400",
	"Work Type Name": "Oil Work",
	"Filing Type Name": "New Job Filing",
	"LocationBIN": "2008118",
	"Address": "1478 WALTON AVENUE",
	"CommunityBoardNumber": 204,
	"LocationBoroughName": "BRONX",
	"Longitude": -73.91442108154297,
	"Latitude": 40.84123992919922
 },
 {
	"Item Type Name": "Temporary DOB registered oil fired mobile boiler",
	"JFNPermitNumber": "X00150442-I1-LA",
	"FilingNumber": "I1",
	"Created On Date": "04/04/2019 00:00:00-0400",
	"Work Type Name": "Oil Work",
	"Filing Type Name": "New Job Filing",
	"LocationBIN": "2008215",
	"Address": "54 EAST  176 STREET",
	"CommunityBoardNumber": 205,
	"LocationBoroughName": "BRONX",
	"Longitude": -73.91050720214844,
	"Latitude": 40.848201751708984
 },
 {
	"Item Type Name": "Temporary DOB registered oil fired mobile boiler",
	"JFNPermitNumber": "Permit Not Yet Issued",
	"FilingNumber": "I1",
	"Created On Date": "10/04/2019 00:00:00-0400",
	"Work Type Name": "Oil Work",
	"Filing Type Name": "New Job Filing",
	"LocationBIN": "2008238",
	"Address": "1895 WALTON AVENUE",
	"CommunityBoardNumber": 205,
	"LocationBoroughName": "BRONX",
	"Longitude": -73.90947723388672,
	"Latitude": 40.849700927734375
 },
 {
	"Item Type Name": "Temporary DOB registered oil fired mobile boiler",
	"JFNPermitNumber": "X00214958-I1-LA",
	"FilingNumber": "I1",
	"Created On Date": "08/22/2019 00:00:00-0400",
	"Work Type Name": "Oil Work",
	"Filing Type Name": "New Job Filing",
	"LocationBIN": "2008264",
	"Address": "1979 WALTON AVENUE",
	"CommunityBoardNumber": 205,
	"LocationBoroughName": "BRONX",
	"Longitude": -73.90811920166016,
	"Latitude": 40.85200881958008
 },
 {
	"Item Type Name": "Temporary DOB registered oil fired mobile boiler",
	"JFNPermitNumber": "X00209462-I1-LA",
	"FilingNumber": "I1",
	"Created On Date": "08/12/2019 00:00:00-0400",
	"Work Type Name": "Oil Work",
	"Filing Type Name": "New Job Filing",
	"LocationBIN": "2008678",
	"Address": "1476 SHAKESPEARE AVENUE",
	"CommunityBoardNumber": 204,
	"LocationBoroughName": "BRONX",
	"Longitude": -73.9195785522461,
	"Latitude": 40.84389114379883
 },
 {
	"Item Type Name": "Temporary DOB registered oil fired mobile boiler",
	"JFNPermitNumber": "X00220686-I1-LA",
	"FilingNumber": "I1",
	"Created On Date": "09/03/2019 00:00:00-0400",
	"Work Type Name": "Oil Work",
	"Filing Type Name": "New Job Filing",
	"LocationBIN": "2008690",
	"Address": "1475 JESUP AVENUE",
	"CommunityBoardNumber": 204,
	"LocationBoroughName": "BRONX",
	"Longitude": -73.91961669921875,
	"Latitude": 40.843170166015625
 },
 {
	"Item Type Name": "Temporary DOB registered oil fired mobile boiler",
	"JFNPermitNumber": "X00179693-I1-LA",
	"FilingNumber": "I1",
	"Created On Date": "06/12/2019 00:00:00-0400",
	"Work Type Name": "Oil Work",
	"Filing Type Name": "New Job Filing",
	"LocationBIN": "2009895",
	"Address": "1898 BELMONT AVENUE",
	"CommunityBoardNumber": 206,
	"LocationBoroughName": "BRONX",
	"Longitude": -73.89246368408203,
	"Latitude": 40.844879150390625
 },
 {
	"Item Type Name": "Temporary Oil Tank (above ground)",
	"JFNPermitNumber": "X00167035-I1-LA",
	"FilingNumber": "I1",
	"Created On Date": "05/14/2019 00:00:00-0400",
	"Work Type Name": "Oil Work",
	"Filing Type Name": "New Job Filing",
	"LocationBIN": "2010002",
	"Address": "801 CROTONA PARK NORTH",
	"CommunityBoardNumber": 206,
	"LocationBoroughName": "BRONX",
	"Longitude": -73.89076232910156,
	"Latitude": 40.84048843383789
 },
 {
	"Item Type Name": "Temporary Oil Tank (above ground)",
	"JFNPermitNumber": "X00111566-I1-LA",
	"FilingNumber": "I1",
	"Created On Date": "12/18/2018 00:00:00-0500",
	"Work Type Name": "Oil Work",
	"Filing Type Name": "New Job Filing",
	"LocationBIN": "2011401",
	"Address": "2377 WASHINGTON AVENUE",
	"CommunityBoardNumber": 206,
	"LocationBoroughName": "BRONX",
	"Longitude": -73.8917465209961,
	"Latitude": 40.85734176635742
 },
 {
	"Item Type Name": "Temporary DOB registered oil fired mobile boiler",
	"JFNPermitNumber": "X00088721-I1-LA",
	"FilingNumber": "I1",
	"Created On Date": "10/16/2018 00:00:00-0400",
	"Work Type Name": "Oil Work",
	"Filing Type Name": "New Job Filing",
	"LocationBIN": "2011401",
	"Address": "2377 WASHINGTON AVENUE",
	"CommunityBoardNumber": 206,
	"LocationBoroughName": "BRONX",
	"Longitude": -73.8917465209961,
	"Latitude": 40.85734176635742
 },
 {
	"Item Type Name": "Temporary DOB registered oil fired mobile boiler",
	"JFNPermitNumber": "X00100641-I1-LA",
	"FilingNumber": "I1",
	"Created On Date": "11/16/2018 00:00:00-0500",
	"Work Type Name": "Oil Work",
	"Filing Type Name": "New Job Filing",
	"LocationBIN": "2011753",
	"Address": "480 EAST  188 STREET",
	"CommunityBoardNumber": 206,
	"LocationBoroughName": "BRONX",
	"Longitude": -73.89031982421875,
	"Latitude": 40.857749938964844
 },
 {
	"Item Type Name": "Temporary Oil Tank (above ground)",
	"JFNPermitNumber": "null",
	"FilingNumber": "P2",
	"Created On Date": "10/31/2019 00:00:00-0400",
	"Work Type Name": "Oil Work",
	"Filing Type Name": "PAA",
	"LocationBIN": "2012565",
	"Address": "2500 BELMONT AVENUE",
	"CommunityBoardNumber": 206,
	"LocationBoroughName": "BRONX",
	"Longitude": -73.88394927978516,
	"Latitude": 40.85715103149414
 },
 {
	"Item Type Name": "Temporary Oil Tank (above ground)",
	"JFNPermitNumber": "X00185239-I1-LA",
	"FilingNumber": "I1",
	"Created On Date": "06/25/2019 00:00:00-0400",
	"Work Type Name": "Oil Work",
	"Filing Type Name": "New Job Filing",
	"LocationBIN": "2012565",
	"Address": "2500 BELMONT AVENUE",
	"CommunityBoardNumber": 206,
	"LocationBoroughName": "BRONX",
	"Longitude": -73.88394927978516,
	"Latitude": 40.85715103149414
 },
 {
	"Item Type Name": "Temporary Oil Tank (above ground)",
	"JFNPermitNumber": "X00162046-I1-LA",
	"FilingNumber": "I1",
	"Created On Date": "05/02/2019 00:00:00-0400",
	"Work Type Name": "Oil Work",
	"Filing Type Name": "New Job Filing",
	"LocationBIN": "2012824",
	"Address": "2308 CROTONA AVENUE",
	"CommunityBoardNumber": 206,
	"LocationBoroughName": "BRONX",
	"Longitude": -73.88416290283203,
	"Latitude": 40.85219955444336
 },
 {
	"Item Type Name": "Temporary DOB registered oil fired mobile boiler",
	"JFNPermitNumber": "X00152958-I1-LA",
	"FilingNumber": "I1",
	"Created On Date": "04/10/2019 00:00:00-0400",
	"Work Type Name": "Oil Work",
	"Filing Type Name": "New Job Filing",
	"LocationBIN": "2014018",
	"Address": "2386 WALTON AVENUE",
	"CommunityBoardNumber": 205,
	"LocationBoroughName": "BRONX",
	"Longitude": -73.90115356445312,
	"Latitude": 40.86056900024414
 },
 {
	"Item Type Name": "Temporary Oil Tank (above ground)",
	"JFNPermitNumber": "X00246580-I1-LA",
	"FilingNumber": "I1",
	"Created On Date": "10/15/2019 00:00:00-0400",
	"Work Type Name": "Oil Work",
	"Filing Type Name": "New Job Filing",
	"LocationBIN": "2014385",
	"Address": "2604 DAVIDSON AVENUE",
	"CommunityBoardNumber": 207,
	"LocationBoroughName": "BRONX",
	"Longitude": -73.89923095703125,
	"Latitude": 40.8663215637207
 },
 {
	"Item Type Name": "Temporary DOB registered oil fired mobile boiler",
	"JFNPermitNumber": "X00108976-I1-LA",
	"FilingNumber": "I1",
	"Created On Date": "12/11/2018 00:00:00-0500",
	"Work Type Name": "Oil Work",
	"Filing Type Name": "New Job Filing",
	"LocationBIN": "2014919",
	"Address": "2295 ANDREWS AVENUE",
	"CommunityBoardNumber": 207,
	"LocationBoroughName": "BRONX",
	"Longitude": -73.90792846679688,
	"Latitude": 40.86124038696289
 },
 {
	"Item Type Name": "Temporary Oil Tank (above ground)",
	"JFNPermitNumber": "X00167310-I1-LA",
	"FilingNumber": "I1",
	"Created On Date": "05/14/2019 00:00:00-0400",
	"Work Type Name": "Oil Work",
	"Filing Type Name": "New Job Filing",
	"LocationBIN": "2015426",
	"Address": "2850 CLAFLIN AVENUE",
	"CommunityBoardNumber": 208,
	"LocationBoroughName": "BRONX",
	"Longitude": -73.89948272705078,
	"Latitude": 40.87303924560547
 },
 {
	"Item Type Name": "Temporary DOB registered oil fired mobile boiler",
	"JFNPermitNumber": "X00137970-I1-LA",
	"FilingNumber": "I1",
	"Created On Date": "03/05/2019 00:00:00-0500",
	"Work Type Name": "Oil Work",
	"Filing Type Name": "New Job Filing",
	"LocationBIN": "2015482",
	"Address": "98 VAN CORTLANDT PARK SOUTH",
	"CommunityBoardNumber": 208,
	"LocationBoroughName": "BRONX",
	"Longitude": -73.89151763916016,
	"Latitude": 40.884639739990234
 },
 {
	"Item Type Name": "Temporary DOB registered oil fired mobile boiler",
	"JFNPermitNumber": "X00097440-I1-LA",
	"FilingNumber": "I1",
	"Created On Date": "11/07/2018 00:00:00-0500",
	"Work Type Name": "Oil Work",
	"Filing Type Name": "New Job Filing",
	"LocationBIN": "2015482",
	"Address": "98 VAN CORTLANDT PARK SOUTH",
	"CommunityBoardNumber": 208,
	"LocationBoroughName": "BRONX",
	"Longitude": -73.89151763916016,
	"Latitude": 40.884639739990234
 },
 {
	"Item Type Name": "Temporary DOB registered oil fired mobile boiler",
	"JFNPermitNumber": "X00209535-I1-LA",
	"FilingNumber": "I1",
	"Created On Date": "08/13/2019 00:00:00-0400",
	"Work Type Name": "Oil Work",
	"Filing Type Name": "New Job Filing",
	"LocationBIN": "2016259",
	"Address": "617 EAST FORDHAM ROAD",
	"CommunityBoardNumber": 206,
	"LocationBoroughName": "BRONX",
	"Longitude": -73.88446807861328,
	"Latitude": 40.8585205078125
 },
 {
	"Item Type Name": "Temporary Oil Tank (above ground)",
	"JFNPermitNumber": "X00255517-I1-LA",
	"FilingNumber": "I1",
	"Created On Date": "10/30/2019 00:00:00-0400",
	"Work Type Name": "Oil Work",
	"Filing Type Name": "New Job Filing",
	"LocationBIN": "2016314",
	"Address": "2578 MARION AVENUE",
	"CommunityBoardNumber": 207,
	"LocationBoroughName": "BRONX",
	"Longitude": -73.8917007446289,
	"Latitude": 40.86328125
 },
 {
	"Item Type Name": "Temporary DOB registered oil fired mobile boiler",
	"JFNPermitNumber": "X00264741-I1-LA",
	"FilingNumber": "I1",
	"Created On Date": "11/13/2019 00:00:00-0500",
	"Work Type Name": "Oil Work",
	"Filing Type Name": "New Job Filing",
	"LocationBIN": "2016355",
	"Address": "389 EAST  194 STREET",
	"CommunityBoardNumber": 207,
	"LocationBoroughName": "BRONX",
	"Longitude": -73.88957214355469,
	"Latitude": 40.86341094970703
 },
 {
	"Item Type Name": "Temporary DOB registered oil fired mobile boiler",
	"JFNPermitNumber": "X00259864-I1-LA",
	"FilingNumber": "I1",
	"Created On Date": "11/07/2019 00:00:00-0500",
	"Work Type Name": "Oil Work",
	"Filing Type Name": "New Job Filing",
	"LocationBIN": "2016462",
	"Address": "367 EAST  201 STREET",
	"CommunityBoardNumber": 207,
	"LocationBoroughName": "BRONX",
	"Longitude": -73.88223266601562,
	"Latitude": 40.86946105957031
 },
 {
	"Item Type Name": "Temporary DOB registered oil fired mobile boiler",
	"JFNPermitNumber": "X00239905-I1-LA",
	"FilingNumber": "I1",
	"Created On Date": "10/03/2019 00:00:00-0400",
	"Work Type Name": "Oil Work",
	"Filing Type Name": "New Job Filing",
	"LocationBIN": "2017000",
	"Address": "2686 VALENTINE AVENUE",
	"CommunityBoardNumber": 207,
	"LocationBoroughName": "BRONX",
	"Longitude": -73.89253234863281,
	"Latitude": 40.86619186401367
 },
 {
	"Item Type Name": "Temporary Oil Tank (above ground)",
	"JFNPermitNumber": "X00175237-I1-LA",
	"FilingNumber": "I1",
	"Created On Date": "06/03/2019 00:00:00-0400",
	"Work Type Name": "Oil Work",
	"Filing Type Name": "New Job Filing",
	"LocationBIN": "2017333",
	"Address": "3176 VILLA AVENUE",
	"CommunityBoardNumber": 207,
	"LocationBoroughName": "BRONX",
	"Longitude": -73.88671875,
	"Latitude": 40.876258850097656
 },
 {
	"Item Type Name": "Temporary Oil Tank (above ground)",
	"JFNPermitNumber": "X00166623-I1-LA",
	"FilingNumber": "I1",
	"Created On Date": "05/13/2019 00:00:00-0400",
	"Work Type Name": "Oil Work",
	"Filing Type Name": "New Job Filing",
	"LocationBIN": "2017492",
	"Address": "2705 MORRIS AVENUE",
	"CommunityBoardNumber": 207,
	"LocationBoroughName": "BRONX",
	"Longitude": -73.89591979980469,
	"Latitude": 40.868038177490234
 },
 {
	"Item Type Name": "Temporary DOB registered oil fired mobile boiler",
	"JFNPermitNumber": "X00103153-I1-LA",
	"FilingNumber": "I1",
	"Created On Date": "11/26/2018 00:00:00-0500",
	"Work Type Name": "Oil Work",
	"Filing Type Name": "New Job Filing",
	"LocationBIN": "2017754",
	"Address": "15 EAST MOSHOLU PARKWAY NORTH",
	"CommunityBoardNumber": 207,
	"LocationBoroughName": "BRONX",
	"Longitude": -73.8833236694336,
	"Latitude": 40.88008117675781
 },
 {
	"Item Type Name": "Temporary DOB registered oil fired mobile boiler",
	"JFNPermitNumber": "X00090984-I1-LA",
	"FilingNumber": "I1",
	"Created On Date": "10/22/2018 00:00:00-0400",
	"Work Type Name": "Oil Work",
	"Filing Type Name": "New Job Filing",
	"LocationBIN": "2017936",
	"Address": "323 EAST MOSHOLU PARKWAY NORTH",
	"CommunityBoardNumber": 207,
	"LocationBoroughName": "BRONX",
	"Longitude": -73.88007354736328,
	"Latitude": 40.87202072143555
 },
 {
	"Item Type Name": "Temporary Oil Tank (above ground)",
	"JFNPermitNumber": "X00110121-I1-LA",
	"FilingNumber": "I1",
	"Created On Date": "12/13/2018 00:00:00-0500",
	"Work Type Name": "Oil Work",
	"Filing Type Name": "New Job Filing",
	"LocationBIN": "2021306",
	"Address": "522 ROSEDALE AVENUE",
	"CommunityBoardNumber": 209,
	"LocationBoroughName": "BRONX",
	"Longitude": -73.8650894165039,
	"Latitude": 40.81536102294922
 },
 {
	"Item Type Name": "Temporary Oil Tank (above ground)",
	"JFNPermitNumber": "X00110126-I1-LA",
	"FilingNumber": "I1",
	"Created On Date": "12/13/2018 00:00:00-0500",
	"Work Type Name": "Oil Work",
	"Filing Type Name": "New Job Filing",
	"LocationBIN": "2021309",
	"Address": "551 COMMONWEALTH AVENUE",
	"CommunityBoardNumber": 209,
	"LocationBoroughName": "BRONX",
	"Longitude": -73.86495971679688,
	"Latitude": 40.81642150878906
 },
 {
	"Item Type Name": "Temporary DOB registered oil fired mobile boiler",
	"JFNPermitNumber": "X00131086-I1-LA",
	"FilingNumber": "I1",
	"Created On Date": "02/14/2019 00:00:00-0500",
	"Work Type Name": "Oil Work",
	"Filing Type Name": "New Job Filing",
	"LocationBIN": "2023475",
	"Address": "1057 BOYNTON AVENUE",
	"CommunityBoardNumber": 209,
	"LocationBoroughName": "BRONX",
	"Longitude": -73.87786865234375,
	"Latitude": 40.825809478759766
 },
 {
	"Item Type Name": "Temporary DOB registered oil fired mobile boiler",
	"JFNPermitNumber": "X00089369-I1-LA",
	"FilingNumber": "I1",
	"Created On Date": "10/17/2018 00:00:00-0400",
	"Work Type Name": "Oil Work",
	"Filing Type Name": "New Job Filing",
	"LocationBIN": "2023883",
	"Address": "1111 WARD AVENUE",
	"CommunityBoardNumber": 209,
	"LocationBoroughName": "BRONX",
	"Longitude": -73.87706756591797,
	"Latitude": 40.82646942138672
 },
 {
	"Item Type Name": "Temporary DOB registered oil fired mobile boiler",
	"JFNPermitNumber": "X00093941-I1-LA",
	"FilingNumber": "I1",
	"Created On Date": "10/30/2018 00:00:00-0400",
	"Work Type Name": "Oil Work",
	"Filing Type Name": "New Job Filing",
	"LocationBIN": "2024862",
	"Address": "1230 LELAND AVENUE",
	"CommunityBoardNumber": 209,
	"LocationBoroughName": "BRONX",
	"Longitude": -73.8630599975586,
	"Latitude": 40.831241607666016
 },
 {
	"Item Type Name": "Temporary DOB registered oil fired mobile boiler",
	"JFNPermitNumber": "Permit Not Yet Issued",
	"FilingNumber": "I1",
	"Created On Date": "11/04/2018 00:00:00-0400",
	"Work Type Name": "Oil Work",
	"Filing Type Name": "New Job Filing",
	"LocationBIN": "2024880",
	"Address": "1901 GLEASON AVENUE",
	"CommunityBoardNumber": 209,
	"LocationBoroughName": "BRONX",
	"Longitude": -73.86131286621094,
	"Latitude": 40.830718994140625
 },
 {
	"Item Type Name": "Temporary DOB registered oil fired mobile boiler",
	"JFNPermitNumber": "X00221502-I1-LA",
	"FilingNumber": "I1",
	"Created On Date": "09/04/2019 00:00:00-0400",
	"Work Type Name": "Oil Work",
	"Filing Type Name": "New Job Filing",
	"LocationBIN": "2025696",
	"Address": "1075 PUGSLEY AVENUE",
	"CommunityBoardNumber": 209,
	"LocationBoroughName": "BRONX",
	"Longitude": -73.8573989868164,
	"Latitude": 40.8284797668457
 },
 {
	"Item Type Name": "Temporary Oil Tank (above ground)",
	"JFNPermitNumber": "X00256531-I1-LA",
	"FilingNumber": "I1",
	"Created On Date": "10/31/2019 00:00:00-0400",
	"Work Type Name": "Oil Work",
	"Filing Type Name": "New Job Filing",
	"LocationBIN": "2026218",
	"Address": "2037 POWELL AVENUE",
	"CommunityBoardNumber": 209,
	"LocationBoroughName": "BRONX",
	"Longitude": -73.85555267333984,
	"Latitude": 40.830810546875
 },
 {
	"Item Type Name": "Temporary DOB registered oil fired mobile boiler",
	"JFNPermitNumber": "X00252003-I1-LA",
	"FilingNumber": "I1",
	"Created On Date": "10/24/2019 00:00:00-0400",
	"Work Type Name": "Oil Work",
	"Filing Type Name": "New Job Filing",
	"LocationBIN": "2028357",
	"Address": "1104 EAST TREMONT AVENUE",
	"CommunityBoardNumber": 206,
	"LocationBoroughName": "BRONX",
	"Longitude": -73.87722778320312,
	"Latitude": 40.83974838256836
 },
 {
	"Item Type Name": "Temporary DOB registered oil fired mobile boiler",
	"JFNPermitNumber": "X00089661-I1-LA",
	"FilingNumber": "I1",
	"Created On Date": "10/18/2018 00:00:00-0400",
	"Work Type Name": "Oil Work",
	"Filing Type Name": "New Job Filing",
	"LocationBIN": "2028626",
	"Address": "1534 BEACH AVENUE",
	"CommunityBoardNumber": 209,
	"LocationBoroughName": "BRONX",
	"Longitude": -73.86711120605469,
	"Latitude": 40.838890075683594
 },
 {
	"Item Type Name": "Temporary Oil Tank (above ground)",
	"JFNPermitNumber": "X00252272-I1-LA",
	"FilingNumber": "I1",
	"Created On Date": "10/24/2019 00:00:00-0400",
	"Work Type Name": "Oil Work",
	"Filing Type Name": "New Job Filing",
	"LocationBIN": "2046201",
	"Address": "3121 MIDDLETOWN ROAD",
	"CommunityBoardNumber": 210,
	"LocationBoroughName": "BRONX",
	"Longitude": -73.82653045654297,
	"Latitude": 40.845558166503906
 },
 {
	"Item Type Name": "Temporary DOB registered oil fired mobile boiler",
	"JFNPermitNumber": "X00108772-I1-LA",
	"FilingNumber": "I1",
	"Created On Date": "12/11/2018 00:00:00-0500",
	"Work Type Name": "Oil Work",
	"Filing Type Name": "New Job Filing",
	"LocationBIN": "2049390",
	"Address": "626 PELHAM PARKWAY",
	"CommunityBoardNumber": 211,
	"LocationBoroughName": "BRONX",
	"Longitude": -73.86837005615234,
	"Latitude": 40.85639953613281
 },
 {
	"Item Type Name": "Temporary Oil Tank (above ground)",
	"JFNPermitNumber": "X00149387-I1-LA",
	"FilingNumber": "I1",
	"Created On Date": "04/02/2019 00:00:00-0400",
	"Work Type Name": "Oil Work",
	"Filing Type Name": "New Job Filing",
	"LocationBIN": "2049528",
	"Address": "2155 PAULDING AVENUE",
	"CommunityBoardNumber": 211,
	"LocationBoroughName": "BRONX",
	"Longitude": -73.86070251464844,
	"Latitude": 40.85523986816406
 },
 {
	"Item Type Name": "Temporary Oil Tank (above ground)",
	"JFNPermitNumber": "X00255692-I1-LA",
	"FilingNumber": "I1",
	"Created On Date": "10/30/2019 00:00:00-0400",
	"Work Type Name": "Oil Work",
	"Filing Type Name": "New Job Filing",
	"LocationBIN": "2055700",
	"Address": "827 ADEE AVENUE",
	"CommunityBoardNumber": 212,
	"LocationBoroughName": "BRONX",
	"Longitude": -73.86213684082031,
	"Latitude": 40.86988067626953
 },