[
 {
	"Item Type Name": "Temporary DOB registered oil fired mobile boiler",
	"JFNPermitNumber": "",
	"FilingNumber": "P1",
	"Created On Date": "2020/12/15 12:00:00",
	"Work Type Name": "Oil Work",
	"Filing Type Name": "PAA",
	"LocationBIN": "2065992",
	"Address": "3740 BAYCHESTER AVENUE",
	"CommunityBoardNumber": "212",
	"LocationBoroughName": "BRONX",
	"Longitude": -73.8393325805664,
	"Latitude": 40.8844413757324
 },
 {
	"Item Type Name": "Temporary DOB registered oil fired mobile boiler",
	"JFNPermitNumber": "M00521568-I1-LA",
	"FilingNumber": "I1",
	"Created On Date": "2021/5/13 12:00:00",
	"Work Type Name": "Oil Work",
	"Filing Type Name": "New Job Filing",
	"LocationBIN": "1008954",
	"Address": "70 EAST   10 STREET",
	"CommunityBoardNumber": "102",
	"LocationBoroughName": "MANHATTAN",
	"Longitude": -73.991096496582,
	"Latitude": 40.7311897277832
 },
 {
	"Item Type Name": "Temporary DOB registered oil fired mobile boiler",
	"JFNPermitNumber": "X00368702-I1-LA",
	"FilingNumber": "I1",
	"Created On Date": "2020/7/9 12:00:00",
	"Work Type Name": "Oil Work",
	"Filing Type Name": "New Job Filing",
	"LocationBIN": "2072410",
	"Address": "2244 TILLOTSON AVENUE",
	"CommunityBoardNumber": "210",
	"LocationBoroughName": "BRONX",
	"Longitude": -73.8281021118164,
	"Latitude": 40.8815383911133
 },
 {
	"Item Type Name": "Temporary DOB registered oil fired mobile boiler",
	"JFNPermitNumber": "Permit Not Yet Issued",
	"FilingNumber": "I1",
	"Created On Date": "2019/8/22 12:00:00",
	"Work Type Name": "Oil Work",
	"Filing Type Name": "New Job Filing",
	"LocationBIN": "2078259",
	"Address": "3255 RANDALL AVENUE",
	"CommunityBoardNumber": "210",
	"LocationBoroughName": "BRONX",
	"Longitude": -73.8143310546875,
	"Latitude": 40.8301086425781
 },
 {
	"Item Type Name": "Temporary DOB registered oil fired mobile boiler",
	"JFNPermitNumber": "X00557137-I1-LA",
	"FilingNumber": "I1",
	"Created On Date": "2021/7/13 12:00:00",
	"Work Type Name": "Oil Work",
	"Filing Type Name": "New Job Filing",
	"LocationBIN": "2083151",
	"Address": "3034 KINGSBRIDGE AVENUE",
	"CommunityBoardNumber": "208",
	"LocationBoroughName": "BRONX",
	"Longitude": -73.9069290161133,
	"Latitude": 40.8790283203125
 },
 {
	"Item Type Name": "Temporary DOB registered oil fired mobile boiler",
	"JFNPermitNumber": "X00088503-S1-LA",
	"FilingNumber": "S1",
	"Created On Date": "2019/4/29 12:00:00",
	"Work Type Name": "Oil Work",
	"Filing Type Name": "Subsequent Filing",
	"LocationBIN": "2083246",
	"Address": "555 KAPPOCK STREET",
	"CommunityBoardNumber": "208",
	"LocationBoroughName": "BRONX",
	"Longitude": -73.916862487793,
	"Latitude": 40.8780899047852
 },
 {
	"Item Type Name": "Temporary DOB registered oil fired mobile boiler",
	"JFNPermitNumber": "X00088503-I1-LA",
	"FilingNumber": "I1",
	"Created On Date": "2018/10/16 12:00:00",
	"Work Type Name": "Oil Work",
	"Filing Type Name": "New Job Filing",
	"LocationBIN": "2083246",
	"Address": "555 KAPPOCK STREET",
	"CommunityBoardNumber": "208",
	"LocationBoroughName": "BRONX",
	"Longitude": -73.916862487793,
	"Latitude": 40.8780899047852
 },
 {
	"Item Type Name": "Temporary DOB registered oil fired mobile boiler",
	"JFNPermitNumber": "M00370549-I1-LA",
	"FilingNumber": "I1",
	"Created On Date": "2020/7/14 12:00:00",
	"Work Type Name": "Oil Work",
	"Filing Type Name": "New Job Filing",
	"LocationBIN": "1036068",
	"Address": "470 PARK AVENUE",
	"CommunityBoardNumber": "105",
	"LocationBoroughName": "MANHATTAN",
	"Longitude": -73.9707717895508,
	"Latitude": 40.7622489929199
 },
 {
	"Item Type Name": "Temporary DOB registered oil fired mobile boiler",
	"JFNPermitNumber": "",
	"FilingNumber": "P1",
	"Created On Date": "2020/12/23 12:00:00",
	"Work Type Name": "Oil Work",
	"Filing Type Name": "PAA",
	"LocationBIN": "2083859",
	"Address": "3605 KINGSBRIDGE AVENUE",
	"CommunityBoardNumber": "208",
	"LocationBoroughName": "BRONX",
	"Longitude": -73.9026031494141,
	"Latitude": 40.8841590881348
 },
 {
	"Item Type Name": "Temporary DOB registered oil fired mobile boiler",
	"JFNPermitNumber": "X00417945-I1-LA",
	"FilingNumber": "I1",
	"Created On Date": "2020/10/22 12:00:00",
	"Work Type Name": "Oil Work",
	"Filing Type Name": "New Job Filing",
	"LocationBIN": "2084353",
	"Address": "6125 BROADWAY",
	"CommunityBoardNumber": "208",
	"LocationBoroughName": "BRONX",
	"Longitude": -73.8968734741211,
	"Latitude": 40.8942604064941
 },
 {
	"Item Type Name": "Temporary DOB registered oil fired mobile boiler",
	"JFNPermitNumber": "",
	"FilingNumber": "P1",
	"Created On Date": "2020/2/20 12:00:00",
	"Work Type Name": "Oil Work",
	"Filing Type Name": "PAA",
	"LocationBIN": "1036480",
	"Address": "123 EAST   54 STREET",
	"CommunityBoardNumber": "105",
	"LocationBoroughName": "MANHATTAN",
	"Longitude": -73.971076965332,
	"Latitude": 40.7594795227051
 },
 {
	"Item Type Name": "Temporary DOB registered oil fired mobile boiler",
	"JFNPermitNumber": "X00609714-I1-LA",
	"FilingNumber": "I1",
	"Created On Date": "2021/10/11 12:00:00",
	"Work Type Name": "Oil Work",
	"Filing Type Name": "New Job Filing",
	"LocationBIN": "2085773",
	"Address": "3333 HENRY HUDSON PARKWAY",
	"CommunityBoardNumber": "208",
	"LocationBoroughName": "BRONX",
	"Longitude": -73.9145431518555,
	"Latitude": 40.8854713439941
 },
 {
	"Item Type Name": "Temporary DOB registered oil fired mobile boiler",
	"JFNPermitNumber": "M00318869-I1-LA",
	"FilingNumber": "I1",
	"Created On Date": "2020/2/20 12:00:00",
	"Work Type Name": "Oil Work",
	"Filing Type Name": "New Job Filing",
	"LocationBIN": "1036480",
	"Address": "123 EAST   54 STREET",
	"CommunityBoardNumber": "105",
	"LocationBoroughName": "MANHATTAN",
	"Longitude": -73.971076965332,
	"Latitude": 40.7594795227051
 },
 {
	"Item Type Name": "Temporary DOB registered oil fired mobile boiler",
	"JFNPermitNumber": "X00693249-I1-LA",
	"FilingNumber": "I1",
	"Created On Date": "2022/3/7 12:00:00",
	"Work Type Name": "Oil Work",
	"Filing Type Name": "New Job Filing",
	"LocationBIN": "2086835",
	"Address": "3320 BAILEY AVENUE",
	"CommunityBoardNumber": "208",
	"LocationBoroughName": "BRONX",
	"Longitude": -73.9001922607422,
	"Latitude": 40.8795394897461
 },
 {
	"Item Type Name": "Temporary DOB registered oil fired mobile boiler",
	"JFNPermitNumber": "X00620557-I1-LA",
	"FilingNumber": "I1",
	"Created On Date": "2021/10/28 12:00:00",
	"Work Type Name": "Oil Work",
	"Filing Type Name": "New Job Filing",
	"LocationBIN": "2087014",
	"Address": "1025 MORRISON AVENUE",
	"CommunityBoardNumber": "209",
	"LocationBoroughName": "BRONX",
	"Longitude": -73.8740997314453,
	"Latitude": 40.8254508972168
 },
 {
	"Item Type Name": "Temporary DOB registered oil fired mobile boiler",
	"JFNPermitNumber": "Permit Not Yet Issued",
	"FilingNumber": "I1",
	"Created On Date": "2022/1/28 12:00:00",
	"Work Type Name": "Oil Work",
	"Filing Type Name": "New Job Filing",
	"LocationBIN": "2087149",
	"Address": "1617 PARKVIEW AVENUE",
	"CommunityBoardNumber": "210",
	"LocationBoroughName": "BRONX",
	"Longitude": -73.8272705078125,
	"Latitude": 40.8453407287598
 },
 {
	"Item Type Name": "Temporary DOB registered oil fired mobile boiler",
	"JFNPermitNumber": "X00444627-I1-LA",
	"FilingNumber": "I1",
	"Created On Date": "2020/12/23 12:00:00",
	"Work Type Name": "Oil Work",
	"Filing Type Name": "New Job Filing",
	"LocationBIN": "2087156",
	"Address": "1911 HONE AVENUE",
	"CommunityBoardNumber": "211",
	"LocationBoroughName": "BRONX",
	"Longitude": -73.85693359375,
	"Latitude": 40.8510284423828
 },
 {
	"Item Type Name": "Temporary DOB registered oil fired mobile boiler",
	"JFNPermitNumber": "X00259500-I1-LA",
	"FilingNumber": "I1",
	"Created On Date": "2019/11/5 12:00:00",
	"Work Type Name": "Oil Work",
	"Filing Type Name": "New Job Filing",
	"LocationBIN": "2087375",
	"Address": "3893 DYRE AVENUE",
	"CommunityBoardNumber": "212",
	"LocationBoroughName": "BRONX",
	"Longitude": -73.831787109375,
	"Latitude": 40.8887596130371
 },
 {
	"Item Type Name": "Temporary DOB registered oil fired mobile boiler",
	"JFNPermitNumber": "X00109980-I1-LA",
	"FilingNumber": "I1",
	"Created On Date": "2018/12/13 12:00:00",
	"Work Type Name": "Oil Work",
	"Filing Type Name": "New Job Filing",
	"LocationBIN": "2088351",
	"Address": "480 EAST  185 STREET",
	"CommunityBoardNumber": "206",
	"LocationBoroughName": "BRONX",
	"Longitude": -73.8919296264648,
	"Latitude": 40.8561592102051
 },
 {
	"Item Type Name": "Temporary DOB registered oil fired mobile boiler",
	"JFNPermitNumber": "M00342019-I1-LA",
	"FilingNumber": "I1",
	"Created On Date": "2020/4/15 12:00:00",
	"Work Type Name": "Oil Work",
	"Filing Type Name": "New Job Filing",
	"LocationBIN": "1037599",
	"Address": "212 EAST   47 STREET",
	"CommunityBoardNumber": "106",
	"LocationBoroughName": "MANHATTAN",
	"Longitude": -73.9716567993164,
	"Latitude": 40.7532691955566
 },
 {
	"Item Type Name": "Temporary DOB registered oil fired mobile boiler",
	"JFNPermitNumber": "M00270048-I1-LA",
	"FilingNumber": "I1",
	"Created On Date": "2019/11/21 12:00:00",
	"Work Type Name": "Oil Work",
	"Filing Type Name": "New Job Filing",
	"LocationBIN": "1037599",
	"Address": "212 EAST   47 STREET",
	"CommunityBoardNumber": "106",
	"LocationBoroughName": "MANHATTAN",
	"Longitude": -73.9716567993164,
	"Latitude": 40.7532691955566
 },
 {
	"Item Type Name": "Temporary DOB registered oil fired mobile boiler",
	"JFNPermitNumber": "M00588434-I1-LA",
	"FilingNumber": "I1",
	"Created On Date": "2021/9/3 12:00:00",
	"Work Type Name": "Oil Work",
	"Filing Type Name": "New Job Filing",
	"LocationBIN": "1037992",
	"Address": "230 EAST   48 STREET",
	"CommunityBoardNumber": "106",
	"LocationBoroughName": "MANHATTAN",
	"Longitude": -73.9705123901367,
	"Latitude": 40.7538299560547
 },
 {
	"Item Type Name": "Temporary DOB registered oil fired mobile boiler",
	"JFNPermitNumber": "",
	"FilingNumber": "P1",
	"Created On Date": "2020/8/13 12:00:00",
	"Work Type Name": "Oil Work",
	"Filing Type Name": "PAA",
	"LocationBIN": "2091126",
	"Address": "320 MORRIS AVENUE",
	"CommunityBoardNumber": "201",
	"LocationBoroughName": "BRONX",
	"Longitude": -73.9246292114258,
	"Latitude": 40.8132400512695
 },
 {
	"Item Type Name": "Temporary DOB registered oil fired mobile boiler",
	"JFNPermitNumber": "X00314446-I1-LA",
	"FilingNumber": "I1",
	"Created On Date": "2020/2/12 12:00:00",
	"Work Type Name": "Oil Work",
	"Filing Type Name": "New Job Filing",
	"LocationBIN": "2091126",
	"Address": "320 MORRIS AVENUE",
	"CommunityBoardNumber": "201",
	"LocationBoroughName": "BRONX",
	"Longitude": -73.9246292114258,
	"Latitude": 40.8132400512695
 },
 {
	"Item Type Name": "Temporary DOB registered oil fired mobile boiler",
	"JFNPermitNumber": "X00454915-I1-LA",
	"FilingNumber": "I1",
	"Created On Date": "2021/1/15 12:00:00",
	"Work Type Name": "Oil Work",
	"Filing Type Name": "New Job Filing",
	"LocationBIN": "2091132",
	"Address": "314 EAST  143 STREET",
	"CommunityBoardNumber": "201",
	"LocationBoroughName": "BRONX",
	"Longitude": -73.9246292114258,
	"Latitude": 40.8132400512695
 },
 {
	"Item Type Name": "Temporary DOB registered oil fired mobile boiler",
	"JFNPermitNumber": "",
	"FilingNumber": "P1",
	"Created On Date": "2020/1/8 12:00:00",
	"Work Type Name": "Oil Work",
	"Filing Type Name": "PAA",
	"LocationBIN": "2092142",
	"Address": "1805 CROTONA AVENUE",
	"CommunityBoardNumber": "206",
	"LocationBoroughName": "BRONX",
	"Longitude": -73.8943176269531,
	"Latitude": 40.8430099487305
 },
 {
	"Item Type Name": "Temporary DOB registered oil fired mobile boiler",
	"JFNPermitNumber": "X00260345-I1-LA",
	"FilingNumber": "I1",
	"Created On Date": "2019/11/6 12:00:00",
	"Work Type Name": "Oil Work",
	"Filing Type Name": "New Job Filing",
	"LocationBIN": "2092142",
	"Address": "1805 CROTONA AVENUE",
	"CommunityBoardNumber": "206",
	"LocationBoroughName": "BRONX",
	"Longitude": -73.8943176269531,
	"Latitude": 40.8430099487305
 },
 {
	"Item Type Name": "Temporary DOB registered oil fired mobile boiler",
	"JFNPermitNumber": "X00199281-I1-LA",
	"FilingNumber": "I1",
	"Created On Date": "2019/7/24 12:00:00",
	"Work Type Name": "Oil Work",
	"Filing Type Name": "New Job Filing",
	"LocationBIN": "2092142",
	"Address": "1805 CROTONA AVENUE",
	"CommunityBoardNumber": "206",
	"LocationBoroughName": "BRONX",
	"Longitude": -73.8943176269531,
	"Latitude": 40.8430099487305
 },
 {
	"Item Type Name": "Temporary DOB registered oil fired mobile boiler",
	"JFNPermitNumber": "X00530663-I1-LA",
	"FilingNumber": "I1",
	"Created On Date": "2021/5/28 12:00:00",
	"Work Type Name": "Oil Work",
	"Filing Type Name": "New Job Filing",
	"LocationBIN": "2092453",
	"Address": "2741 SEDGWICK AVENUE",
	"CommunityBoardNumber": "208",
	"LocationBoroughName": "BRONX",
	"Longitude": -73.9030532836914,
	"Latitude": 40.8706817626953
 },
 {
	"Item Type Name": "Temporary DOB registered oil fired mobile boiler",
	"JFNPermitNumber": "X00503064-I1-LA",
	"FilingNumber": "I1",
	"Created On Date": "2021/4/13 12:00:00",
	"Work Type Name": "Oil Work",
	"Filing Type Name": "New Job Filing",
	"LocationBIN": "2092455",
	"Address": "2719 SEDGWICK AVENUE",
	"CommunityBoardNumber": "208",
	"LocationBoroughName": "BRONX",
	"Longitude": -73.9030532836914,
	"Latitude": 40.8706817626953
 },
 {
	"Item Type Name": "Temporary DOB registered oil fired mobile boiler",
	"JFNPermitNumber": "X00435019-I1-LA",
	"FilingNumber": "I1",
	"Created On Date": "2020/12/2 12:00:00",
	"Work Type Name": "Oil Work",
	"Filing Type Name": "New Job Filing",
	"LocationBIN": "2092659",
	"Address": "615 ROSEDALE AVENUE",
	"CommunityBoardNumber": "209",
	"LocationBoroughName": "BRONX",
	"Longitude": -73.8680267333984,
	"Latitude": 40.8175811767578
 },
 {
	"Item Type Name": "Temporary DOB registered oil fired mobile boiler",
	"JFNPermitNumber": "X00225817-I1-LA",
	"FilingNumber": "I1",
	"Created On Date": "2019/9/11 12:00:00",
	"Work Type Name": "Oil Work",
	"Filing Type Name": "New Job Filing",
	"LocationBIN": "2092718",
	"Address": "755 WHITE PLAINS ROAD",
	"CommunityBoardNumber": "209",
	"LocationBoroughName": "BRONX",
	"Longitude": -73.8590927124023,
	"Latitude": 40.8208808898926
 },
 {
	"Item Type Name": "Temporary DOB registered oil fired mobile boiler",
	"JFNPermitNumber": "X00097024-I1-LA",
	"FilingNumber": "I1",
	"Created On Date": "2018/11/6 12:00:00",
	"Work Type Name": "Oil Work",
	"Filing Type Name": "New Job Filing",
	"LocationBIN": "2092759",
	"Address": "820 THERIOT AVENUE",
	"CommunityBoardNumber": "209",
	"LocationBoroughName": "BRONX",
	"Longitude": -73.8618316650391,
	"Latitude": 40.8220481872559
 },
 {
	"Item Type Name": "Temporary DOB registered oil fired mobile boiler",
	"JFNPermitNumber": "X00432252-I1-LA",
	"FilingNumber": "I1",
	"Created On Date": "2020/11/23 12:00:00",
	"Work Type Name": "Oil Work",
	"Filing Type Name": "New Job Filing",
	"LocationBIN": "2092798",
	"Address": "1750 WATSON AVENUE",
	"CommunityBoardNumber": "209",
	"LocationBoroughName": "BRONX",
	"Longitude": -73.8665008544922,
	"Latitude": 40.8265113830566
 },
 {
	"Item Type Name": "Temporary DOB registered oil fired mobile boiler",
	"JFNPermitNumber": "M00088020-I1-LA",
	"FilingNumber": "I1",
	"Created On Date": "2018/10/15 12:00:00",
	"Work Type Name": "Oil Work",
	"Filing Type Name": "New Job Filing",
	"LocationBIN": "1037995",
	"Address": "212 EAST   48 STREET",
	"CommunityBoardNumber": "106",
	"LocationBoroughName": "MANHATTAN",
	"Longitude": -73.9710464477539,
	"Latitude": 40.7540588378906
 },
 {
	"Item Type Name": "Temporary DOB registered oil fired mobile boiler",
	"JFNPermitNumber": "X00397337-I1-LA",
	"FilingNumber": "I1",
	"Created On Date": "2020/9/14 12:00:00",
	"Work Type Name": "Oil Work",
	"Filing Type Name": "New Job Filing",
	"LocationBIN": "2093287",
	"Address": "764 BRADY AVENUE",
	"CommunityBoardNumber": "211",
	"LocationBoroughName": "BRONX",
	"Longitude": -73.8655776977539,
	"Latitude": 40.8514518737793
 },
 {
	"Item Type Name": "Temporary DOB registered oil fired mobile boiler",
	"JFNPermitNumber": "X00097958-I1-LA",
	"FilingNumber": "I1",
	"Created On Date": "2018/11/8 12:00:00",
	"Work Type Name": "Oil Work",
	"Filing Type Name": "New Job Filing",
	"LocationBIN": "2093290",
	"Address": "2106 WALLACE AVENUE",
	"CommunityBoardNumber": "211",
	"LocationBoroughName": "BRONX",
	"Longitude": -73.8643798828125,
	"Latitude": 40.8533782958984
 },
 {
	"Item Type Name": "Temporary DOB registered oil fired mobile boiler",
	"JFNPermitNumber": "X00410179-I1-LA",
	"FilingNumber": "I1",
	"Created On Date": "2020/10/7 12:00:00",
	"Work Type Name": "Oil Work",
	"Filing Type Name": "New Job Filing",
	"LocationBIN": "2093923",
	"Address": "304 EAST  156 STREET",
	"CommunityBoardNumber": "201",
	"LocationBoroughName": "BRONX",
	"Longitude": -73.919548034668,
	"Latitude": 40.8207588195801
 },
 {
	"Item Type Name": "Temporary DOB registered oil fired mobile boiler",
	"JFNPermitNumber": "M00525657-I1-LA",
	"FilingNumber": "I1",
	"Created On Date": "2021/5/20 12:00:00",
	"Work Type Name": "Oil Work",
	"Filing Type Name": "New Job Filing",
	"LocationBIN": "1038656",
	"Address": "320 EAST   42 STREET",
	"CommunityBoardNumber": "106",
	"LocationBoroughName": "MANHATTAN",
	"Longitude": -73.9714813232422,
	"Latitude": 40.749210357666
 },
 {
	"Item Type Name": "Temporary DOB registered oil fired mobile boiler",
	"JFNPermitNumber": "X00317644-I1-LA",
	"FilingNumber": "I1",
	"Created On Date": "2020/2/18 12:00:00",
	"Work Type Name": "Oil Work",
	"Filing Type Name": "New Job Filing",
	"LocationBIN": "2097378",
	"Address": "2316 BRUNER AVENUE",
	"CommunityBoardNumber": "211",
	"LocationBoroughName": "BRONX",
	"Longitude": -73.8330535888672,
	"Latitude": 40.8592491149902
 },
 {
	"Item Type Name": "Temporary DOB registered oil fired mobile boiler",
	"JFNPermitNumber": "X00628712-I1-LA",
	"FilingNumber": "I1",
	"Created On Date": "2021/11/10 12:00:00",
	"Work Type Name": "Oil Work",
	"Filing Type Name": "New Job Filing",
	"LocationBIN": "2097548",
	"Address": "2035 EASTCHESTER ROAD",
	"CommunityBoardNumber": "211",
	"LocationBoroughName": "BRONX",
	"Longitude": -73.8446578979492,
	"Latitude": 40.8536796569824
 },
 {
	"Item Type Name": "Temporary DOB registered oil fired mobile boiler",
	"JFNPermitNumber": "M00147096-I1-LA",
	"FilingNumber": "I1",
	"Created On Date": "2019/3/27 12:00:00",
	"Work Type Name": "Oil Work",
	"Filing Type Name": "New Job Filing",
	"LocationBIN": "1039659",
	"Address": "349 EAST   51 STREET",
	"CommunityBoardNumber": "106",
	"LocationBoroughName": "MANHATTAN",
	"Longitude": -73.9661483764648,
	"Latitude": 40.754940032959
 },
 {
	"Item Type Name": "Temporary DOB registered oil fired mobile boiler",
	"JFNPermitNumber": "",
	"FilingNumber": "P1",
	"Created On Date": "2020/4/2 12:00:00",
	"Work Type Name": "Oil Work",
	"Filing Type Name": "PAA",
	"LocationBIN": "2102035",
	"Address": "499 EAST FORDHAM ROAD",
	"CommunityBoardNumber": "206",
	"LocationBoroughName": "BRONX",
	"Longitude": -73.8853302001953,
	"Latitude": 40.861629486084
 },
 {
	"Item Type Name": "Temporary DOB registered oil fired mobile boiler",
	"JFNPermitNumber": "",
	"FilingNumber": "P1",
	"Created On Date": "2019/8/30 12:00:00",
	"Work Type Name": "Oil Work",
	"Filing Type Name": "PAA",
	"LocationBIN": "2102035",
	"Address": "499 EAST FORDHAM ROAD",
	"CommunityBoardNumber": "206",
	"LocationBoroughName": "BRONX",
	"Longitude": -73.8853302001953,
	"Latitude": 40.861629486084
 },
 {
	"Item Type Name": "Temporary DOB registered oil fired mobile boiler",
	"JFNPermitNumber": "X00303304-I1-LA",
	"FilingNumber": "I1",
	"Created On Date": "2020/1/24 12:00:00",
	"Work Type Name": "Oil Work",
	"Filing Type Name": "New Job Filing",
	"LocationBIN": "2102035",
	"Address": "499 EAST FORDHAM ROAD",
	"CommunityBoardNumber": "206",
	"LocationBoroughName": "BRONX",
	"Longitude": -73.8853302001953,
	"Latitude": 40.861629486084
 },
 {
	"Item Type Name": "Temporary DOB registered oil fired mobile boiler",
	"JFNPermitNumber": "X00199360-I1-LA",
	"FilingNumber": "I1",
	"Created On Date": "2019/7/24 12:00:00",
	"Work Type Name": "Oil Work",
	"Filing Type Name": "New Job Filing",
	"LocationBIN": "2102035",
	"Address": "499 EAST FORDHAM ROAD",
	"CommunityBoardNumber": "206",
	"LocationBoroughName": "BRONX",
	"Longitude": -73.8853302001953,
	"Latitude": 40.861629486084
 },
 {
	"Item Type Name": "Temporary DOB registered oil fired mobile boiler",
	"JFNPermitNumber": "X00188242-I1-LA",
	"FilingNumber": "I1",
	"Created On Date": "2019/7/16 12:00:00",
	"Work Type Name": "Oil Work",
	"Filing Type Name": "New Job Filing",
	"LocationBIN": "2102035",
	"Address": "499 EAST FORDHAM ROAD",
	"CommunityBoardNumber": "206",
	"LocationBoroughName": "BRONX",
	"Longitude": -73.8853302001953,
	"Latitude": 40.861629486084
 },
 {
	"Item Type Name": "Temporary DOB registered oil fired mobile boiler",
	"JFNPermitNumber": "X00395257-I1-LA",
	"FilingNumber": "I1",
	"Created On Date": "2020/9/4 12:00:00",
	"Work Type Name": "Oil Work",
	"Filing Type Name": "New Job Filing",
	"LocationBIN": "2109662",
	"Address": "1229 CLAY AVENUE",
	"CommunityBoardNumber": "204",
	"LocationBoroughName": "BRONX",
	"Longitude": -73.9103164672852,
	"Latitude": 40.8334007263184
 },
 {
	"Item Type Name": "Temporary DOB registered oil fired mobile boiler",
	"JFNPermitNumber": "M00090834-I1-LA",
	"FilingNumber": "I1",
	"Created On Date": "2018/10/22 12:00:00",
	"Work Type Name": "Oil Work",
	"Filing Type Name": "New Job Filing",
	"LocationBIN": "1040138",
	"Address": "439 EAST   51 STREET",
	"CommunityBoardNumber": "106",
	"LocationBoroughName": "MANHATTAN",
	"Longitude": -73.9641036987305,
	"Latitude": 40.7540702819824
 },
 {
	"Item Type Name": "Temporary DOB registered oil fired mobile boiler",
	"JFNPermitNumber": "X00120013-I1-LA",
	"FilingNumber": "I1",
	"Created On Date": "2019/1/16 12:00:00",
	"Work Type Name": "Oil Work",
	"Filing Type Name": "New Job Filing",
	"LocationBIN": "2120210",
	"Address": "1880 BOSTON ROAD",
	"CommunityBoardNumber": "206",
	"LocationBoroughName": "BRONX",
	"Longitude": -73.8826293945313,
	"Latitude": 40.8392105102539
 },
 {
	"Item Type Name": "Temporary DOB registered oil fired mobile boiler",
	"JFNPermitNumber": "X00670310-I1-LA",
	"FilingNumber": "I1",
	"Created On Date": "2022/1/27 12:00:00",
	"Work Type Name": "Oil Work",
	"Filing Type Name": "New Job Filing",
	"LocationBIN": "2127010",
	"Address": "391 BRONX RIVER AVENUE",
	"CommunityBoardNumber": "209",
	"LocationBoroughName": "BRONX",
	"Longitude": -73.8673400878906,
	"Latitude": 40.8150405883789
 },
 {
	"Item Type Name": "Temporary DOB registered oil fired mobile boiler",
	"JFNPermitNumber": "X00633909-I1-LA",
	"FilingNumber": "I1",
	"Created On Date": "2021/11/18 12:00:00",
	"Work Type Name": "Oil Work",
	"Filing Type Name": "New Job Filing",
	"LocationBIN": "2128910",
	"Address": "225 EAST  179 STREET",
	"CommunityBoardNumber": "205",
	"LocationBoroughName": "BRONX",
	"Longitude": -73.9033279418945,
	"Latitude": 40.8510284423828
 },
 {
	"Item Type Name": "Temporary DOB registered oil fired mobile boiler",
	"JFNPermitNumber": "X00671203-I1-LA",
	"FilingNumber": "I1",
	"Created On Date": "2022/1/28 12:00:00",
	"Work Type Name": "Oil Work",
	"Filing Type Name": "New Job Filing",
	"LocationBIN": "2129428",
	"Address": "2195 MORRIS AVENUE",
	"CommunityBoardNumber": "205",
	"LocationBoroughName": "BRONX",
	"Longitude": -73.9033432006836,
	"Latitude": 40.8563499450684
 },
 {
	"Item Type Name": "Temporary DOB registered oil fired mobile boiler",
	"JFNPermitNumber": "X00628811-I1-LA",
	"FilingNumber": "I1",
	"Created On Date": "2021/11/17 12:00:00",
	"Work Type Name": "Oil Work",
	"Filing Type Name": "New Job Filing",
	"LocationBIN": "2129428",
	"Address": "2195 MORRIS AVENUE",
	"CommunityBoardNumber": "205",
	"LocationBoroughName": "BRONX",
	"Longitude": -73.9033432006836,
	"Latitude": 40.8563499450684
 },
 {
	"Item Type Name": "Temporary DOB registered oil fired mobile boiler",
	"JFNPermitNumber": "",
	"FilingNumber": "P1",
	"Created On Date": "2020/1/21 12:00:00",
	"Work Type Name": "Oil Work",
	"Filing Type Name": "PAA",
	"LocationBIN": "1040472",
	"Address": "430 EAST   57 STREET",
	"CommunityBoardNumber": "106",
	"LocationBoroughName": "MANHATTAN",
	"Longitude": -73.9619369506836,
	"Latitude": 40.757568359375
 },
 {
	"Item Type Name": "Temporary DOB registered oil fired mobile boiler",
	"JFNPermitNumber": "B00685931-I1-LA",
	"FilingNumber": "I1",
	"Created On Date": "2022/2/23 12:00:00",
	"Work Type Name": "Oil Work",
	"Filing Type Name": "New Job Filing",
	"LocationBIN": "3000092",
	"Address": "57 JAY STREET",
	"CommunityBoardNumber": "302",
	"LocationBoroughName": "BROOKLYN",
	"Longitude": -73.9863586425781,
	"Latitude": 40.7029685974121
 },
 {
	"Item Type Name": "Temporary DOB registered oil fired mobile boiler",
	"JFNPermitNumber": "M00372948-I1-LA",
	"FilingNumber": "I1",
	"Created On Date": "2020/7/20 12:00:00",
	"Work Type Name": "Oil Work",
	"Filing Type Name": "New Job Filing",
	"LocationBIN": "1040472",
	"Address": "430 EAST   57 STREET",
	"CommunityBoardNumber": "106",
	"LocationBoroughName": "MANHATTAN",
	"Longitude": -73.9619369506836,
	"Latitude": 40.757568359375
 },
 {
	"Item Type Name": "Temporary DOB registered oil fired mobile boiler",
	"JFNPermitNumber": "M00236344-I1-LA",
	"FilingNumber": "I1",
	"Created On Date": "2019/9/27 12:00:00",
	"Work Type Name": "Oil Work",
	"Filing Type Name": "New Job Filing",
	"LocationBIN": "1040472",
	"Address": "430 EAST   57 STREET",
	"CommunityBoardNumber": "106",
	"LocationBoroughName": "MANHATTAN",
	"Longitude": -73.9619369506836,
	"Latitude": 40.757568359375
 },
 {
	"Item Type Name": "Temporary DOB registered oil fired mobile boiler",
	"JFNPermitNumber": "B00638260-I1-LA",
	"FilingNumber": "I1",
	"Created On Date": "2021/11/29 12:00:00",
	"Work Type Name": "Oil Work",
	"Filing Type Name": "New Job Filing",
	"LocationBIN": "3001588",
	"Address": "55 HICKS STREET",
	"CommunityBoardNumber": "302",
	"LocationBoroughName": "BROOKLYN",
	"Longitude": -73.9933013916016,
	"Latitude": 40.7000198364258
 },
 {
	"Item Type Name": "Temporary DOB registered oil fired mobile boiler",
	"JFNPermitNumber": "Permit Not Yet Issued",
	"FilingNumber": "I1",
	"Created On Date": "2022/3/23 12:00:00",
	"Work Type Name": "Oil Work",
	"Filing Type Name": "New Job Filing",
	"LocationBIN": "3002060",
	"Address": "110 MONTAGUE STREET",
	"CommunityBoardNumber": "302",
	"LocationBoroughName": "BROOKLYN",
	"Longitude": -73.9951171875,
	"Latitude": 40.6947784423828
 },
 {
	"Item Type Name": "Temporary DOB registered oil fired mobile boiler",
	"JFNPermitNumber": "B00434542-I1-LA",
	"FilingNumber": "I1",
	"Created On Date": "2020/12/1 12:00:00",
	"Work Type Name": "Oil Work",
	"Filing Type Name": "New Job Filing",
	"LocationBIN": "3002216",
	"Address": "141 JORALEMON STREET",
	"CommunityBoardNumber": "302",
	"LocationBoroughName": "BROOKLYN",
	"Longitude": -73.9937286376953,
	"Latitude": 40.6931800842285
 },
 {
	"Item Type Name": "Temporary DOB registered oil fired mobile boiler",
	"JFNPermitNumber": "",
	"FilingNumber": "P1",
	"Created On Date": "2020/7/21 12:00:00",
	"Work Type Name": "Oil Work",
	"Filing Type Name": "PAA",
	"LocationBIN": "3008215",
	"Address": "628 SMITH STREET",
	"CommunityBoardNumber": "306",
	"LocationBoroughName": "BROOKLYN",
	"Longitude": -74.0007095336914,
	"Latitude": 40.6700897216797
 },
 {
	"Item Type Name": "Temporary DOB registered oil fired mobile boiler",
	"JFNPermitNumber": "B00366096-I1-LA",
	"FilingNumber": "I1",
	"Created On Date": "2020/7/2 12:00:00",
	"Work Type Name": "Oil Work",
	"Filing Type Name": "New Job Filing",
	"LocationBIN": "3008215",
	"Address": "628 SMITH STREET",
	"CommunityBoardNumber": "306",
	"LocationBoroughName": "BROOKLYN",
	"Longitude": -74.0007095336914,
	"Latitude": 40.6700897216797
 },
 {
	"Item Type Name": "Temporary DOB registered oil fired mobile boiler",
	"JFNPermitNumber": "",
	"FilingNumber": "P1",
	"Created On Date": "2020/2/28 12:00:00",
	"Work Type Name": "Oil Work",
	"Filing Type Name": "PAA",
	"LocationBIN": "1040543",
	"Address": "4 SUTTON PLACE",
	"CommunityBoardNumber": "106",
	"LocationBoroughName": "MANHATTAN",
	"Longitude": -73.9607162475586,
	"Latitude": 40.7576904296875
 },
 {
	"Item Type Name": "Temporary DOB registered oil fired mobile boiler",
	"JFNPermitNumber": "",
	"FilingNumber": "P1",
	"Created On Date": "2020/1/2 12:00:00",
	"Work Type Name": "Oil Work",
	"Filing Type Name": "PAA",
	"LocationBIN": "3008350",
	"Address": "68 NELSON STREET",
	"CommunityBoardNumber": "306",
	"LocationBoroughName": "BROOKLYN",
	"Longitude": -74.0032424926758,
	"Latitude": 40.6775283813477
 },
 {
	"Item Type Name": "Temporary DOB registered oil fired mobile boiler",
	"JFNPermitNumber": "B00169821-I1-LA",
	"FilingNumber": "I1",
	"Created On Date": "2019/5/20 12:00:00",
	"Work Type Name": "Oil Work",
	"Filing Type Name": "New Job Filing",
	"LocationBIN": "3008350",
	"Address": "68 NELSON STREET",
	"CommunityBoardNumber": "306",
	"LocationBoroughName": "BROOKLYN",
	"Longitude": -74.0032424926758,
	"Latitude": 40.6775283813477
 },
 {
	"Item Type Name": "Temporary DOB registered oil fired mobile boiler",
	"JFNPermitNumber": "B00249424-I1-LA",
	"FilingNumber": "I1",
	"Created On Date": "2019/10/25 12:00:00",
	"Work Type Name": "Oil Work",
	"Filing Type Name": "New Job Filing",
	"LocationBIN": "3008471",
	"Address": "722 HENRY STREET",
	"CommunityBoardNumber": "306",
	"LocationBoroughName": "BROOKLYN",
	"Longitude": -74.0034637451172,
	"Latitude": 40.6761589050293
 },
 {
	"Item Type Name": "Temporary DOB registered oil fired mobile boiler",
	"JFNPermitNumber": "M00163154-I1-LA",
	"FilingNumber": "I1",
	"Created On Date": "2019/5/6 12:00:00",
	"Work Type Name": "Oil Work",
	"Filing Type Name": "New Job Filing",
	"LocationBIN": "1040543",
	"Address": "4 SUTTON PLACE",
	"CommunityBoardNumber": "106",
	"LocationBoroughName": "MANHATTAN",
	"Longitude": -73.9607162475586,
	"Latitude": 40.7576904296875
 },
 {
	"Item Type Name": "Temporary DOB registered oil fired mobile boiler",
	"JFNPermitNumber": "",
	"FilingNumber": "P1",
	"Created On Date": "2021/12/31 12:00:00",
	"Work Type Name": "Oil Work",
	"Filing Type Name": "PAA",
	"LocationBIN": "3008670",
	"Address": "155 BAY STREET",
	"CommunityBoardNumber": "306",
	"LocationBoroughName": "BROOKLYN",
	"Longitude": -74.0038528442383,
	"Latitude": 40.6727905273438
 },
 {
	"Item Type Name": "Temporary DOB registered oil fired mobile boiler",
	"JFNPermitNumber": "B00654028-I1-LA",
	"FilingNumber": "I1",
	"Created On Date": "2021/12/27 12:00:00",
	"Work Type Name": "Oil Work",
	"Filing Type Name": "New Job Filing",
	"LocationBIN": "3008670",
	"Address": "155 BAY STREET",
	"CommunityBoardNumber": "306",
	"LocationBoroughName": "BROOKLYN",
	"Longitude": -74.0038528442383,
	"Latitude": 40.6727905273438
 },
 {
	"Item Type Name": "Temporary DOB registered oil fired mobile boiler",
	"JFNPermitNumber": "B00685758-I1-LA",
	"FilingNumber": "I1",
	"Created On Date": "2022/2/23 12:00:00",
	"Work Type Name": "Oil Work",
	"Filing Type Name": "New Job Filing",
	"LocationBIN": "3010685",
	"Address": "354 41 STREET",
	"CommunityBoardNumber": "307",
	"LocationBoroughName": "BROOKLYN",
	"Longitude": -74.00830078125,
	"Latitude": 40.6518211364746
 },
 {
	"Item Type Name": "Temporary DOB registered oil fired mobile boiler",
	"JFNPermitNumber": "M00426955-I1-LA",
	"FilingNumber": "I1",
	"Created On Date": "2020/11/11 12:00:00",
	"Work Type Name": "Oil Work",
	"Filing Type Name": "New Job Filing",
	"LocationBIN": "1041296",
	"Address": "13 EAST   69 STREET",
	"CommunityBoardNumber": "108",
	"LocationBoroughName": "MANHATTAN",
	"Longitude": -73.9670867919922,
	"Latitude": 40.7701988220215
 },
 {
	"Item Type Name": "Temporary DOB registered oil fired mobile boiler",
	"JFNPermitNumber": "B00487652-I1-LA",
	"FilingNumber": "I1",
	"Created On Date": "2021/3/17 12:00:00",
	"Work Type Name": "Oil Work",
	"Filing Type Name": "New Job Filing",
	"LocationBIN": "3011297",
	"Address": "609 45 STREET",
	"CommunityBoardNumber": "307",
	"LocationBoroughName": "BROOKLYN",
	"Longitude": -74.0047836303711,
	"Latitude": 40.646598815918
 },
 {
	"Item Type Name": "Temporary DOB registered oil fired mobile boiler",
	"JFNPermitNumber": "B00528692-I1-LA",
	"FilingNumber": "I1",
	"Created On Date": "2021/5/27 12:00:00",
	"Work Type Name": "Oil Work",
	"Filing Type Name": "New Job Filing",
	"LocationBIN": "3012487",
	"Address": "880 47 STREET",
	"CommunityBoardNumber": "312",
	"LocationBoroughName": "BROOKLYN",
	"Longitude": -74.0001907348633,
	"Latitude": 40.6414489746094
 },
 {
	"Item Type Name": "Temporary DOB registered oil fired mobile boiler",
	"JFNPermitNumber": "B00102291-I1-LA",
	"FilingNumber": "I1",
	"Created On Date": "2018/11/21 12:00:00",
	"Work Type Name": "Oil Work",
	"Filing Type Name": "New Job Filing",
	"LocationBIN": "3013802",
	"Address": "14 53 STREET",
	"CommunityBoardNumber": "307",
	"LocationBoroughName": "BROOKLYN",
	"Longitude": -74.0236892700195,
	"Latitude": 40.6500205993652
 },
 {
	"Item Type Name": "Temporary DOB registered oil fired mobile boiler",
	"JFNPermitNumber": "M00396031-I1-LA",
	"FilingNumber": "I1",
	"Created On Date": "2020/9/8 12:00:00",
	"Work Type Name": "Oil Work",
	"Filing Type Name": "New Job Filing",
	"LocationBIN": "1009100",
	"Address": "55 EAST    9 STREET",
	"CommunityBoardNumber": "102",
	"LocationBoroughName": "MANHATTAN",
	"Longitude": -73.992790222168,
	"Latitude": 40.7317695617676
 },
 {
	"Item Type Name": "Temporary DOB registered oil fired mobile boiler",
	"JFNPermitNumber": "",
	"FilingNumber": "P1",
	"Created On Date": "2020/10/8 12:00:00",
	"Work Type Name": "Oil Work",
	"Filing Type Name": "PAA",
	"LocationBIN": "1042355",
	"Address": "133 EAST   64 STREET",
	"CommunityBoardNumber": "108",
	"LocationBoroughName": "MANHATTAN",
	"Longitude": -73.9660263061523,
	"Latitude": 40.7656593322754
 },
 {
	"Item Type Name": "Temporary DOB registered oil fired mobile boiler",
	"JFNPermitNumber": "",
	"FilingNumber": "P1",
	"Created On Date": "2019/12/18 12:00:00",
	"Work Type Name": "Oil Work",
	"Filing Type Name": "PAA",
	"LocationBIN": "3019440",
	"Address": "71 LINCOLN PLACE",
	"CommunityBoardNumber": "306",
	"LocationBoroughName": "BROOKLYN",
	"Longitude": -73.9775466918945,
	"Latitude": 40.6771507263184
 },
 {
	"Item Type Name": "Temporary DOB registered oil fired mobile boiler",
	"JFNPermitNumber": "B00283096-I1-LA",
	"FilingNumber": "I1",
	"Created On Date": "2019/12/17 12:00:00",
	"Work Type Name": "Oil Work",
	"Filing Type Name": "New Job Filing",
	"LocationBIN": "3019440",
	"Address": "71 LINCOLN PLACE",
	"CommunityBoardNumber": "306",
	"LocationBoroughName": "BROOKLYN",
	"Longitude": -73.9775466918945,
	"Latitude": 40.6771507263184
 },
 {
	"Item Type Name": "Temporary DOB registered oil fired mobile boiler",
	"JFNPermitNumber": "B00671201-I1-LA",
	"FilingNumber": "I1",
	"Created On Date": "2022/1/28 12:00:00",
	"Work Type Name": "Oil Work",
	"Filing Type Name": "New Job Filing",
	"LocationBIN": "3019597",
	"Address": "180 6 AVENUE",
	"CommunityBoardNumber": "306",
	"LocationBoroughName": "BROOKLYN",
	"Longitude": -73.9779891967773,
	"Latitude": 40.6766510009766
 },
 {
	"Item Type Name": "Temporary DOB registered oil fired mobile boiler",
	"JFNPermitNumber": "M00396482-I1-LA",
	"FilingNumber": "I1",
	"Created On Date": "2020/9/9 12:00:00",
	"Work Type Name": "Oil Work",
	"Filing Type Name": "New Job Filing",
	"LocationBIN": "1042355",
	"Address": "133 EAST   64 STREET",
	"CommunityBoardNumber": "108",
	"LocationBoroughName": "MANHATTAN",
	"Longitude": -73.9660263061523,
	"Latitude": 40.7656593322754
 },
 {
	"Item Type Name": "Temporary DOB registered oil fired mobile boiler",
	"JFNPermitNumber": "B00546030-I1-LA",
	"FilingNumber": "I1",
	"Created On Date": "2021/6/23 12:00:00",
	"Work Type Name": "Oil Work",
	"Filing Type Name": "New Job Filing",
	"LocationBIN": "3028658",
	"Address": "425 PROSPECT PLACE",
	"CommunityBoardNumber": "308",
	"LocationBoroughName": "BROOKLYN",
	"Longitude": -73.9621734619141,
	"Latitude": 40.6765289306641
 },
 {
	"Item Type Name": "Temporary DOB registered oil fired mobile boiler",
	"JFNPermitNumber": "B00290805-I1-LA",
	"FilingNumber": "I1",
	"Created On Date": "2020/1/3 12:00:00",
	"Work Type Name": "Oil Work",
	"Filing Type Name": "New Job Filing",
	"LocationBIN": "3029627",
	"Address": "362 LINCOLN PLACE",
	"CommunityBoardNumber": "308",
	"LocationBoroughName": "BROOKLYN",
	"Longitude": -73.9640884399414,
	"Latitude": 40.6728706359863
 },
 {
	"Item Type Name": "Temporary DOB registered oil fired mobile boiler",
	"JFNPermitNumber": "",
	"FilingNumber": "P1",
	"Created On Date": "2021/7/29 12:00:00",
	"Work Type Name": "Oil Work",
	"Filing Type Name": "PAA",
	"LocationBIN": "3029638",
	"Address": "400 LINCOLN PLACE",
	"CommunityBoardNumber": "308",
	"LocationBoroughName": "BROOKLYN",
	"Longitude": -73.9631271362305,
	"Latitude": 40.6726608276367
 },
 {
	"Item Type Name": "Temporary DOB registered oil fired mobile boiler",
	"JFNPermitNumber": "B00565213-I1-LA",
	"FilingNumber": "I1",
	"Created On Date": "2021/9/30 12:00:00",
	"Work Type Name": "Oil Work",
	"Filing Type Name": "New Job Filing",
	"LocationBIN": "3029638",
	"Address": "400 LINCOLN PLACE",
	"CommunityBoardNumber": "308",
	"LocationBoroughName": "BROOKLYN",
	"Longitude": -73.9631271362305,
	"Latitude": 40.6726608276367
 },
 {
	"Item Type Name": "Temporary DOB registered oil fired mobile boiler",
	"JFNPermitNumber": "B00535480-S1-LA",
	"FilingNumber": "S1",
	"Created On Date": "2022/2/4 12:00:00",
	"Work Type Name": "Oil Work",
	"Filing Type Name": "Subsequent Filing",
	"LocationBIN": "3029638",
	"Address": "400 LINCOLN PLACE",
	"CommunityBoardNumber": "308",
	"LocationBoroughName": "BROOKLYN",
	"Longitude": -73.9631271362305,
	"Latitude": 40.6726608276367
 },
 {
	"Item Type Name": "Temporary DOB registered oil fired mobile boiler",
	"JFNPermitNumber": "B00535480-I1-LA",
	"FilingNumber": "I1",
	"Created On Date": "2021/6/8 12:00:00",
	"Work Type Name": "Oil Work",
	"Filing Type Name": "New Job Filing",
	"LocationBIN": "3029638",
	"Address": "400 LINCOLN PLACE",
	"CommunityBoardNumber": "308",
	"LocationBoroughName": "BROOKLYN",
	"Longitude": -73.9631271362305,
	"Latitude": 40.6726608276367
 },
 {
	"Item Type Name": "Temporary DOB registered oil fired mobile boiler",
	"JFNPermitNumber": "M00087985-I1-LA",
	"FilingNumber": "I1",
	"Created On Date": "2018/10/16 12:00:00",
	"Work Type Name": "Oil Work",
	"Filing Type Name": "New Job Filing",
	"LocationBIN": "1009134",
	"Address": "817 BROADWAY",
	"CommunityBoardNumber": "102",
	"LocationBoroughName": "MANHATTAN",
	"Longitude": -73.9915237426758,
	"Latitude": 40.7332000732422
 },
 {
	"Item Type Name": "Temporary DOB registered oil fired mobile boiler",
	"JFNPermitNumber": "Permit Not Yet Issued",
	"FilingNumber": "I1",
	"Created On Date": "2022/3/4 12:00:00",
	"Work Type Name": "Oil Work",
	"Filing Type Name": "New Job Filing",
	"LocationBIN": "3030348",
	"Address": "1055 BERGEN STREET",
	"CommunityBoardNumber": "308",
	"LocationBoroughName": "BROOKLYN",
	"Longitude": -73.9514770507813,
	"Latitude": 40.6764183044434
 },
 {
	"Item Type Name": "Temporary DOB registered oil fired mobile boiler",
	"JFNPermitNumber": "B00692136-I1-LA",
	"FilingNumber": "I1",
	"Created On Date": "2022/3/4 12:00:00",
	"Work Type Name": "Oil Work",
	"Filing Type Name": "New Job Filing",
	"LocationBIN": "3030348",
	"Address": "1055 BERGEN STREET",
	"CommunityBoardNumber": "308",
	"LocationBoroughName": "BROOKLYN",
	"Longitude": -73.9514770507813,
	"Latitude": 40.6764183044434
 },
 {
	"Item Type Name": "Temporary DOB registered oil fired mobile boiler",
	"JFNPermitNumber": "B00440381-I1-LA",
	"FilingNumber": "I1",
	"Created On Date": "2020/12/14 12:00:00",
	"Work Type Name": "Oil Work",
	"Filing Type Name": "New Job Filing",
	"LocationBIN": "3033790",
	"Address": "1040 CARROLL STREET",
	"CommunityBoardNumber": "309",
	"LocationBoroughName": "BROOKLYN",
	"Longitude": -73.9566421508789,
	"Latitude": 40.6672592163086
 },
 {
	"Item Type Name": "Temporary DOB registered oil fired mobile boiler",
	"JFNPermitNumber": "",
	"FilingNumber": "P1",
	"Created On Date": "2021/10/5 12:00:00",
	"Work Type Name": "Oil Work",
	"Filing Type Name": "PAA",
	"LocationBIN": "3036109",
	"Address": "161 BUFFALO AVENUE",
	"CommunityBoardNumber": "308",
	"LocationBoroughName": "BROOKLYN",
	"Longitude": -73.9248886108398,
	"Latitude": 40.6735916137695
 },
 {
	"Item Type Name": "Temporary DOB registered oil fired mobile boiler",
	"JFNPermitNumber": "B00587730-I1-LA",
	"FilingNumber": "I1",
	"Created On Date": "2021/9/2 12:00:00",
	"Work Type Name": "Oil Work",
	"Filing Type Name": "New Job Filing",
	"LocationBIN": "3036109",
	"Address": "161 BUFFALO AVENUE",
	"CommunityBoardNumber": "308",
	"LocationBoroughName": "BROOKLYN",
	"Longitude": -73.9248886108398,
	"Latitude": 40.6735916137695
 },
 {
	"Item Type Name": "Temporary DOB registered oil fired mobile boiler",
	"JFNPermitNumber": "B00264935-I1-LA",
	"FilingNumber": "I1",
	"Created On Date": "2019/11/14 12:00:00",
	"Work Type Name": "Oil Work",
	"Filing Type Name": "New Job Filing",
	"LocationBIN": "3037057",
	"Address": "1362 ST JOHNS PLACE",
	"CommunityBoardNumber": "308",
	"LocationBoroughName": "BROOKLYN",
	"Longitude": -73.9332122802734,
	"Latitude": 40.6704406738281
 },
 {
	"Item Type Name": "Temporary DOB registered oil fired mobile boiler",
	"JFNPermitNumber": "B00128358-I1-LA",
	"FilingNumber": "I1",
	"Created On Date": "2019/2/7 12:00:00",
	"Work Type Name": "Oil Work",
	"Filing Type Name": "New Job Filing",
	"LocationBIN": "3037372",
	"Address": "1199 EASTERN PARKWAY",
	"CommunityBoardNumber": "308",
	"LocationBoroughName": "BROOKLYN",
	"Longitude": -73.9287033081055,
	"Latitude": 40.6691207885742
 },
 {
	"Item Type Name": "Temporary DOB registered oil fired mobile boiler",
	"JFNPermitNumber": "M00087985-I1-LA",
	"FilingNumber": "I1",
	"Created On Date": "2018/10/15 12:00:00",
	"Work Type Name": "Oil Work",
	"Filing Type Name": "New Job Filing",
	"LocationBIN": "1009134",
	"Address": "817 BROADWAY",
	"CommunityBoardNumber": "102",
	"LocationBoroughName": "MANHATTAN",
	"Longitude": -73.9915237426758,
	"Latitude": 40.7332000732422
 },
 {
	"Item Type Name": "Temporary DOB registered oil fired mobile boiler",
	"JFNPermitNumber": "",
	"FilingNumber": "P1",
	"Created On Date": "2020/1/28 12:00:00",
	"Work Type Name": "Oil Work",
	"Filing Type Name": "PAA",
	"LocationBIN": "1042767",
	"Address": "970 LEXINGTON AVENUE",
	"CommunityBoardNumber": "108",
	"LocationBoroughName": "MANHATTAN",
	"Longitude": -73.9631271362305,
	"Latitude": 40.7695388793945
 },
 {
	"Item Type Name": "Temporary DOB registered oil fired mobile boiler",
	"JFNPermitNumber": "B00424964-I1-LA",
	"FilingNumber": "I1",
	"Created On Date": "2020/11/6 12:00:00",
	"Work Type Name": "Oil Work",
	"Filing Type Name": "New Job Filing",
	"LocationBIN": "3037557",
	"Address": "1751 UNION STREET",
	"CommunityBoardNumber": "309",
	"LocationBoroughName": "BROOKLYN",
	"Longitude": -73.9316635131836,
	"Latitude": 40.6680717468262
 },
 {
	"Item Type Name": "Temporary DOB registered oil fired mobile boiler",
	"JFNPermitNumber": "M00267909-I1-LA",
	"FilingNumber": "I1",
	"Created On Date": "2019/11/19 12:00:00",
	"Work Type Name": "Oil Work",
	"Filing Type Name": "New Job Filing",
	"LocationBIN": "1042767",
	"Address": "970 LEXINGTON AVENUE",
	"CommunityBoardNumber": "108",
	"LocationBoroughName": "MANHATTAN",
	"Longitude": -73.9631271362305,
	"Latitude": 40.7695388793945
 },
 {
	"Item Type Name": "Temporary DOB registered oil fired mobile boiler",
	"JFNPermitNumber": "M00121381-I1-LA",
	"FilingNumber": "I1",
	"Created On Date": "2019/1/18 12:00:00",
	"Work Type Name": "Oil Work",
	"Filing Type Name": "New Job Filing",
	"LocationBIN": "1009204",
	"Address": "39 EAST   12 STREET",
	"CommunityBoardNumber": "102",
	"LocationBoroughName": "MANHATTAN",
	"Longitude": -73.9917907714844,
	"Latitude": 40.7337608337402
 },
 {
	"Item Type Name": "Temporary DOB registered oil fired mobile boiler",
	"JFNPermitNumber": "B00272115-I1-LA",
	"FilingNumber": "I1",
	"Created On Date": "2019/11/26 12:00:00",
	"Work Type Name": "Oil Work",
	"Filing Type Name": "New Job Filing",
	"LocationBIN": "3038023",
	"Address": "1500 CARROLL STREET",
	"CommunityBoardNumber": "309",
	"LocationBoroughName": "BROOKLYN",
	"Longitude": -73.9383926391602,
	"Latitude": 40.6662406921387
 },
 {
	"Item Type Name": "Temporary DOB registered oil fired mobile boiler",
	"JFNPermitNumber": "B00145433-I1-LA",
	"FilingNumber": "I1",
	"Created On Date": "2019/3/22 12:00:00",
	"Work Type Name": "Oil Work",
	"Filing Type Name": "New Job Filing",
	"LocationBIN": "3038309",
	"Address": "826 CROWN STREET",
	"CommunityBoardNumber": "309",
	"LocationBoroughName": "BROOKLYN",
	"Longitude": -73.9298629760742,
	"Latitude": 40.6648597717285
 },
 {
	"Item Type Name": "Temporary DOB registered oil fired mobile boiler",
	"JFNPermitNumber": "B00508612-I1-LA",
	"FilingNumber": "I1",
	"Created On Date": "2021/4/22 12:00:00",
	"Work Type Name": "Oil Work",
	"Filing Type Name": "New Job Filing",
	"LocationBIN": "3038355",
	"Address": "743 EMPIRE BOULEVARD",
	"CommunityBoardNumber": "309",
	"LocationBoroughName": "BROOKLYN",
	"Longitude": -73.9374465942383,
	"Latitude": 40.6640396118164
 },
 {
	"Item Type Name": "Temporary DOB registered oil fired mobile boiler",
	"JFNPermitNumber": "M00480115-I1-LA",
	"FilingNumber": "I1",
	"Created On Date": "2021/3/8 12:00:00",
	"Work Type Name": "Oil Work",
	"Filing Type Name": "New Job Filing",
	"LocationBIN": "1043105",
	"Address": "815 PARK AVENUE",
	"CommunityBoardNumber": "108",
	"LocationBoroughName": "MANHATTAN",
	"Longitude": -73.9621505737305,
	"Latitude": 40.7727203369141
 },
 {
	"Item Type Name": "Temporary DOB registered oil fired mobile boiler",
	"JFNPermitNumber": "M00429564-I1-LA",
	"FilingNumber": "I1",
	"Created On Date": "2020/11/18 12:00:00",
	"Work Type Name": "Oil Work",
	"Filing Type Name": "New Job Filing",
	"LocationBIN": "1009222",
	"Address": "11 FIFTH AVENUE",
	"CommunityBoardNumber": "102",
	"LocationBoroughName": "MANHATTAN",
	"Longitude": -73.9956665039063,
	"Latitude": 40.732349395752
 },
 {
	"Item Type Name": "Temporary DOB registered oil fired mobile boiler",
	"JFNPermitNumber": "",
	"FilingNumber": "P1",
	"Created On Date": "2020/5/29 12:00:00",
	"Work Type Name": "Oil Work",
	"Filing Type Name": "PAA",
	"LocationBIN": "3042090",
	"Address": "1958 FULTON STREET",
	"CommunityBoardNumber": "303",
	"LocationBoroughName": "BROOKLYN",
	"Longitude": -73.9199523925781,
	"Latitude": 40.6783294677734
 },
 {
	"Item Type Name": "Temporary DOB registered oil fired mobile boiler",
	"JFNPermitNumber": "B00271553-I1-LA",
	"FilingNumber": "I1",
	"Created On Date": "2019/11/25 12:00:00",
	"Work Type Name": "Oil Work",
	"Filing Type Name": "New Job Filing",
	"LocationBIN": "3042090",
	"Address": "1958 FULTON STREET",
	"CommunityBoardNumber": "303",
	"LocationBoroughName": "BROOKLYN",
	"Longitude": -73.9199523925781,
	"Latitude": 40.6783294677734
 },
 {
	"Item Type Name": "Temporary DOB registered oil fired mobile boiler",
	"JFNPermitNumber": "B00463033-I1-LA",
	"FilingNumber": "I1",
	"Created On Date": "2021/1/29 12:00:00",
	"Work Type Name": "Oil Work",
	"Filing Type Name": "New Job Filing",
	"LocationBIN": "3042888",
	"Address": "327 VERNON AVENUE",
	"CommunityBoardNumber": "303",
	"LocationBoroughName": "BROOKLYN",
	"Longitude": -73.9384689331055,
	"Latitude": 40.6960906982422
 },
 {
	"Item Type Name": "Temporary DOB registered oil fired mobile boiler",
	"JFNPermitNumber": "M00427738-I1-LA",
	"FilingNumber": "I1",
	"Created On Date": "2020/11/12 12:00:00",
	"Work Type Name": "Oil Work",
	"Filing Type Name": "New Job Filing",
	"LocationBIN": "1043850",
	"Address": "210 EAST   63 STREET",
	"CommunityBoardNumber": "108",
	"LocationBoroughName": "MANHATTAN",
	"Longitude": -73.9642486572266,
	"Latitude": 40.7635917663574
 },
 {
	"Item Type Name": "Temporary DOB registered oil fired mobile boiler",
	"JFNPermitNumber": "B00281168-I1-LA",
	"FilingNumber": "I1",
	"Created On Date": "2019/12/13 12:00:00",
	"Work Type Name": "Oil Work",
	"Filing Type Name": "New Job Filing",
	"LocationBIN": "3048517",
	"Address": "70 TOMPKINS AVENUE",
	"CommunityBoardNumber": "303",
	"LocationBoroughName": "BROOKLYN",
	"Longitude": -73.9475708007813,
	"Latitude": 40.6966896057129
 },
 {
	"Item Type Name": "Temporary DOB registered oil fired mobile boiler",
	"JFNPermitNumber": "M00229348-I1-LA",
	"FilingNumber": "I1",
	"Created On Date": "2019/9/17 12:00:00",
	"Work Type Name": "Oil Work",
	"Filing Type Name": "New Job Filing",
	"LocationBIN": "1043937",
	"Address": "211 EAST   71 STREET",
	"CommunityBoardNumber": "108",
	"LocationBoroughName": "MANHATTAN",
	"Longitude": -73.9601898193359,
	"Latitude": 40.768928527832
 },
 {
	"Item Type Name": "Temporary DOB registered oil fired mobile boiler",
	"JFNPermitNumber": "M00664761-I1-LA",
	"FilingNumber": "I1",
	"Created On Date": "2022/1/19 12:00:00",
	"Work Type Name": "Oil Work",
	"Filing Type Name": "New Job Filing",
	"LocationBIN": "1043946",
	"Address": "260 EAST   72 STREET",
	"CommunityBoardNumber": "108",
	"LocationBoroughName": "MANHATTAN",
	"Longitude": -73.9587936401367,
	"Latitude": 40.768669128418
 },
 {
	"Item Type Name": "Temporary DOB registered oil fired mobile boiler",
	"JFNPermitNumber": "M00159968-S1-LA",
	"FilingNumber": "S1",
	"Created On Date": "2019/4/30 12:00:00",
	"Work Type Name": "Oil Work",
	"Filing Type Name": "Subsequent Filing",
	"LocationBIN": "1043946",
	"Address": "260 EAST   72 STREET",
	"CommunityBoardNumber": "108",
	"LocationBoroughName": "MANHATTAN",
	"Longitude": -73.9587936401367,
	"Latitude": 40.768669128418
 },
 {
	"Item Type Name": "Temporary DOB registered oil fired mobile boiler",
	"JFNPermitNumber": "B00433439-I1-LA",
	"FilingNumber": "I1",
	"Created On Date": "2020/11/25 12:00:00",
	"Work Type Name": "Oil Work",
	"Filing Type Name": "New Job Filing",
	"LocationBIN": "3050769",
	"Address": "423 THROOP AVENUE",
	"CommunityBoardNumber": "303",
	"LocationBoroughName": "BROOKLYN",
	"Longitude": -73.9417114257813,
	"Latitude": 40.6884002685547
 },
 {
	"Item Type Name": "Temporary DOB registered oil fired mobile boiler",
	"JFNPermitNumber": "M00159968-I1-LA",
	"FilingNumber": "I1",
	"Created On Date": "2019/4/26 12:00:00",
	"Work Type Name": "Oil Work",
	"Filing Type Name": "New Job Filing",
	"LocationBIN": "1043946",
	"Address": "260 EAST   72 STREET",
	"CommunityBoardNumber": "108",
	"LocationBoroughName": "MANHATTAN",
	"Longitude": -73.9587936401367,
	"Latitude": 40.768669128418
 },
 {
	"Item Type Name": "Temporary DOB registered oil fired mobile boiler",
	"JFNPermitNumber": "",
	"FilingNumber": "P1",
	"Created On Date": "2021/12/8 12:00:00",
	"Work Type Name": "Oil Work",
	"Filing Type Name": "PAA",
	"LocationBIN": "1044102",
	"Address": "233 EAST   77 STREET",
	"CommunityBoardNumber": "108",
	"LocationBoroughName": "MANHATTAN",
	"Longitude": -73.9569625854492,
	"Latitude": 40.7726593017578
 },
 {
	"Item Type Name": "Temporary DOB registered oil fired mobile boiler",
	"JFNPermitNumber": "M00633577-I1-LA",
	"FilingNumber": "I1",
	"Created On Date": "2021/11/18 12:00:00",
	"Work Type Name": "Oil Work",
	"Filing Type Name": "New Job Filing",
	"LocationBIN": "1044102",
	"Address": "233 EAST   77 STREET",
	"CommunityBoardNumber": "108",
	"LocationBoroughName": "MANHATTAN",
	"Longitude": -73.9569625854492,
	"Latitude": 40.7726593017578
 },
 {
	"Item Type Name": "Temporary DOB registered oil fired mobile boiler",
	"JFNPermitNumber": "B00350196-I1-LA",
	"FilingNumber": "I1",
	"Created On Date": "2020/5/19 12:00:00",
	"Work Type Name": "Oil Work",
	"Filing Type Name": "New Job Filing",
	"LocationBIN": "3059181",
	"Address": "25 LAFAYETTE AVENUE",
	"CommunityBoardNumber": "302",
	"LocationBoroughName": "BROOKLYN",
	"Longitude": -73.9779663085938,
	"Latitude": 40.6870918273926
 },
 {
	"Item Type Name": "Temporary DOB registered oil fired mobile boiler",
	"JFNPermitNumber": "B00449916-I1-LA",
	"FilingNumber": "I1",
	"Created On Date": "2021/1/7 12:00:00",
	"Work Type Name": "Oil Work",
	"Filing Type Name": "New Job Filing",
	"LocationBIN": "3059680",
	"Address": "142 SOUTH    9 STREET",
	"CommunityBoardNumber": "301",
	"LocationBoroughName": "BROOKLYN",
	"Longitude": -73.9631729125977,
	"Latitude": 40.7083206176758
 },
 {
	"Item Type Name": "Temporary DOB registered oil fired mobile boiler",
	"JFNPermitNumber": "B00100816-I1-LA",
	"FilingNumber": "I1",
	"Created On Date": "2018/11/16 12:00:00",
	"Work Type Name": "Oil Work",
	"Filing Type Name": "New Job Filing",
	"LocationBIN": "3063096",
	"Address": "136 SOUTH    2 STREET",
	"CommunityBoardNumber": "301",
	"LocationBoroughName": "BROOKLYN",
	"Longitude": -73.9624099731445,
	"Latitude": 40.7132301330566
 },
 {
	"Item Type Name": "Temporary DOB registered oil fired mobile boiler",
	"JFNPermitNumber": "B00543722-I1-LA",
	"FilingNumber": "I1",
	"Created On Date": "2021/6/21 12:00:00",
	"Work Type Name": "Oil Work",
	"Filing Type Name": "New Job Filing",
	"LocationBIN": "3063196",
	"Address": "374 SOUTH    2 STREET",
	"CommunityBoardNumber": "301",
	"LocationBoroughName": "BROOKLYN",
	"Longitude": -73.9527969360352,
	"Latitude": 40.7096290588379
 },
 {
	"Item Type Name": "Temporary DOB registered oil fired mobile boiler",
	"JFNPermitNumber": "M00660658-I1-LA",
	"FilingNumber": "I1",
	"Created On Date": "2022/1/11 12:00:00",
	"Work Type Name": "Oil Work",
	"Filing Type Name": "New Job Filing",
	"LocationBIN": "1044235",
	"Address": "355 EAST   61 STREET",
	"CommunityBoardNumber": "108",
	"LocationBoroughName": "MANHATTAN",
	"Longitude": -73.9612426757813,
	"Latitude": 40.761058807373
 },
 {
	"Item Type Name": "Temporary DOB registered oil fired mobile boiler",
	"JFNPermitNumber": "M00091422-I1-LA",
	"FilingNumber": "I1",
	"Created On Date": "2018/10/23 12:00:00",
	"Work Type Name": "Oil Work",
	"Filing Type Name": "New Job Filing",
	"LocationBIN": "1009270",
	"Address": "5 EAST   10 STREET",
	"CommunityBoardNumber": "102",
	"LocationBoroughName": "MANHATTAN",
	"Longitude": -73.9946899414063,
	"Latitude": 40.733341217041
 },
 {
	"Item Type Name": "Temporary DOB registered oil fired mobile boiler",
	"JFNPermitNumber": "M00704473-I1-LA",
	"FilingNumber": "I1",
	"Created On Date": "2022/3/23 12:00:00",
	"Work Type Name": "Oil Work",
	"Filing Type Name": "New Job Filing",
	"LocationBIN": "1009333",
	"Address": "18 EAST   12 STREET",
	"CommunityBoardNumber": "102",
	"LocationBoroughName": "MANHATTAN",
	"Longitude": -73.9935836791992,
	"Latitude": 40.734001159668
 },
 {
	"Item Type Name": "Temporary DOB registered oil fired mobile boiler",
	"JFNPermitNumber": "",
	"FilingNumber": "P1",
	"Created On Date": "2021/3/8 12:00:00",
	"Work Type Name": "Oil Work",
	"Filing Type Name": "PAA",
	"LocationBIN": "1044369",
	"Address": "359 EAST   62 STREET",
	"CommunityBoardNumber": "108",
	"LocationBoroughName": "MANHATTAN",
	"Longitude": -73.9609069824219,
	"Latitude": 40.7618598937988
 },
 {
	"Item Type Name": "Temporary DOB registered oil fired mobile boiler",
	"JFNPermitNumber": "M00235734-I1-LA",
	"FilingNumber": "I1",
	"Created On Date": "2019/9/26 12:00:00",
	"Work Type Name": "Oil Work",
	"Filing Type Name": "New Job Filing",
	"LocationBIN": "1044722",
	"Address": "349 EAST   65 STREET",
	"CommunityBoardNumber": "108",
	"LocationBoroughName": "MANHATTAN",
	"Longitude": -73.9593734741211,
	"Latitude": 40.763729095459
 },
 {
	"Item Type Name": "Temporary DOB registered oil fired mobile boiler",
	"JFNPermitNumber": "M00618666-I1-LA",
	"FilingNumber": "I1",
	"Created On Date": "2021/10/26 12:00:00",
	"Work Type Name": "Oil Work",
	"Filing Type Name": "New Job Filing",
	"LocationBIN": "1009417",
	"Address": "36 WEST    9 STREET",
	"CommunityBoardNumber": "102",
	"LocationBoroughName": "MANHATTAN",
	"Longitude": -73.9978485107422,
	"Latitude": 40.7334289550781
 },
 {
	"Item Type Name": "Temporary DOB registered oil fired mobile boiler",
	"JFNPermitNumber": "M00470235-I1-LA",
	"FilingNumber": "I1",
	"Created On Date": "2021/2/13 12:00:00",
	"Work Type Name": "Oil Work",
	"Filing Type Name": "New Job Filing",
	"LocationBIN": "1004491",
	"Address": "745 EAST    6 STREET",
	"CommunityBoardNumber": "103",
	"LocationBoroughName": "MANHATTAN",
	"Longitude": -73.9772567749023,
	"Latitude": 40.7228813171387
 },
 {
	"Item Type Name": "Temporary DOB registered oil fired mobile boiler",
	"JFNPermitNumber": "M00233496-I1-LA",
	"FilingNumber": "I1",
	"Created On Date": "2019/9/23 12:00:00",
	"Work Type Name": "Oil Work",
	"Filing Type Name": "New Job Filing",
	"LocationBIN": "1044739",
	"Address": "321 EAST   66 STREET",
	"CommunityBoardNumber": "108",
	"LocationBoroughName": "MANHATTAN",
	"Longitude": -73.9597091674805,
	"Latitude": 40.7646293640137
 },
 {
	"Item Type Name": "Temporary DOB registered oil fired mobile boiler",
	"JFNPermitNumber": "",
	"FilingNumber": "P1",
	"Created On Date": "2019/12/4 12:00:00",
	"Work Type Name": "Oil Work",
	"Filing Type Name": "PAA",
	"LocationBIN": "1044890",
	"Address": "326 EAST   73 STREET",
	"CommunityBoardNumber": "108",
	"LocationBoroughName": "MANHATTAN",
	"Longitude": -73.9566268920898,
	"Latitude": 40.7687110900879
 },
 {
	"Item Type Name": "Temporary DOB registered oil fired mobile boiler",
	"JFNPermitNumber": "M00174702-I1-LA",
	"FilingNumber": "I1",
	"Created On Date": "2019/5/31 12:00:00",
	"Work Type Name": "Oil Work",
	"Filing Type Name": "New Job Filing",
	"LocationBIN": "1044890",
	"Address": "326 EAST   73 STREET",
	"CommunityBoardNumber": "108",
	"LocationBoroughName": "MANHATTAN",
	"Longitude": -73.9566268920898,
	"Latitude": 40.7687110900879
 },
 {
	"Item Type Name": "Temporary DOB registered oil fired mobile boiler",
	"JFNPermitNumber": "B00518526-I1-LA",
	"FilingNumber": "I1",
	"Created On Date": "2021/5/7 12:00:00",
	"Work Type Name": "Oil Work",
	"Filing Type Name": "New Job Filing",
	"LocationBIN": "3075907",
	"Address": "319 WILSON AVENUE",
	"CommunityBoardNumber": "304",
	"LocationBoroughName": "BROOKLYN",
	"Longitude": -73.9177703857422,
	"Latitude": 40.6968383789063
 },
 {
	"Item Type Name": "Temporary DOB registered oil fired mobile boiler",
	"JFNPermitNumber": "M00130686-I1-LA",
	"FilingNumber": "I1",
	"Created On Date": "2019/2/13 12:00:00",
	"Work Type Name": "Oil Work",
	"Filing Type Name": "New Job Filing",
	"LocationBIN": "1044890",
	"Address": "326 EAST   73 STREET",
	"CommunityBoardNumber": "108",
	"LocationBoroughName": "MANHATTAN",
	"Longitude": -73.9566268920898,
	"Latitude": 40.7687110900879
 },
 {
	"Item Type Name": "Temporary DOB registered oil fired mobile boiler",
	"JFNPermitNumber": "B00698682-I1-LA",
	"FilingNumber": "I1",
	"Created On Date": "2022/3/15 12:00:00",
	"Work Type Name": "Oil Work",
	"Filing Type Name": "New Job Filing",
	"LocationBIN": "3076419",
	"Address": "1152 GATES AVENUE",
	"CommunityBoardNumber": "304",
	"LocationBoroughName": "BROOKLYN",
	"Longitude": -73.9200592041016,
	"Latitude": 40.6911811828613
 },
 {
	"Item Type Name": "Temporary DOB registered oil fired mobile boiler",
	"JFNPermitNumber": "B00583743-I1-LA",
	"FilingNumber": "I1",
	"Created On Date": "2021/8/26 12:00:00",
	"Work Type Name": "Oil Work",
	"Filing Type Name": "New Job Filing",
	"LocationBIN": "3076768",
	"Address": "440 CENTRAL AVENUE",
	"CommunityBoardNumber": "304",
	"LocationBoroughName": "BROOKLYN",
	"Longitude": -73.9160919189453,
	"Latitude": 40.6926193237305
 },
 {
	"Item Type Name": "Temporary DOB registered oil fired mobile boiler",
	"JFNPermitNumber": "B00607043-I1-LA",
	"FilingNumber": "I1",
	"Created On Date": "2021/10/6 12:00:00",
	"Work Type Name": "Oil Work",
	"Filing Type Name": "New Job Filing",
	"LocationBIN": "3078553",
	"Address": "595 EVERGREEN AVENUE",
	"CommunityBoardNumber": "304",
	"LocationBoroughName": "BROOKLYN",
	"Longitude": -73.9126434326172,
	"Latitude": 40.6889495849609
 },
 {
	"Item Type Name": "Temporary DOB registered oil fired mobile boiler",
	"JFNPermitNumber": "",
	"FilingNumber": "P1",
	"Created On Date": "2020/3/12 12:00:00",
	"Work Type Name": "Oil Work",
	"Filing Type Name": "PAA",
	"LocationBIN": "3080068",
	"Address": "629 CHAUNCEY STREET",
	"CommunityBoardNumber": "304",
	"LocationBoroughName": "BROOKLYN",
	"Longitude": -73.9098663330078,
	"Latitude": 40.683219909668
 },
 {
	"Item Type Name": "Temporary DOB registered oil fired mobile boiler",
	"JFNPermitNumber": "Permit Not Yet Issued",
	"FilingNumber": "I1",
	"Created On Date": "2019/6/11 12:00:00",
	"Work Type Name": "Oil Work",
	"Filing Type Name": "New Job Filing",
	"LocationBIN": "3080068",
	"Address": "629 CHAUNCEY STREET",
	"CommunityBoardNumber": "304",
	"LocationBoroughName": "BROOKLYN",
	"Longitude": -73.9098663330078,
	"Latitude": 40.683219909668
 },
 {
	"Item Type Name": "Temporary DOB registered oil fired mobile boiler",
	"JFNPermitNumber": "B00244844-I1-LA",
	"FilingNumber": "I1",
	"Created On Date": "2019/10/11 12:00:00",
	"Work Type Name": "Oil Work",
	"Filing Type Name": "New Job Filing",
	"LocationBIN": "3080068",
	"Address": "629 CHAUNCEY STREET",
	"CommunityBoardNumber": "304",
	"LocationBoroughName": "BROOKLYN",
	"Longitude": -73.9098663330078,
	"Latitude": 40.683219909668
 },
 {
	"Item Type Name": "Temporary DOB registered oil fired mobile boiler",
	"JFNPermitNumber": "B00410141-I1-LA",
	"FilingNumber": "I1",
	"Created On Date": "2020/11/25 12:00:00",
	"Work Type Name": "Oil Work",
	"Filing Type Name": "New Job Filing",
	"LocationBIN": "3081227",
	"Address": "725 HOWARD AVENUE",
	"CommunityBoardNumber": "316",
	"LocationBoroughName": "BROOKLYN",
	"Longitude": -73.9188232421875,
	"Latitude": 40.6644515991211
 },
 {
	"Item Type Name": "Temporary DOB registered oil fired mobile boiler",
	"JFNPermitNumber": "",
	"FilingNumber": "P1",
	"Created On Date": "2020/2/8 12:00:00",
	"Work Type Name": "Oil Work",
	"Filing Type Name": "PAA",
	"LocationBIN": "3082389",
	"Address": "411 THATFORD AVENUE",
	"CommunityBoardNumber": "316",
	"LocationBoroughName": "BROOKLYN",
	"Longitude": -73.9069290161133,
	"Latitude": 40.6604499816895
 },
 {
	"Item Type Name": "Temporary DOB registered oil fired mobile boiler",
	"JFNPermitNumber": "Permit Not Yet Issued",
	"FilingNumber": "I1",
	"Created On Date": "2019/12/13 12:00:00",
	"Work Type Name": "Oil Work",
	"Filing Type Name": "New Job Filing",
	"LocationBIN": "3082389",
	"Address": "411 THATFORD AVENUE",
	"CommunityBoardNumber": "316",
	"LocationBoroughName": "BROOKLYN",
	"Longitude": -73.9069290161133,
	"Latitude": 40.6604499816895
 },
 {
	"Item Type Name": "Temporary DOB registered oil fired mobile boiler",
	"JFNPermitNumber": "B00292617-I1-LA",
	"FilingNumber": "I1",
	"Created On Date": "2020/1/9 12:00:00",
	"Work Type Name": "Oil Work",
	"Filing Type Name": "New Job Filing",
	"LocationBIN": "3082389",
	"Address": "411 THATFORD AVENUE",
	"CommunityBoardNumber": "316",
	"LocationBoroughName": "BROOKLYN",
	"Longitude": -73.9069290161133,
	"Latitude": 40.6604499816895
 },
 {
	"Item Type Name": "Temporary DOB registered oil fired mobile boiler",
	"JFNPermitNumber": "M00617251-I1-LA",
	"FilingNumber": "I1",
	"Created On Date": "2021/10/22 12:00:00",
	"Work Type Name": "Oil Work",
	"Filing Type Name": "New Job Filing",
	"LocationBIN": "1045241",
	"Address": "317 EAST   78 STREET",
	"CommunityBoardNumber": "108",
	"LocationBoroughName": "MANHATTAN",
	"Longitude": -73.9544296264648,
	"Latitude": 40.7724304199219
 },
 {
	"Item Type Name": "Temporary DOB registered oil fired mobile boiler",
	"JFNPermitNumber": "M00538229-I1-LA",
	"FilingNumber": "I1",
	"Created On Date": "2021/6/10 12:00:00",
	"Work Type Name": "Oil Work",
	"Filing Type Name": "New Job Filing",
	"LocationBIN": "1045974",
	"Address": "400 EAST   77 STREET",
	"CommunityBoardNumber": "108",
	"LocationBoroughName": "MANHATTAN",
	"Longitude": -73.9532928466797,
	"Latitude": 40.7706413269043
 },
 {
	"Item Type Name": "Temporary DOB registered oil fired mobile boiler",
	"JFNPermitNumber": "M00275197-I1-LA",
	"FilingNumber": "I1",
	"Created On Date": "2019/12/3 12:00:00",
	"Work Type Name": "Oil Work",
	"Filing Type Name": "New Job Filing",
	"LocationBIN": "1046011",
	"Address": "399 EAST   78 STREET",
	"CommunityBoardNumber": "108",
	"LocationBoroughName": "MANHATTAN",
	"Longitude": -73.9528427124023,
	"Latitude": 40.7716903686523
 },
 {
	"Item Type Name": "Temporary DOB registered oil fired mobile boiler",
	"JFNPermitNumber": "M00596709-I1-LA",
	"FilingNumber": "I1",
	"Created On Date": "2021/9/20 12:00:00",
	"Work Type Name": "Oil Work",
	"Filing Type Name": "New Job Filing",
	"LocationBIN": "1046992",
	"Address": "1130 PARK AVENUE",
	"CommunityBoardNumber": "108",
	"LocationBoroughName": "MANHATTAN",
	"Longitude": -73.955436706543,
	"Latitude": 40.7833404541016
 },
 {
	"Item Type Name": "Temporary DOB registered oil fired mobile boiler",
	"JFNPermitNumber": "B00402404-I1-LA",
	"FilingNumber": "I1",
	"Created On Date": "2020/9/22 12:00:00",
	"Work Type Name": "Oil Work",
	"Filing Type Name": "New Job Filing",
	"LocationBIN": "3102099",
	"Address": "397 EAST   49 STREET",
	"CommunityBoardNumber": "317",
	"LocationBoroughName": "BROOKLYN",
	"Longitude": -73.9311599731445,
	"Latitude": 40.6521987915039
 },
 {
	"Item Type Name": "Temporary DOB registered oil fired mobile boiler",
	"JFNPermitNumber": "B00106796-I1-LA",
	"FilingNumber": "I1",
	"Created On Date": "2018/12/5 12:00:00",
	"Work Type Name": "Oil Work",
	"Filing Type Name": "New Job Filing",
	"LocationBIN": "3102215",
	"Address": "290 EAST   53 STREET",
	"CommunityBoardNumber": "317",
	"LocationBoroughName": "BROOKLYN",
	"Longitude": -73.9278793334961,
	"Latitude": 40.6527290344238
 },
 {
	"Item Type Name": "Temporary DOB registered oil fired mobile boiler",
	"JFNPermitNumber": "B00300914-I1-LA",
	"FilingNumber": "I1",
	"Created On Date": "2020/1/21 12:00:00",
	"Work Type Name": "Oil Work",
	"Filing Type Name": "New Job Filing",
	"LocationBIN": "3107464",
	"Address": "647 ALBANY AVENUE",
	"CommunityBoardNumber": "309",
	"LocationBoroughName": "BROOKLYN",
	"Longitude": -73.9392318725586,
	"Latitude": 40.6581611633301
 },
 {
	"Item Type Name": "Temporary DOB registered oil fired mobile boiler",
	"JFNPermitNumber": "",
	"FilingNumber": "P1",
	"Created On Date": "2020/11/17 12:00:00",
	"Work Type Name": "Oil Work",
	"Filing Type Name": "PAA",
	"LocationBIN": "1009482",
	"Address": "24 FIFTH AVENUE",
	"CommunityBoardNumber": "102",
	"LocationBoroughName": "MANHATTAN",
	"Longitude": -73.9963073730469,
	"Latitude": 40.7332496643066
 },
 {
	"Item Type Name": "Temporary DOB registered oil fired mobile boiler",
	"JFNPermitNumber": "Permit Not Yet Issued",
	"FilingNumber": "I1",
	"Created On Date": "2021/4/8 12:00:00",
	"Work Type Name": "Oil Work",
	"Filing Type Name": "New Job Filing",
	"LocationBIN": "3108817",
	"Address": "228 EAST   38 STREET",
	"CommunityBoardNumber": "317",
	"LocationBoroughName": "BROOKLYN",
	"Longitude": -73.9421768188477,
	"Latitude": 40.651481628418
 },
 {
	"Item Type Name": "Temporary DOB registered oil fired mobile boiler",
	"JFNPermitNumber": "B00130543-I1-LA",
	"FilingNumber": "I1",
	"Created On Date": "2019/2/13 12:00:00",
	"Work Type Name": "Oil Work",
	"Filing Type Name": "New Job Filing",
	"LocationBIN": "3110482",
	"Address": "1084 NEW YORK AVENUE",
	"CommunityBoardNumber": "317",
	"LocationBoroughName": "BROOKLYN",
	"Longitude": -73.9465484619141,
	"Latitude": 40.6467018127441
 },
 {
	"Item Type Name": "Temporary DOB registered oil fired mobile boiler",
	"JFNPermitNumber": "M00426665-I1-LA",
	"FilingNumber": "I1",
	"Created On Date": "2020/11/11 12:00:00",
	"Work Type Name": "Oil Work",
	"Filing Type Name": "New Job Filing",
	"LocationBIN": "1009482",
	"Address": "24 FIFTH AVENUE",
	"CommunityBoardNumber": "102",
	"LocationBoroughName": "MANHATTAN",
	"Longitude": -73.9963073730469,
	"Latitude": 40.7332496643066
 },
 {
	"Item Type Name": "Temporary DOB registered oil fired mobile boiler",
	"JFNPermitNumber": "B00713576-I1-LA",
	"FilingNumber": "I1",
	"Created On Date": "2022/4/6 12:00:00",
	"Work Type Name": "Oil Work",
	"Filing Type Name": "New Job Filing",
	"LocationBIN": "3116130",
	"Address": "416 OCEAN AVENUE",
	"CommunityBoardNumber": "314",
	"LocationBoroughName": "BROOKLYN",
	"Longitude": -73.9618072509766,
	"Latitude": 40.6523704528809
 },
 {
	"Item Type Name": "Temporary DOB registered oil fired mobile boiler",
	"JFNPermitNumber": "B00190364-I1-LA",
	"FilingNumber": "I1",
	"Created On Date": "2019/7/9 12:00:00",
	"Work Type Name": "Oil Work",
	"Filing Type Name": "New Job Filing",
	"LocationBIN": "3116551",
	"Address": "100 EAST   21 STREET",
	"CommunityBoardNumber": "314",
	"LocationBoroughName": "BROOKLYN",
	"Longitude": -73.9605407714844,
	"Latitude": 40.6516494750977
 },
 {
	"Item Type Name": "Temporary DOB registered oil fired mobile boiler",
	"JFNPermitNumber": "Permit Not Yet Issued",
	"FilingNumber": "I1",
	"Created On Date": "2020/1/10 12:00:00",
	"Work Type Name": "Oil Work",
	"Filing Type Name": "New Job Filing",
	"LocationBIN": "3116556",
	"Address": "156 EAST   21 STREET",
	"CommunityBoardNumber": "314",
	"LocationBoroughName": "BROOKLYN",
	"Longitude": -73.9602737426758,
	"Latitude": 40.6504516601563
 },
 {
	"Item Type Name": "Temporary DOB registered oil fired mobile boiler",
	"JFNPermitNumber": "M00088130-S1-LA",
	"FilingNumber": "S1",
	"Created On Date": "2019/4/26 12:00:00",
	"Work Type Name": "Oil Work",
	"Filing Type Name": "Subsequent Filing",
	"LocationBIN": "1009722",
	"Address": "55 WEST   13 STREET",
	"CommunityBoardNumber": "102",
	"LocationBoroughName": "MANHATTAN",
	"Longitude": -73.9964981079102,
	"Latitude": 40.7365608215332
 },
 {
	"Item Type Name": "Temporary DOB registered oil fired mobile boiler",
	"JFNPermitNumber": "",
	"FilingNumber": "P1",
	"Created On Date": "2021/11/9 12:00:00",
	"Work Type Name": "Oil Work",
	"Filing Type Name": "PAA",
	"LocationBIN": "3117070",
	"Address": "105 BUCKINGHAM ROAD",
	"CommunityBoardNumber": "314",
	"LocationBoroughName": "BROOKLYN",
	"Longitude": -73.9641571044922,
	"Latitude": 40.6480293273926
 },
 {
	"Item Type Name": "Temporary DOB registered oil fired mobile boiler",
	"JFNPermitNumber": "B00550595-I1-LA",
	"FilingNumber": "I1",
	"Created On Date": "2021/7/1 12:00:00",
	"Work Type Name": "Oil Work",
	"Filing Type Name": "New Job Filing",
	"LocationBIN": "3117573",
	"Address": "222 EAST   17 STREET",
	"CommunityBoardNumber": "314",
	"LocationBoroughName": "BROOKLYN",
	"Longitude": -73.9635772705078,
	"Latitude": 40.6452713012695
 },
 {
	"Item Type Name": "Temporary DOB registered oil fired mobile boiler",
	"JFNPermitNumber": "B00661081-I1-LA",
	"FilingNumber": "I1",
	"Created On Date": "2022/1/12 12:00:00",
	"Work Type Name": "Oil Work",
	"Filing Type Name": "New Job Filing",
	"LocationBIN": "3117588",
	"Address": "205 EAST   17 STREET",
	"CommunityBoardNumber": "314",
	"LocationBoroughName": "BROOKLYN",
	"Longitude": -73.9630508422852,
	"Latitude": 40.645809173584
 },
 {
	"Item Type Name": "Temporary DOB registered oil fired mobile boiler",
	"JFNPermitNumber": "",
	"FilingNumber": "P1",
	"Created On Date": "2022/3/2 12:00:00",
	"Work Type Name": "Oil Work",
	"Filing Type Name": "PAA",
	"LocationBIN": "3117616",
	"Address": "165 EAST   19 STREET",
	"CommunityBoardNumber": "314",
	"LocationBoroughName": "BROOKLYN",
	"Longitude": -73.9610366821289,
	"Latitude": 40.6455192565918
 },
 {
	"Item Type Name": "Temporary DOB registered oil fired mobile boiler",
	"JFNPermitNumber": "B00674612-I1-LA",
	"FilingNumber": "I1",
	"Created On Date": "2022/2/4 12:00:00",
	"Work Type Name": "Oil Work",
	"Filing Type Name": "New Job Filing",
	"LocationBIN": "3117616",
	"Address": "165 EAST   19 STREET",
	"CommunityBoardNumber": "314",
	"LocationBoroughName": "BROOKLYN",
	"Longitude": -73.9610366821289,
	"Latitude": 40.6455192565918
 },
 {
	"Item Type Name": "Temporary DOB registered oil fired mobile boiler",
	"JFNPermitNumber": "B00102492-I1-LA",
	"FilingNumber": "I1",
	"Created On Date": "2018/11/21 12:00:00",
	"Work Type Name": "Oil Work",
	"Filing Type Name": "New Job Filing",
	"LocationBIN": "3117833",
	"Address": "2819 TILDEN AVENUE",
	"CommunityBoardNumber": "317",
	"LocationBoroughName": "BROOKLYN",
	"Longitude": -73.9503479003906,
	"Latitude": 40.6470718383789
 },
 {
	"Item Type Name": "Temporary DOB registered oil fired mobile boiler",
	"JFNPermitNumber": "B00637762-I1-LA",
	"FilingNumber": "I1",
	"Created On Date": "2021/11/28 12:00:00",
	"Work Type Name": "Oil Work",
	"Filing Type Name": "New Job Filing",
	"LocationBIN": "3118058",
	"Address": "2815 BEVERLY ROAD",
	"CommunityBoardNumber": "317",
	"LocationBoroughName": "BROOKLYN",
	"Longitude": -73.9504776000977,
	"Latitude": 40.6454391479492
 },
 {
	"Item Type Name": "Temporary DOB registered oil fired mobile boiler",
	"JFNPermitNumber": "M00088130-I1-LA",
	"FilingNumber": "I1",
	"Created On Date": "2018/10/15 12:00:00",
	"Work Type Name": "Oil Work",
	"Filing Type Name": "New Job Filing",
	"LocationBIN": "1009722",
	"Address": "55 WEST   13 STREET",
	"CommunityBoardNumber": "102",
	"LocationBoroughName": "MANHATTAN",
	"Longitude": -73.9964981079102,
	"Latitude": 40.7365608215332
 },
 {
	"Item Type Name": "Temporary DOB registered oil fired mobile boiler",
	"JFNPermitNumber": "B00440332-I1-LA",
	"FilingNumber": "I1",
	"Created On Date": "2020/12/14 12:00:00",
	"Work Type Name": "Oil Work",
	"Filing Type Name": "New Job Filing",
	"LocationBIN": "3120093",
	"Address": "570 WESTMINSTER ROAD",
	"CommunityBoardNumber": "314",
	"LocationBoroughName": "BROOKLYN",
	"Longitude": -73.9665908813477,
	"Latitude": 40.634578704834
 },
 {
	"Item Type Name": "Temporary DOB registered oil fired mobile boiler",
	"JFNPermitNumber": "M00636640-I1-LA",
	"FilingNumber": "I1",
	"Created On Date": "2021/11/23 12:00:00",
	"Work Type Name": "Oil Work",
	"Filing Type Name": "New Job Filing",
	"LocationBIN": "1009961",
	"Address": "19 COMMERCE STREET",
	"CommunityBoardNumber": "102",
	"LocationBoroughName": "MANHATTAN",
	"Longitude": -74.0045013427734,
	"Latitude": 40.7318496704102
 },
 {
	"Item Type Name": "Temporary DOB registered oil fired mobile boiler",
	"JFNPermitNumber": "M00663569-I1-LA",
	"FilingNumber": "I1",
	"Created On Date": "2022/1/17 12:00:00",
	"Work Type Name": "Oil Work",
	"Filing Type Name": "New Job Filing",
	"LocationBIN": "1047486",
	"Address": "1157 LEXINGTON AVENUE",
	"CommunityBoardNumber": "108",
	"LocationBoroughName": "MANHATTAN",
	"Longitude": -73.9582366943359,
	"Latitude": 40.7753105163574
 },
 {
	"Item Type Name": "Temporary DOB registered oil fired mobile boiler",
	"JFNPermitNumber": "B00626228-I1-LA",
	"FilingNumber": "I1",
	"Created On Date": "2021/11/5 12:00:00",
	"Work Type Name": "Oil Work",
	"Filing Type Name": "New Job Filing",
	"LocationBIN": "3121214",
	"Address": "628 EAST   17 STREET",
	"CommunityBoardNumber": "314",
	"LocationBoroughName": "BROOKLYN",
	"Longitude": -73.9616775512695,
	"Latitude": 40.6350708007813
 },
 {
	"Item Type Name": "Temporary DOB registered oil fired mobile boiler",
	"JFNPermitNumber": "B00590135-I1-LA",
	"FilingNumber": "I1",
	"Created On Date": "2021/9/8 12:00:00",
	"Work Type Name": "Oil Work",
	"Filing Type Name": "New Job Filing",
	"LocationBIN": "3121358",
	"Address": "1176 OCEAN AVENUE",
	"CommunityBoardNumber": "314",
	"LocationBoroughName": "BROOKLYN",
	"Longitude": -73.9583206176758,
	"Latitude": 40.6335182189941
 },
 {
	"Item Type Name": "Temporary DOB registered oil fired mobile boiler",
	"JFNPermitNumber": "",
	"FilingNumber": "P1",
	"Created On Date": "2022/3/16 12:00:00",
	"Work Type Name": "Oil Work",
	"Filing Type Name": "PAA",
	"LocationBIN": "3125450",
	"Address": "300 OCEAN PARKWAY",
	"CommunityBoardNumber": "312",
	"LocationBoroughName": "BROOKLYN",
	"Longitude": -73.9744567871094,
	"Latitude": 40.6417694091797
 },
 {
	"Item Type Name": "Temporary DOB registered oil fired mobile boiler",
	"JFNPermitNumber": "B00685255-I1-LA",
	"FilingNumber": "I1",
	"Created On Date": "2022/2/22 12:00:00",
	"Work Type Name": "Oil Work",
	"Filing Type Name": "New Job Filing",
	"LocationBIN": "3125450",
	"Address": "300 OCEAN PARKWAY",
	"CommunityBoardNumber": "312",
	"LocationBoroughName": "BROOKLYN",
	"Longitude": -73.9744567871094,
	"Latitude": 40.6417694091797
 },
 {
	"Item Type Name": "Temporary DOB registered oil fired mobile boiler",
	"JFNPermitNumber": "B00418657-I1-LA",
	"FilingNumber": "I1",
	"Created On Date": "2020/10/23 12:00:00",
	"Work Type Name": "Oil Work",
	"Filing Type Name": "New Job Filing",
	"LocationBIN": "3127730",
	"Address": "3845 18 AVENUE",
	"CommunityBoardNumber": "314",
	"LocationBoroughName": "BROOKLYN",
	"Longitude": -73.9711074829102,
	"Latitude": 40.6333198547363
 },
 {
	"Item Type Name": "Temporary DOB registered oil fired mobile boiler",
	"JFNPermitNumber": "B00456569-I1-LA",
	"FilingNumber": "I1",
	"Created On Date": "2021/1/19 12:00:00",
	"Work Type Name": "Oil Work",
	"Filing Type Name": "New Job Filing",
	"LocationBIN": "3127893",
	"Address": "49 PARKVILLE AVENUE",
	"CommunityBoardNumber": "314",
	"LocationBoroughName": "BROOKLYN",
	"Longitude": -73.9758071899414,
	"Latitude": 40.629020690918
 },
 {
	"Item Type Name": "Temporary DOB registered oil fired mobile boiler",
	"JFNPermitNumber": "B00719127-I1-LA",
	"FilingNumber": "I1",
	"Created On Date": "2022/4/14 12:00:00",
	"Work Type Name": "Oil Work",
	"Filing Type Name": "New Job Filing",
	"LocationBIN": "3129069",
	"Address": "1806 48 STREET",
	"CommunityBoardNumber": "312",
	"LocationBoroughName": "BROOKLYN",
	"Longitude": -73.980339050293,
	"Latitude": 40.6285400390625
 },
 {
	"Item Type Name": "Temporary DOB registered oil fired mobile boiler",
	"JFNPermitNumber": "B00719390-I1-LA",
	"FilingNumber": "I1",
	"Created On Date": "2022/4/14 12:00:00",
	"Work Type Name": "Oil Work",
	"Filing Type Name": "New Job Filing",
	"LocationBIN": "3129240",
	"Address": "1801 50 STREET",
	"CommunityBoardNumber": "312",
	"LocationBoroughName": "BROOKLYN",
	"Longitude": -73.9811401367188,
	"Latitude": 40.6277618408203
 },
 {
	"Item Type Name": "Temporary DOB registered oil fired mobile boiler",
	"JFNPermitNumber": "B00618674-I1-LA",
	"FilingNumber": "I1",
	"Created On Date": "2021/10/26 12:00:00",
	"Work Type Name": "Oil Work",
	"Filing Type Name": "New Job Filing",
	"LocationBIN": "3130664",
	"Address": "1600 55 STREET",
	"CommunityBoardNumber": "312",
	"LocationBoroughName": "BROOKLYN",
	"Longitude": -73.9889526367188,
	"Latitude": 40.6273612976074
 },
 {
	"Item Type Name": "Temporary DOB registered oil fired mobile boiler",
	"JFNPermitNumber": "B00599103-I1-LA",
	"FilingNumber": "I1",
	"Created On Date": "2021/9/23 12:00:00",
	"Work Type Name": "Oil Work",
	"Filing Type Name": "New Job Filing",
	"LocationBIN": "3136937",
	"Address": "4611 12 AVENUE",
	"CommunityBoardNumber": "312",
	"LocationBoroughName": "BROOKLYN",
	"Longitude": -73.9925537109375,
	"Latitude": 40.6376686096191
 },
 {
	"Item Type Name": "Temporary DOB registered oil fired mobile boiler",
	"JFNPermitNumber": "B00167820-I1-LA",
	"FilingNumber": "I1",
	"Created On Date": "2019/5/15 12:00:00",
	"Work Type Name": "Oil Work",
	"Filing Type Name": "New Job Filing",
	"LocationBIN": "3137062",
	"Address": "902 47 STREET",
	"CommunityBoardNumber": "312",
	"LocationBoroughName": "BROOKLYN",
	"Longitude": -73.9996795654297,
	"Latitude": 40.6411399841309
 },
 {
	"Item Type Name": "Temporary DOB registered oil fired mobile boiler",
	"JFNPermitNumber": "",
	"FilingNumber": "P1",
	"Created On Date": "2020/2/3 12:00:00",
	"Work Type Name": "Oil Work",
	"Filing Type Name": "PAA",
	"LocationBIN": "1047627",
	"Address": "140 EAST   83 STREET",
	"CommunityBoardNumber": "108",
	"LocationBoroughName": "MANHATTAN",
	"Longitude": -73.956901550293,
	"Latitude": 40.7772483825684
 },
 {
	"Item Type Name": "Temporary DOB registered oil fired mobile boiler",
	"JFNPermitNumber": "B00698971-I1-LA",
	"FilingNumber": "I1",
	"Created On Date": "2022/3/15 12:00:00",
	"Work Type Name": "Oil Work",
	"Filing Type Name": "New Job Filing",
	"LocationBIN": "3138058",
	"Address": "1231 51 STREET",
	"CommunityBoardNumber": "312",
	"LocationBoroughName": "BROOKLYN",
	"Longitude": -73.9944686889648,
	"Latitude": 40.6349105834961
 },
 {
	"Item Type Name": "Temporary DOB registered oil fired mobile boiler",
	"JFNPermitNumber": "B00729026-I1-LA",
	"FilingNumber": "I1",
	"Created On Date": "2022/5/2 12:00:00",
	"Work Type Name": "Oil Work",
	"Filing Type Name": "New Job Filing",
	"LocationBIN": "3138126",
	"Address": "1425 51 STREET",
	"CommunityBoardNumber": "312",
	"LocationBoroughName": "BROOKLYN",
	"Longitude": -73.990348815918,
	"Latitude": 40.6324005126953
 },
 {
	"Item Type Name": "Temporary DOB registered oil fired mobile boiler",
	"JFNPermitNumber": "B00230128-I1-LA",
	"FilingNumber": "I1",
	"Created On Date": "2019/9/18 12:00:00",
	"Work Type Name": "Oil Work",
	"Filing Type Name": "New Job Filing",
	"LocationBIN": "3139194",
	"Address": "938 54 STREET",
	"CommunityBoardNumber": "312",
	"LocationBoroughName": "BROOKLYN",
	"Longitude": -74.0030899047852,
	"Latitude": 40.6368103027344
 },
 {
	"Item Type Name": "Temporary DOB registered oil fired mobile boiler",
	"JFNPermitNumber": "B00687608-I1-LA",
	"FilingNumber": "I1",
	"Created On Date": "2022/2/25 12:00:00",
	"Work Type Name": "Oil Work",
	"Filing Type Name": "New Job Filing",
	"LocationBIN": "3139614",
	"Address": "5511 FORT HAMILTON PARKWAY",
	"CommunityBoardNumber": "312",
	"LocationBoroughName": "BROOKLYN",
	"Longitude": -74.001953125,
	"Latitude": 40.6351203918457
 },
 {
	"Item Type Name": "Temporary DOB registered oil fired mobile boiler",
	"JFNPermitNumber": "M00254257-S1-LA",
	"FilingNumber": "S1",
	"Created On Date": "2021/1/22 12:00:00",
	"Work Type Name": "Oil Work",
	"Filing Type Name": "Subsequent Filing",
	"LocationBIN": "1047627",
	"Address": "140 EAST   83 STREET",
	"CommunityBoardNumber": "108",
	"LocationBoroughName": "MANHATTAN",
	"Longitude": -73.956901550293,
	"Latitude": 40.7772483825684
 },
 {
	"Item Type Name": "Temporary DOB registered oil fired mobile boiler",
	"JFNPermitNumber": "B00173004-I1-LA",
	"FilingNumber": "I1",
	"Created On Date": "2019/5/28 12:00:00",
	"Work Type Name": "Oil Work",
	"Filing Type Name": "New Job Filing",
	"LocationBIN": "3152499",
	"Address": "465 84 STREET",
	"CommunityBoardNumber": "310",
	"LocationBoroughName": "BROOKLYN",
	"Longitude": -74.0258483886719,
	"Latitude": 40.6234283447266
 },
 {
	"Item Type Name": "Temporary DOB registered oil fired mobile boiler",
	"JFNPermitNumber": "M00254257-I1-LA",
	"FilingNumber": "I1",
	"Created On Date": "2019/10/28 12:00:00",
	"Work Type Name": "Oil Work",
	"Filing Type Name": "New Job Filing",
	"LocationBIN": "1047627",
	"Address": "140 EAST   83 STREET",
	"CommunityBoardNumber": "108",
	"LocationBoroughName": "MANHATTAN",
	"Longitude": -73.956901550293,
	"Latitude": 40.7772483825684
 },
 {
	"Item Type Name": "Temporary DOB registered oil fired mobile boiler",
	"JFNPermitNumber": "B00718984-I1-LA",
	"FilingNumber": "I1",
	"Created On Date": "2022/4/14 12:00:00",
	"Work Type Name": "Oil Work",
	"Filing Type Name": "New Job Filing",
	"LocationBIN": "3163319",
	"Address": "1803 81 STREET",
	"CommunityBoardNumber": "311",
	"LocationBoroughName": "BROOKLYN",
	"Longitude": -73.9990310668945,
	"Latitude": 40.6099700927734
 },
 {
	"Item Type Name": "Temporary DOB registered oil fired mobile boiler",
	"JFNPermitNumber": "B00704022-I1-LA",
	"FilingNumber": "I1",
	"Created On Date": "2022/3/22 12:00:00",
	"Work Type Name": "Oil Work",
	"Filing Type Name": "New Job Filing",
	"LocationBIN": "3165172",
	"Address": "1901 84 STREET",
	"CommunityBoardNumber": "311",
	"LocationBoroughName": "BROOKLYN",
	"Longitude": -73.9987106323242,
	"Latitude": 40.6070518493652
 },
 {
	"Item Type Name": "Temporary DOB registered oil fired mobile boiler",
	"JFNPermitNumber": "",
	"FilingNumber": "P1",
	"Created On Date": "2021/11/22 12:00:00",
	"Work Type Name": "Oil Work",
	"Filing Type Name": "PAA",
	"LocationBIN": "3173783",
	"Address": "1500 OCEAN PARKWAY",
	"CommunityBoardNumber": "312",
	"LocationBoroughName": "BROOKLYN",
	"Longitude": -73.9689331054688,
	"Latitude": 40.6121101379395
 },
 {
	"Item Type Name": "Temporary DOB registered oil fired mobile boiler",
	"JFNPermitNumber": "B00574632-I1-LA",
	"FilingNumber": "I1",
	"Created On Date": "2021/8/11 12:00:00",
	"Work Type Name": "Oil Work",
	"Filing Type Name": "New Job Filing",
	"LocationBIN": "3173783",
	"Address": "1500 OCEAN PARKWAY",
	"CommunityBoardNumber": "312",
	"LocationBoroughName": "BROOKLYN",
	"Longitude": -73.9689331054688,
	"Latitude": 40.6121101379395
 },
 {
	"Item Type Name": "Temporary DOB registered oil fired mobile boiler",
	"JFNPermitNumber": "",
	"FilingNumber": "P1",
	"Created On Date": "2021/1/20 12:00:00",
	"Work Type Name": "Oil Work",
	"Filing Type Name": "PAA",
	"LocationBIN": "3174064",
	"Address": "1501 WEST   12 STREET",
	"CommunityBoardNumber": "311",
	"LocationBoroughName": "BROOKLYN",
	"Longitude": -73.9854278564453,
	"Latitude": 40.6095199584961
 },
 {
	"Item Type Name": "Temporary DOB registered oil fired mobile boiler",
	"JFNPermitNumber": "B00450714-I1-LA",
	"FilingNumber": "I1",
	"Created On Date": "2021/1/8 12:00:00",
	"Work Type Name": "Oil Work",
	"Filing Type Name": "New Job Filing",
	"LocationBIN": "3174064",
	"Address": "1501 WEST   12 STREET",
	"CommunityBoardNumber": "311",
	"LocationBoroughName": "BROOKLYN",
	"Longitude": -73.9854278564453,
	"Latitude": 40.6095199584961
 },
 {
	"Item Type Name": "Temporary DOB registered oil fired mobile boiler",
	"JFNPermitNumber": "",
	"FilingNumber": "P1",
	"Created On Date": "2021/12/15 12:00:00",
	"Work Type Name": "Oil Work",
	"Filing Type Name": "PAA",
	"LocationBIN": "3174946",
	"Address": "1510 OCEAN PARKWAY",
	"CommunityBoardNumber": "312",
	"LocationBoroughName": "BROOKLYN",
	"Longitude": -73.9689331054688,
	"Latitude": 40.6116218566895
 },
 {
	"Item Type Name": "Temporary DOB registered oil fired mobile boiler",
	"JFNPermitNumber": "B00609761-I1-LA",
	"FilingNumber": "I1",
	"Created On Date": "2021/10/11 12:00:00",
	"Work Type Name": "Oil Work",
	"Filing Type Name": "New Job Filing",
	"LocationBIN": "3174946",
	"Address": "1510 OCEAN PARKWAY",
	"CommunityBoardNumber": "312",
	"LocationBoroughName": "BROOKLYN",
	"Longitude": -73.9689331054688,
	"Latitude": 40.6116218566895
 },
 {
	"Item Type Name": "Temporary DOB registered oil fired mobile boiler",
	"JFNPermitNumber": "B00594027-I1-LA",
	"FilingNumber": "I1",
	"Created On Date": "2021/9/15 12:00:00",
	"Work Type Name": "Oil Work",
	"Filing Type Name": "New Job Filing",
	"LocationBIN": "3174946",
	"Address": "1510 OCEAN PARKWAY",
	"CommunityBoardNumber": "312",
	"LocationBoroughName": "BROOKLYN",
	"Longitude": -73.9689331054688,
	"Latitude": 40.6116218566895
 },
 {
	"Item Type Name": "Temporary DOB registered oil fired mobile boiler",
	"JFNPermitNumber": "",
	"FilingNumber": "P1",
	"Created On Date": "2020/3/23 12:00:00",
	"Work Type Name": "Oil Work",
	"Filing Type Name": "PAA",
	"LocationBIN": "1004564",
	"Address": "730 EAST   12 STREET",
	"CommunityBoardNumber": "103",
	"LocationBoroughName": "MANHATTAN",
	"Longitude": -73.9750595092773,
	"Latitude": 40.7260093688965
 },
 {
	"Item Type Name": "Temporary DOB registered oil fired mobile boiler",
	"JFNPermitNumber": "",
	"FilingNumber": "P1",
	"Created On Date": "2020/2/6 12:00:00",
	"Work Type Name": "Oil Work",
	"Filing Type Name": "PAA",
	"LocationBIN": "3179400",
	"Address": "1710 AVENUE H",
	"CommunityBoardNumber": "314",
	"LocationBoroughName": "BROOKLYN",
	"Longitude": -73.9597473144531,
	"Latitude": 40.6299705505371
 },
 {
	"Item Type Name": "Temporary DOB registered oil fired mobile boiler",
	"JFNPermitNumber": "B00266514-I1-LA",
	"FilingNumber": "I1",
	"Created On Date": "2019/11/16 12:00:00",
	"Work Type Name": "Oil Work",
	"Filing Type Name": "New Job Filing",
	"LocationBIN": "3179400",
	"Address": "1710 AVENUE H",
	"CommunityBoardNumber": "314",
	"LocationBoroughName": "BROOKLYN",
	"Longitude": -73.9597473144531,
	"Latitude": 40.6299705505371
 },
 {
	"Item Type Name": "Temporary DOB registered oil fired mobile boiler",
	"JFNPermitNumber": "B00300345-I1-LA",
	"FilingNumber": "I1",
	"Created On Date": "2020/1/20 12:00:00",
	"Work Type Name": "Oil Work",
	"Filing Type Name": "New Job Filing",
	"LocationBIN": "3180679",
	"Address": "1617 AVENUE M",
	"CommunityBoardNumber": "314",
	"LocationBoroughName": "BROOKLYN",
	"Longitude": -73.9585266113281,
	"Latitude": 40.6185188293457
 },
 {
	"Item Type Name": "Temporary DOB registered oil fired mobile boiler",
	"JFNPermitNumber": "B00108745-I1-LA",
	"FilingNumber": "I1",
	"Created On Date": "2018/12/11 12:00:00",
	"Work Type Name": "Oil Work",
	"Filing Type Name": "New Job Filing",
	"LocationBIN": "3180679",
	"Address": "1617 AVENUE M",
	"CommunityBoardNumber": "314",
	"LocationBoroughName": "BROOKLYN",
	"Longitude": -73.9585266113281,
	"Latitude": 40.6185188293457
 },
 {
	"Item Type Name": "Temporary DOB registered oil fired mobile boiler",
	"JFNPermitNumber": "M00496891-I1-LA",
	"FilingNumber": "I1",
	"Created On Date": "2021/4/2 12:00:00",
	"Work Type Name": "Oil Work",
	"Filing Type Name": "New Job Filing",
	"LocationBIN": "1047696",
	"Address": "106 EAST   85 STREET",
	"CommunityBoardNumber": "108",
	"LocationBoroughName": "MANHATTAN",
	"Longitude": -73.9571914672852,
	"Latitude": 40.7790298461914
 },
 {
	"Item Type Name": "Temporary DOB registered oil fired mobile boiler",
	"JFNPermitNumber": "M00530623-I1-LA",
	"FilingNumber": "I1",
	"Created On Date": "2021/5/27 12:00:00",
	"Work Type Name": "Oil Work",
	"Filing Type Name": "New Job Filing",
	"LocationBIN": "1047699",
	"Address": "1009 PARK AVENUE",
	"CommunityBoardNumber": "108",
	"LocationBoroughName": "MANHATTAN",
	"Longitude": -73.95751953125,
	"Latitude": 40.7791290283203
 },
 {
	"Item Type Name": "Temporary DOB registered oil fired mobile boiler",
	"JFNPermitNumber": "M00521991-I1-LA",
	"FilingNumber": "I1",
	"Created On Date": "2021/5/13 12:00:00",
	"Work Type Name": "Oil Work",
	"Filing Type Name": "New Job Filing",
	"LocationBIN": "1047948",
	"Address": "100 EAST   86 STREET",
	"CommunityBoardNumber": "108",
	"LocationBoroughName": "MANHATTAN",
	"Longitude": -73.9570617675781,
	"Latitude": 40.7798118591309
 },
 {
	"Item Type Name": "Temporary DOB registered oil fired mobile boiler",
	"JFNPermitNumber": "B00363928-I1-LA",
	"FilingNumber": "I1",
	"Created On Date": "2020/6/29 12:00:00",
	"Work Type Name": "Oil Work",
	"Filing Type Name": "New Job Filing",
	"LocationBIN": "3200638",
	"Address": "2277 HOMECREST AVENUE",
	"CommunityBoardNumber": "315",
	"LocationBoroughName": "BROOKLYN",
	"Longitude": -73.9580993652344,
	"Latitude": 40.594799041748
 },
 {
	"Item Type Name": "Temporary DOB registered oil fired mobile boiler",
	"JFNPermitNumber": "M00271272-I1-LA",
	"FilingNumber": "I1",
	"Created On Date": "2019/11/25 12:00:00",
	"Work Type Name": "Oil Work",
	"Filing Type Name": "New Job Filing",
	"LocationBIN": "1047951",
	"Address": "1045 PARK AVENUE",
	"CommunityBoardNumber": "108",
	"LocationBoroughName": "MANHATTAN",
	"Longitude": -73.9567337036133,
	"Latitude": 40.7802886962891
 },
 {
	"Item Type Name": "Temporary DOB registered oil fired mobile boiler",
	"JFNPermitNumber": "",
	"FilingNumber": "P1",
	"Created On Date": "2020/1/11 12:00:00",
	"Work Type Name": "Oil Work",
	"Filing Type Name": "PAA",
	"LocationBIN": "3242369",
	"Address": "2529 GERRITSEN AVENUE",
	"CommunityBoardNumber": "318",
	"LocationBoroughName": "BROOKLYN",
	"Longitude": -73.9278411865234,
	"Latitude": 40.5958213806152
 },
 {
	"Item Type Name": "Temporary DOB registered oil fired mobile boiler",
	"JFNPermitNumber": "B00223223-I1-LA",
	"FilingNumber": "I1",
	"Created On Date": "2019/9/6 12:00:00",
	"Work Type Name": "Oil Work",
	"Filing Type Name": "New Job Filing",
	"LocationBIN": "3242369",
	"Address": "2529 GERRITSEN AVENUE",
	"CommunityBoardNumber": "318",
	"LocationBoroughName": "BROOKLYN",
	"Longitude": -73.9278411865234,
	"Latitude": 40.5958213806152
 },
 {
	"Item Type Name": "Temporary DOB registered oil fired mobile boiler",
	"JFNPermitNumber": "B00529770-I1-LA",
	"FilingNumber": "I1",
	"Created On Date": "2021/5/26 12:00:00",
	"Work Type Name": "Oil Work",
	"Filing Type Name": "New Job Filing",
	"LocationBIN": "3245130",
	"Address": "3161 BRIGHTON    6 STREET",
	"CommunityBoardNumber": "313",
	"LocationBoroughName": "BROOKLYN",
	"Longitude": -73.960693359375,
	"Latitude": 40.5754508972168
 },
 {
	"Item Type Name": "Temporary DOB registered oil fired mobile boiler",
	"JFNPermitNumber": "M00545352-I1-LA",
	"FilingNumber": "I1",
	"Created On Date": "2021/6/24 12:00:00",
	"Work Type Name": "Oil Work",
	"Filing Type Name": "New Job Filing",
	"LocationBIN": "1010086",
	"Address": "2 CORNELIA STREET",
	"CommunityBoardNumber": "102",
	"LocationBoroughName": "MANHATTAN",
	"Longitude": -74.0014038085938,
	"Latitude": 40.7315483093262
 },
 {
	"Item Type Name": "Temporary DOB registered oil fired mobile boiler",
	"JFNPermitNumber": "B00415672-I1-LA",
	"FilingNumber": "I1",
	"Created On Date": "2020/10/19 12:00:00",
	"Work Type Name": "Oil Work",
	"Filing Type Name": "New Job Filing",
	"LocationBIN": "3325725",
	"Address": "1201 GATES AVENUE",
	"CommunityBoardNumber": "304",
	"LocationBoroughName": "BROOKLYN",
	"Longitude": -73.9195785522461,
	"Latitude": 40.6925392150879
 },
 {
	"Item Type Name": "Temporary DOB registered oil fired mobile boiler",
	"JFNPermitNumber": "B00635181-I1-LA",
	"FilingNumber": "I1",
	"Created On Date": "2021/11/21 12:00:00",
	"Work Type Name": "Oil Work",
	"Filing Type Name": "New Job Filing",
	"LocationBIN": "3326137",
	"Address": "1260 GATES AVENUE",
	"CommunityBoardNumber": "304",
	"LocationBoroughName": "BROOKLYN",
	"Longitude": -73.918212890625,
	"Latitude": 40.6928215026855
 },
 {
	"Item Type Name": "Temporary DOB registered oil fired mobile boiler",
	"JFNPermitNumber": "B00415679-I1-LA",
	"FilingNumber": "I1",
	"Created On Date": "2020/10/19 12:00:00",
	"Work Type Name": "Oil Work",
	"Filing Type Name": "New Job Filing",
	"LocationBIN": "3326137",
	"Address": "1260 GATES AVENUE",
	"CommunityBoardNumber": "304",
	"LocationBoroughName": "BROOKLYN",
	"Longitude": -73.918212890625,
	"Latitude": 40.6928215026855
 },
 {
	"Item Type Name": "Temporary DOB registered oil fired mobile boiler",
	"JFNPermitNumber": "B00415684-I1-LA",
	"FilingNumber": "I1",
	"Created On Date": "2020/10/19 12:00:00",
	"Work Type Name": "Oil Work",
	"Filing Type Name": "New Job Filing",
	"LocationBIN": "3326149",
	"Address": "1300 GATES AVENUE",
	"CommunityBoardNumber": "304",
	"LocationBoroughName": "BROOKLYN",
	"Longitude": -73.9170074462891,
	"Latitude": 40.6941604614258
 },
 {
	"Item Type Name": "Temporary DOB registered oil fired mobile boiler",
	"JFNPermitNumber": "B00415700-I1-LA",
	"FilingNumber": "I1",
	"Created On Date": "2020/10/19 12:00:00",
	"Work Type Name": "Oil Work",
	"Filing Type Name": "New Job Filing",
	"LocationBIN": "3326150",
	"Address": "1320 GATES AVENUE",
	"CommunityBoardNumber": "304",
	"LocationBoroughName": "BROOKLYN",
	"Longitude": -73.9170074462891,
	"Latitude": 40.6941604614258
 },
 {
	"Item Type Name": "Temporary DOB registered oil fired mobile boiler",
	"JFNPermitNumber": "B00571796-I1-LA",
	"FilingNumber": "I1",
	"Created On Date": "2021/8/5 12:00:00",
	"Work Type Name": "Oil Work",
	"Filing Type Name": "New Job Filing",
	"LocationBIN": "3327270",
	"Address": "1421 BROOKLYN AVENUE",
	"CommunityBoardNumber": "317",
	"LocationBoroughName": "BROOKLYN",
	"Longitude": -73.9421005249023,
	"Latitude": 40.6382293701172
 },
 {
	"Item Type Name": "Temporary DOB registered oil fired mobile boiler",
	"JFNPermitNumber": "B00630431-I1-LA",
	"FilingNumber": "I1",
	"Created On Date": "2021/11/12 12:00:00",
	"Work Type Name": "Oil Work",
	"Filing Type Name": "New Job Filing",
	"LocationBIN": "3330074",
	"Address": "74 KENT STREET",
	"CommunityBoardNumber": "301",
	"LocationBoroughName": "BROOKLYN",
	"Longitude": -73.9582901000977,
	"Latitude": 40.7303085327148
 },
 {
	"Item Type Name": "Temporary DOB registered oil fired mobile boiler",
	"JFNPermitNumber": "B00318802-I1-LA",
	"FilingNumber": "I1",
	"Created On Date": "2020/2/19 12:00:00",
	"Work Type Name": "Oil Work",
	"Filing Type Name": "New Job Filing",
	"LocationBIN": "3330617",
	"Address": "467 PROSPECT AVENUE",
	"CommunityBoardNumber": "307",
	"LocationBoroughName": "BROOKLYN",
	"Longitude": -73.9821624755859,
	"Latitude": 40.6595611572266
 },
 {
	"Item Type Name": "Temporary DOB registered oil fired mobile boiler",
	"JFNPermitNumber": "M00262400-I1-LA",
	"FilingNumber": "I1",
	"Created On Date": "2019/11/11 12:00:00",
	"Work Type Name": "Oil Work",
	"Filing Type Name": "New Job Filing",
	"LocationBIN": "1004564",
	"Address": "730 EAST   12 STREET",
	"CommunityBoardNumber": "103",
	"LocationBoroughName": "MANHATTAN",
	"Longitude": -73.9750595092773,
	"Latitude": 40.7260093688965
 },
 {
	"Item Type Name": "Temporary DOB registered oil fired mobile boiler",
	"JFNPermitNumber": "M00231927-I1-LA",
	"FilingNumber": "I1",
	"Created On Date": "2019/9/20 12:00:00",
	"Work Type Name": "Oil Work",
	"Filing Type Name": "New Job Filing",
	"LocationBIN": "1048077",
	"Address": "127 EAST   88 STREET",
	"CommunityBoardNumber": "108",
	"LocationBoroughName": "MANHATTAN",
	"Longitude": -73.9546737670898,
	"Latitude": 40.7810707092285
 },
 {
	"Item Type Name": "Temporary DOB registered oil fired mobile boiler",
	"JFNPermitNumber": "M00177190-I1-LA",
	"FilingNumber": "I1",
	"Created On Date": "2019/6/6 12:00:00",
	"Work Type Name": "Oil Work",
	"Filing Type Name": "New Job Filing",
	"LocationBIN": "1010258",
	"Address": "129 WASHINGTON PLACE",
	"CommunityBoardNumber": "102",
	"LocationBoroughName": "MANHATTAN",
	"Longitude": -74.0017395019531,
	"Latitude": 40.7331504821777
 },
 {
	"Item Type Name": "Temporary DOB registered oil fired mobile boiler",
	"JFNPermitNumber": "",
	"FilingNumber": "P1",
	"Created On Date": "2018/12/27 12:00:00",
	"Work Type Name": "Oil Work",
	"Filing Type Name": "PAA",
	"LocationBIN": "3335262",
	"Address": "102 CUMBERLAND WALK",
	"CommunityBoardNumber": "302",
	"LocationBoroughName": "BROOKLYN",
	"Longitude": -73.9746932983398,
	"Latitude": 40.6946601867676
 },
 {
	"Item Type Name": "Temporary DOB registered oil fired mobile boiler",
	"JFNPermitNumber": "B00101563-I1-LA",
	"FilingNumber": "I1",
	"Created On Date": "2018/11/19 12:00:00",
	"Work Type Name": "Oil Work",
	"Filing Type Name": "New Job Filing",
	"LocationBIN": "3335262",
	"Address": "102 CUMBERLAND WALK",
	"CommunityBoardNumber": "302",
	"LocationBoroughName": "BROOKLYN",
	"Longitude": -73.9746932983398,
	"Latitude": 40.6946601867676
 },
 {
	"Item Type Name": "Temporary DOB registered oil fired mobile boiler",
	"JFNPermitNumber": "B00101557-I1-LA",
	"FilingNumber": "I1",
	"Created On Date": "2018/11/19 12:00:00",
	"Work Type Name": "Oil Work",
	"Filing Type Name": "New Job Filing",
	"LocationBIN": "3335262",
	"Address": "102 CUMBERLAND WALK",
	"CommunityBoardNumber": "302",
	"LocationBoroughName": "BROOKLYN",
	"Longitude": -73.9746932983398,
	"Latitude": 40.6946601867676
 },
 {
	"Item Type Name": "Temporary DOB registered oil fired mobile boiler",
	"JFNPermitNumber": "B00101546-I1-LA",
	"FilingNumber": "I1",
	"Created On Date": "2018/11/19 12:00:00",
	"Work Type Name": "Oil Work",
	"Filing Type Name": "New Job Filing",
	"LocationBIN": "3335262",
	"Address": "102 CUMBERLAND WALK",
	"CommunityBoardNumber": "302",
	"LocationBoroughName": "BROOKLYN",
	"Longitude": -73.9746932983398,
	"Latitude": 40.6946601867676
 },
 {
	"Item Type Name": "Temporary DOB registered oil fired mobile boiler",
	"JFNPermitNumber": "M00224617-I1-LA",
	"FilingNumber": "I1",
	"Created On Date": "2019/9/9 12:00:00",
	"Work Type Name": "Oil Work",
	"Filing Type Name": "New Job Filing",
	"LocationBIN": "1048571",
	"Address": "236 EAST   82 STREET",
	"CommunityBoardNumber": "108",
	"LocationBoroughName": "MANHATTAN",
	"Longitude": -73.9545288085938,
	"Latitude": 40.7754211425781
 },