[
 {
	"Item Type Name": "Temporary DOB registered oil fired mobile boiler",
	"JFNPermitNumber": "B00535480-S1-LA",
	"FilingNumber": "S1",
	"Created On Date": "2022/2/4 12:00:00",
	"Work Type Name": "Oil Work",
	"Filing Type Name": "Subsequent Filing",
	"LocationBIN": "3029638",
	"Address": "400 LINCOLN PLACE",
	"CommunityBoardNumber": "308",
	"LocationBoroughName": "BROOKLYN",
	"Longitude": -73.9631271,
	"Latitude": 40.6726608
 },
 {
	"Item Type Name": "Temporary DOB registered oil fired mobile boiler",
	"JFNPermitNumber": "B00661081-I1-LA",
	"FilingNumber": "I1",
	"Created On Date": "2022/1/12 12:00:00",
	"Work Type Name": "Oil Work",
	"Filing Type Name": "New Job Filing",
	"LocationBIN": "3117588",
	"Address": "205 EAST   17 STREET",
	"CommunityBoardNumber": "314",
	"LocationBoroughName": "BROOKLYN",
	"Longitude": -73.9630508,
	"Latitude": 40.6458092
 },
 {
	"Item Type Name": "Temporary DOB registered oil fired mobile boiler",
	"JFNPermitNumber": "B00663611-I1-LA",
	"FilingNumber": "I1",
	"Created On Date": "2022/1/17 12:00:00",
	"Work Type Name": "Oil Work",
	"Filing Type Name": "New Job Filing",
	"LocationBIN": "3338999",
	"Address": "2520 CHURCH AVENUE",
	"CommunityBoardNumber": "317",
	"LocationBoroughName": "BROOKLYN",
	"Longitude": -73.9537888,
	"Latitude": 40.6501198
 },
 {
	"Item Type Name": "Temporary DOB registered oil fired mobile boiler",
	"JFNPermitNumber": "B00671201-I1-LA",
	"FilingNumber": "I1",
	"Created On Date": "2022/1/28 12:00:00",
	"Work Type Name": "Oil Work",
	"Filing Type Name": "New Job Filing",
	"LocationBIN": "3019597",
	"Address": "180 6 AVENUE",
	"CommunityBoardNumber": "306",
	"LocationBoroughName": "BROOKLYN",
	"Longitude": -73.9779892,
	"Latitude": 40.676651
 },
 {
	"Item Type Name": "Temporary DOB registered oil fired mobile boiler",
	"JFNPermitNumber": "B00674612-I1-LA",
	"FilingNumber": "I1",
	"Created On Date": "2022/2/4 12:00:00",
	"Work Type Name": "Oil Work",
	"Filing Type Name": "New Job Filing",
	"LocationBIN": "3117616",
	"Address": "165 EAST   19 STREET",
	"CommunityBoardNumber": "314",
	"LocationBoroughName": "BROOKLYN",
	"Longitude": -73.9610367,
	"Latitude": 40.6455193
 },
 {
	"Item Type Name": "Temporary DOB registered oil fired mobile boiler",
	"JFNPermitNumber": "B00676792-I1-LA",
	"FilingNumber": "I1",
	"Created On Date": "2022/2/8 12:00:00",
	"Work Type Name": "Oil Work",
	"Filing Type Name": "New Job Filing",
	"LocationBIN": "3400387",
	"Address": "161 VARICK AVENUE",
	"CommunityBoardNumber": "301",
	"LocationBoroughName": "BROOKLYN",
	"Longitude": -73.9296722,
	"Latitude": 40.7109604
 },
 {
	"Item Type Name": "Temporary DOB registered oil fired mobile boiler",
	"JFNPermitNumber": "B00685255-I1-LA",
	"FilingNumber": "I1",
	"Created On Date": "2022/2/22 12:00:00",
	"Work Type Name": "Oil Work",
	"Filing Type Name": "New Job Filing",
	"LocationBIN": "3125450",
	"Address": "300 OCEAN PARKWAY",
	"CommunityBoardNumber": "312",
	"LocationBoroughName": "BROOKLYN",
	"Longitude": -73.9744568,
	"Latitude": 40.6417694
 },
 {
	"Item Type Name": "Temporary DOB registered oil fired mobile boiler",
	"JFNPermitNumber": "B00685758-I1-LA",
	"FilingNumber": "I1",
	"Created On Date": "2022/2/23 12:00:00",
	"Work Type Name": "Oil Work",
	"Filing Type Name": "New Job Filing",
	"LocationBIN": "3010685",
	"Address": "354 41 STREET",
	"CommunityBoardNumber": "307",
	"LocationBoroughName": "BROOKLYN",
	"Longitude": -74.0083008,
	"Latitude": 40.6518211
 },
 {
	"Item Type Name": "Temporary DOB registered oil fired mobile boiler",
	"JFNPermitNumber": "B00685931-I1-LA",
	"FilingNumber": "I1",
	"Created On Date": "2022/2/23 12:00:00",
	"Work Type Name": "Oil Work",
	"Filing Type Name": "New Job Filing",
	"LocationBIN": "3000092",
	"Address": "57 JAY STREET",
	"CommunityBoardNumber": "302",
	"LocationBoroughName": "BROOKLYN",
	"Longitude": -73.9863586,
	"Latitude": 40.7029686
 },
 {
	"Item Type Name": "Temporary DOB registered oil fired mobile boiler",
	"JFNPermitNumber": "B00687608-I1-LA",
	"FilingNumber": "I1",
	"Created On Date": "2022/2/25 12:00:00",
	"Work Type Name": "Oil Work",
	"Filing Type Name": "New Job Filing",
	"LocationBIN": "3139614",
	"Address": "5511 FORT HAMILTON PARKWAY",
	"CommunityBoardNumber": "312",
	"LocationBoroughName": "BROOKLYN",
	"Longitude": -74.0019531,
	"Latitude": 40.6351204
 },
 {
	"Item Type Name": "Temporary DOB registered oil fired mobile boiler",
	"JFNPermitNumber": "B00692136-I1-LA",
	"FilingNumber": "I1",
	"Created On Date": "2022/3/4 12:00:00",
	"Work Type Name": "Oil Work",
	"Filing Type Name": "New Job Filing",
	"LocationBIN": "3030348",
	"Address": "1055 BERGEN STREET",
	"CommunityBoardNumber": "308",
	"LocationBoroughName": "BROOKLYN",
	"Longitude": -73.9514771,
	"Latitude": 40.6764183
 },
 {
	"Item Type Name": "Temporary DOB registered oil fired mobile boiler",
	"JFNPermitNumber": "B00698682-I1-LA",
	"FilingNumber": "I1",
	"Created On Date": "2022/3/15 12:00:00",
	"Work Type Name": "Oil Work",
	"Filing Type Name": "New Job Filing",
	"LocationBIN": "3076419",
	"Address": "1152 GATES AVENUE",
	"CommunityBoardNumber": "304",
	"LocationBoroughName": "BROOKLYN",
	"Longitude": -73.9200592,
	"Latitude": 40.6911812
 },
 {
	"Item Type Name": "Temporary DOB registered oil fired mobile boiler",
	"JFNPermitNumber": "B00698971-I1-LA",
	"FilingNumber": "I1",
	"Created On Date": "2022/3/15 12:00:00",
	"Work Type Name": "Oil Work",
	"Filing Type Name": "New Job Filing",
	"LocationBIN": "3138058",
	"Address": "1231 51 STREET",
	"CommunityBoardNumber": "312",
	"LocationBoroughName": "BROOKLYN",
	"Longitude": -73.9944687,
	"Latitude": 40.6349106
 },
 {
	"Item Type Name": "Temporary DOB registered oil fired mobile boiler",
	"JFNPermitNumber": "B00701540-I1-LA",
	"FilingNumber": "I1",
	"Created On Date": "2022/3/18 12:00:00",
	"Work Type Name": "Oil Work",
	"Filing Type Name": "New Job Filing",
	"LocationBIN": "3398591",
	"Address": "461 DEAN STREET",
	"CommunityBoardNumber": "306",
	"LocationBoroughName": "BROOKLYN",
	"Longitude": -73.9754868,
	"Latitude": 40.6819611
 },
 {
	"Item Type Name": "Temporary DOB registered oil fired mobile boiler",
	"JFNPermitNumber": "B00704022-I1-LA",
	"FilingNumber": "I1",
	"Created On Date": "2022/3/22 12:00:00",
	"Work Type Name": "Oil Work",
	"Filing Type Name": "New Job Filing",
	"LocationBIN": "3165172",
	"Address": "1901 84 STREET",
	"CommunityBoardNumber": "311",
	"LocationBoroughName": "BROOKLYN",
	"Longitude": -73.9987106,
	"Latitude": 40.6070518
 },
 {
	"Item Type Name": "Temporary DOB registered oil fired mobile boiler",
	"JFNPermitNumber": "B00704396-I1-LA",
	"FilingNumber": "I1",
	"Created On Date": "2022/3/23 12:00:00",
	"Work Type Name": "Oil Work",
	"Filing Type Name": "New Job Filing",
	"LocationBIN": "3002060",
	"Address": "110 MONTAGUE STREET",
	"CommunityBoardNumber": "302",
	"LocationBoroughName": "BROOKLYN",
	"Longitude": -73.9951172,
	"Latitude": 40.6947784
 },
 {
	"Item Type Name": "Temporary DOB registered oil fired mobile boiler",
	"JFNPermitNumber": "B00710327-I1-LA",
	"FilingNumber": "I1",
	"Created On Date": "2022/3/31 12:00:00",
	"Work Type Name": "Oil Work",
	"Filing Type Name": "New Job Filing",
	"LocationBIN": "3413894",
	"Address": "181 FRONT STREET",
	"CommunityBoardNumber": "302",
	"LocationBoroughName": "BROOKLYN",
	"Longitude": -73.9859619,
	"Latitude": 40.7025986
 },
 {
	"Item Type Name": "Temporary DOB registered oil fired mobile boiler",
	"JFNPermitNumber": "B00713576-I1-LA",
	"FilingNumber": "I1",
	"Created On Date": "2022/4/6 12:00:00",
	"Work Type Name": "Oil Work",
	"Filing Type Name": "New Job Filing",
	"LocationBIN": "3116130",
	"Address": "416 OCEAN AVENUE",
	"CommunityBoardNumber": "314",
	"LocationBoroughName": "BROOKLYN",
	"Longitude": -73.9618073,
	"Latitude": 40.6523705
 },
 {
	"Item Type Name": "Temporary DOB registered oil fired mobile boiler",
	"JFNPermitNumber": "B00718984-I1-LA",
	"FilingNumber": "I1",
	"Created On Date": "2022/4/14 12:00:00",
	"Work Type Name": "Oil Work",
	"Filing Type Name": "New Job Filing",
	"LocationBIN": "3163319",
	"Address": "1803 81 STREET",
	"CommunityBoardNumber": "311",
	"LocationBoroughName": "BROOKLYN",
	"Longitude": -73.9990311,
	"Latitude": 40.6099701
 },
 {
	"Item Type Name": "Temporary DOB registered oil fired mobile boiler",
	"JFNPermitNumber": "B00719127-I1-LA",
	"FilingNumber": "I1",
	"Created On Date": "2022/4/14 12:00:00",
	"Work Type Name": "Oil Work",
	"Filing Type Name": "New Job Filing",
	"LocationBIN": "3129069",
	"Address": "1806 48 STREET",
	"CommunityBoardNumber": "312",
	"LocationBoroughName": "BROOKLYN",
	"Longitude": -73.9803391,
	"Latitude": 40.62854
 },
 {
	"Item Type Name": "Temporary DOB registered oil fired mobile boiler",
	"JFNPermitNumber": "B00719390-I1-LA",
	"FilingNumber": "I1",
	"Created On Date": "2022/4/14 12:00:00",
	"Work Type Name": "Oil Work",
	"Filing Type Name": "New Job Filing",
	"LocationBIN": "3129240",
	"Address": "1801 50 STREET",
	"CommunityBoardNumber": "312",
	"LocationBoroughName": "BROOKLYN",
	"Longitude": -73.9811401,
	"Latitude": 40.6277618
 },
 {
	"Item Type Name": "Temporary DOB registered oil fired mobile boiler",
	"JFNPermitNumber": "B00729026-I1-LA",
	"FilingNumber": "I1",
	"Created On Date": "2022/5/2 12:00:00",
	"Work Type Name": "Oil Work",
	"Filing Type Name": "New Job Filing",
	"LocationBIN": "3138126",
	"Address": "1425 51 STREET",
	"CommunityBoardNumber": "312",
	"LocationBoroughName": "BROOKLYN",
	"Longitude": -73.9903488,
	"Latitude": 40.6324005
 },
 {
	"Item Type Name": "Temporary DOB registered oil fired mobile boiler",
	"JFNPermitNumber": "B00734536-I1-LA",
	"FilingNumber": "I1",
	"Created On Date": "2022/5/9 12:00:00",
	"Work Type Name": "Oil Work",
	"Filing Type Name": "New Job Filing",
	"LocationBIN": "3029652",
	"Address": "255 EASTERN PARKWAY",
	"CommunityBoardNumber": "308",
	"LocationBoroughName": "BROOKLYN",
	"Longitude": -73.960289,
	"Latitude": 40.6717186
 },
 {
	"Item Type Name": "Temporary DOB registered oil fired mobile boiler",
	"JFNPermitNumber": "B00734660-I1-LA",
	"FilingNumber": "I1",
	"Created On Date": "2022/5/10 12:00:00",
	"Work Type Name": "Oil Work",
	"Filing Type Name": "New Job Filing",
	"LocationBIN": "3129068",
	"Address": "1805 49 STREET",
	"CommunityBoardNumber": "312",
	"LocationBoroughName": "BROOKLYN",
	"Longitude": -73.9805679,
	"Latitude": 40.6283302
 },
 {
	"Item Type Name": "Temporary DOB registered oil fired mobile boiler",
	"JFNPermitNumber": "B00739670-I1-LA",
	"FilingNumber": "I1",
	"Created On Date": "2022/5/17 12:00:00",
	"Work Type Name": "Oil Work",
	"Filing Type Name": "New Job Filing",
	"LocationBIN": "3171510",
	"Address": "1012 AVENUE K",
	"CommunityBoardNumber": "312",
	"LocationBoroughName": "BROOKLYN",
	"Longitude": -73.9650269,
	"Latitude": 40.6220894
 },
 {
	"Item Type Name": "Temporary DOB registered oil fired mobile boiler",
	"JFNPermitNumber": "B00742896-I1-LA",
	"FilingNumber": "I1",
	"Created On Date": "2022/5/20 12:00:00",
	"Work Type Name": "Oil Work",
	"Filing Type Name": "New Job Filing",
	"LocationBIN": "3418326",
	"Address": "2415 CHURCH AVENUE",
	"CommunityBoardNumber": "317",
	"LocationBoroughName": "BROOKLYN",
	"Longitude": -73.9551163,
	"Latitude": 40.6508484
 },
 {
	"Item Type Name": "Temporary DOB registered oil fired mobile boiler",
	"JFNPermitNumber": "B00746243-I1-LA",
	"FilingNumber": "I1",
	"Created On Date": "2022/5/26 12:00:00",
	"Work Type Name": "Oil Work",
	"Filing Type Name": "New Job Filing",
	"LocationBIN": "3327372",
	"Address": "217 EAST    7 STREET",
	"CommunityBoardNumber": "312",
	"LocationBoroughName": "BROOKLYN",
	"Longitude": -73.9728165,
	"Latitude": 40.646389
 },
 {
	"Item Type Name": "Temporary DOB registered oil fired mobile boiler",
	"JFNPermitNumber": "B00747926-I1-LA",
	"FilingNumber": "I1",
	"Created On Date": "2022/5/31 12:00:00",
	"Work Type Name": "Oil Work",
	"Filing Type Name": "New Job Filing",
	"LocationBIN": "3055968",
	"Address": "430 CLINTON AVENUE",
	"CommunityBoardNumber": "302",
	"LocationBoroughName": "BROOKLYN",
	"Longitude": -73.9678116,
	"Latitude": 40.6853409
 },
 {
	"Item Type Name": "Temporary DOB registered oil fired mobile boiler",
	"JFNPermitNumber": "B00748875-I1-LA",
	"FilingNumber": "I1",
	"Created On Date": "2022/6/1 12:00:00",
	"Work Type Name": "Oil Work",
	"Filing Type Name": "New Job Filing",
	"LocationBIN": "3136585",
	"Address": "983 46 STREET",
	"CommunityBoardNumber": "312",
	"LocationBoroughName": "BROOKLYN",
	"Longitude": -73.9971008,
	"Latitude": 40.6409607
 },
 {
	"Item Type Name": "Temporary DOB registered oil fired mobile boiler",
	"JFNPermitNumber": "B00749510-I1-LA",
	"FilingNumber": "I1",
	"Created On Date": "2022/6/1 12:00:00",
	"Work Type Name": "Oil Work",
	"Filing Type Name": "New Job Filing",
	"LocationBIN": "3061080",
	"Address": "40 HEYWARD STREET",
	"CommunityBoardNumber": "301",
	"LocationBoroughName": "BROOKLYN",
	"Longitude": -73.9579163,
	"Latitude": 40.7002411
 },
 {
	"Item Type Name": "Temporary DOB registered oil fired mobile boiler",
	"JFNPermitNumber": "B00760621-I1-LA",
	"FilingNumber": "I1",
	"Created On Date": "2022/6/20 12:00:00",
	"Work Type Name": "Oil Work",
	"Filing Type Name": "New Job Filing",
	"LocationBIN": "3180160",
	"Address": "1921 AVENUE K",
	"CommunityBoardNumber": "314",
	"LocationBoroughName": "BROOKLYN",
	"Longitude": -73.9564285,
	"Latitude": 40.6234894
 },
 {
	"Item Type Name": "Temporary DOB registered oil fired mobile boiler",
	"JFNPermitNumber": "B00760994-I1-LA",
	"FilingNumber": "I1",
	"Created On Date": "2022/6/20 12:00:00",
	"Work Type Name": "Oil Work",
	"Filing Type Name": "New Job Filing",
	"LocationBIN": "3047914",
	"Address": "180 CHAUNCEY STREET",
	"CommunityBoardNumber": "303",
	"LocationBoroughName": "BROOKLYN",
	"Longitude": -73.9266663,
	"Latitude": 40.6803513
 },
 {
	"Item Type Name": "Temporary DOB registered oil fired mobile boiler",
	"JFNPermitNumber": "B00762349-I1-LA",
	"FilingNumber": "I1",
	"Created On Date": "2022/6/22 12:00:00",
	"Work Type Name": "Oil Work",
	"Filing Type Name": "New Job Filing",
	"LocationBIN": "3150455",
	"Address": "601 79 STREET",
	"CommunityBoardNumber": "310",
	"LocationBoroughName": "BROOKLYN",
	"Longitude": -74.0208588,
	"Latitude": 40.6249809
 },
 {
	"Item Type Name": "Temporary DOB registered oil fired mobile boiler",
	"JFNPermitNumber": "B00776319-I1-LA",
	"FilingNumber": "I1",
	"Created On Date": "2022/7/18 12:00:00",
	"Work Type Name": "Oil Work",
	"Filing Type Name": "New Job Filing",
	"LocationBIN": "3163419",
	"Address": "8002 21 AVENUE",
	"CommunityBoardNumber": "311",
	"LocationBoroughName": "BROOKLYN",
	"Longitude": -73.9929733,
	"Latitude": 40.6066704
 },
 {
	"Item Type Name": "Temporary DOB registered oil fired mobile boiler",
	"JFNPermitNumber": "B00781943-I1-LA",
	"FilingNumber": "I1",
	"Created On Date": "2022/7/26 12:00:00",
	"Work Type Name": "Oil Work",
	"Filing Type Name": "New Job Filing",
	"LocationBIN": "3002558",
	"Address": "210 JORALEMON STREET",
	"CommunityBoardNumber": "302",
	"LocationBoroughName": "BROOKLYN",
	"Longitude": -73.9904709,
	"Latitude": 40.69207
 },
 {
	"Item Type Name": "Temporary DOB registered oil fired mobile boiler",
	"JFNPermitNumber": "B00783443-I1-LA",
	"FilingNumber": "I1",
	"Created On Date": "2022/7/28 12:00:00",
	"Work Type Name": "Oil Work",
	"Filing Type Name": "New Job Filing",
	"LocationBIN": "3000203",
	"Address": "50 NAVY STREET",
	"CommunityBoardNumber": "302",
	"LocationBoroughName": "BROOKLYN",
	"Longitude": -73.9811172,
	"Latitude": 40.6978493
 },
 {
	"Item Type Name": "Temporary DOB registered oil fired mobile boiler",
	"JFNPermitNumber": "B00784992-I1-LA",
	"FilingNumber": "I1",
	"Created On Date": "2022/8/1 12:00:00",
	"Work Type Name": "Oil Work",
	"Filing Type Name": "New Job Filing",
	"LocationBIN": "3324294",
	"Address": "725 STANLEY AVENUE",
	"CommunityBoardNumber": "305",
	"LocationBoroughName": "BROOKLYN",
	"Longitude": -73.8818512,
	"Latitude": 40.6612206
 },
 {
	"Item Type Name": "Temporary DOB registered oil fired mobile boiler",
	"JFNPermitNumber": "B00789626-I1-LA",
	"FilingNumber": "I1",
	"Created On Date": "2022/8/8 12:00:00",
	"Work Type Name": "Oil Work",
	"Filing Type Name": "New Job Filing",
	"LocationBIN": "3334961",
	"Address": "200 WILLOUGHBY AVENUE",
	"CommunityBoardNumber": "302",
	"LocationBoroughName": "BROOKLYN",
	"Longitude": -73.9638901,
	"Latitude": 40.691021
 },
 {
	"Item Type Name": "Temporary DOB registered oil fired mobile boiler",
	"JFNPermitNumber": "B00792350-I1-LA",
	"FilingNumber": "I1",
	"Created On Date": "2022/8/12 12:00:00",
	"Work Type Name": "Oil Work",
	"Filing Type Name": "New Job Filing",
	"LocationBIN": "3048818",
	"Address": "545 WILLOUGHBY AVENUE",
	"CommunityBoardNumber": "303",
	"LocationBoroughName": "BROOKLYN",
	"Longitude": -73.9473572,
	"Latitude": 40.6944389
 },
 {
	"Item Type Name": "Temporary DOB registered oil fired mobile boiler",
	"JFNPermitNumber": "B00793297-I1-LA",
	"FilingNumber": "I1",
	"Created On Date": "2022/8/15 12:00:00",
	"Work Type Name": "Oil Work",
	"Filing Type Name": "New Job Filing",
	"LocationBIN": "3115529",
	"Address": "75 HAWTHORNE STREET",
	"CommunityBoardNumber": "309",
	"LocationBoroughName": "BROOKLYN",
	"Longitude": -73.9576416,
	"Latitude": 40.6576385
 },
 {
	"Item Type Name": "Temporary DOB registered oil fired mobile boiler",
	"JFNPermitNumber": "B00793518-I1-LA",
	"FilingNumber": "I1",
	"Created On Date": "2022/8/15 12:00:00",
	"Work Type Name": "Oil Work",
	"Filing Type Name": "New Job Filing",
	"LocationBIN": "3224947",
	"Address": "956 EAST   82 STREET",
	"CommunityBoardNumber": "318",
	"LocationBoroughName": "BROOKLYN",
	"Longitude": -73.9112167,
	"Latitude": 40.6353912
 },
 {
	"Item Type Name": "Temporary DOB registered oil fired mobile boiler",
	"JFNPermitNumber": "B00807709-I1-LA",
	"FilingNumber": "I1",
	"Created On Date": "2023/1/4 12:00:00",
	"Work Type Name": "Oil Work",
	"Filing Type Name": "New Job Filing",
	"LocationBIN": "3192661",
	"Address": "345 VAN SICKLEN STREET",
	"CommunityBoardNumber": "315",
	"LocationBoroughName": "BROOKLYN",
	"Longitude": -73.9746704,
	"Latitude": 40.5960007
 },
 {
	"Item Type Name": "Temporary DOB registered oil fired mobile boiler",
	"JFNPermitNumber": "B00810067-I1-LA",
	"FilingNumber": "I1",
	"Created On Date": "2023/1/9 12:00:00",
	"Work Type Name": "Oil Work",
	"Filing Type Name": "New Job Filing",
	"LocationBIN": "3046876",
	"Address": "500 MACON STREET",
	"CommunityBoardNumber": "303",
	"LocationBoroughName": "BROOKLYN",
	"Longitude": -73.93013,
	"Latitude": 40.6829491
 },
 {
	"Item Type Name": "Temporary DOB registered oil fired mobile boiler",
	"JFNPermitNumber": "B00812387-I1-LA",
	"FilingNumber": "I1",
	"Created On Date": "2023/1/13 12:00:00",
	"Work Type Name": "Oil Work",
	"Filing Type Name": "New Job Filing",
	"LocationBIN": "3145633",
	"Address": "237 OVINGTON AVENUE",
	"CommunityBoardNumber": "310",
	"LocationBoroughName": "BROOKLYN",
	"Longitude": -74.0276337,
	"Latitude": 40.6354599
 },
 {
	"Item Type Name": "Temporary DOB registered oil fired mobile boiler",
	"JFNPermitNumber": "B00812688-I1-LA",
	"FilingNumber": "I1",
	"Created On Date": "2023/1/13 12:00:00",
	"Work Type Name": "Oil Work",
	"Filing Type Name": "New Job Filing",
	"LocationBIN": "3034161",
	"Address": "240 CROWN STREET",
	"CommunityBoardNumber": "309",
	"LocationBoroughName": "BROOKLYN",
	"Longitude": -73.9527435,
	"Latitude": 40.6660995
 },
 {
	"Item Type Name": "Temporary DOB registered oil fired mobile boiler",
	"JFNPermitNumber": "B00822608-I1-LA",
	"FilingNumber": "I1",
	"Created On Date": "2023/2/2 12:00:00",
	"Work Type Name": "Oil Work",
	"Filing Type Name": "New Job Filing",
	"LocationBIN": "3392234",
	"Address": "358 GROVE STREET",
	"CommunityBoardNumber": "304",
	"LocationBoroughName": "BROOKLYN",
	"Longitude": -73.9138031,
	"Latitude": 40.6999397
 },
 {
	"Item Type Name": "Temporary DOB registered oil fired mobile boiler",
	"JFNPermitNumber": "B00824521-I1-LA",
	"FilingNumber": "I1",
	"Created On Date": "2023/2/6 12:00:00",
	"Work Type Name": "Oil Work",
	"Filing Type Name": "New Job Filing",
	"LocationBIN": "3324228",
	"Address": "207 PROSPECT PARK SOUTH WEST",
	"CommunityBoardNumber": "307",
	"LocationBoroughName": "BROOKLYN",
	"Longitude": -73.9730682,
	"Latitude": 40.65205
 },
 {
	"Item Type Name": "Temporary DOB registered oil fired mobile boiler",
	"JFNPermitNumber": "B00831937-I1-LA",
	"FilingNumber": "I1",
	"Created On Date": "2023/2/20 12:00:00",
	"Work Type Name": "Oil Work",
	"Filing Type Name": "New Job Filing",
	"LocationBIN": "3117147",
	"Address": "280 EAST   21 STREET",
	"CommunityBoardNumber": "314",
	"LocationBoroughName": "BROOKLYN",
	"Longitude": -73.9597092,
	"Latitude": 40.6476898
 },
 {
	"Item Type Name": "Temporary DOB registered oil fired mobile boiler",
	"JFNPermitNumber": "B00834385-I1-LA",
	"FilingNumber": "I1",
	"Created On Date": "2023/2/23 12:00:00",
	"Work Type Name": "Oil Work",
	"Filing Type Name": "New Job Filing",
	"LocationBIN": "3172747",
	"Address": "1397 EAST    2 STREET",
	"CommunityBoardNumber": "312",
	"LocationBoroughName": "BROOKLYN",
	"Longitude": -73.9728699,
	"Latitude": 40.6155891
 },
 {
	"Item Type Name": "Temporary DOB registered oil fired mobile boiler",
	"JFNPermitNumber": "B00835451-I1-LA",
	"FilingNumber": "I1",
	"Created On Date": "2023/2/27 12:00:00",
	"Work Type Name": "Oil Work",
	"Filing Type Name": "New Job Filing",
	"LocationBIN": "3063012",
	"Address": "231 SOUTH    2 STREET",
	"CommunityBoardNumber": "301",
	"LocationBoroughName": "BROOKLYN",
	"Longitude": -73.9582825,
	"Latitude": 40.7121201
 },
 {
	"Item Type Name": "Temporary DOB registered oil fired mobile boiler",
	"JFNPermitNumber": "B00852822-I1-LA",
	"FilingNumber": "I1",
	"Created On Date": "2023/3/30 12:00:00",
	"Work Type Name": "Oil Work",
	"Filing Type Name": "New Job Filing",
	"LocationBIN": "3008506",
	"Address": "120 RICHARDS STREET",
	"CommunityBoardNumber": "306",
	"LocationBoroughName": "BROOKLYN",
	"Longitude": -74.0099869,
	"Latitude": 40.6778297
 },
 {
	"Item Type Name": "Temporary DOB registered oil fired mobile boiler",
	"JFNPermitNumber": "B00856375-I1-LA",
	"FilingNumber": "I1",
	"Created On Date": "2023/4/6 12:00:00",
	"Work Type Name": "Oil Work",
	"Filing Type Name": "New Job Filing",
	"LocationBIN": "3391534",
	"Address": "171 PROSPECT PLACE",
	"CommunityBoardNumber": "308",
	"LocationBoroughName": "BROOKLYN",
	"Longitude": -73.9709015,
	"Latitude": 40.6783791
 },
 {
	"Item Type Name": "Temporary DOB registered oil fired mobile boiler",
	"JFNPermitNumber": "B00859880-I1-LA",
	"FilingNumber": "I1",
	"Created On Date": "2023/4/14 12:00:00",
	"Work Type Name": "Oil Work",
	"Filing Type Name": "New Job Filing",
	"LocationBIN": "3426346",
	"Address": "50 BRIDGE PARK DRIVE",
	"CommunityBoardNumber": "302",
	"LocationBoroughName": "BROOKLYN",
	"Longitude": -74.0006866,
	"Latitude": 40.6928291
 },
 {
	"Item Type Name": "Temporary DOB registered oil fired mobile boiler",
	"JFNPermitNumber": "B00871479-I1-LA",
	"FilingNumber": "I1",
	"Created On Date": "2023/6/7 12:00:00",
	"Work Type Name": "Oil Work",
	"Filing Type Name": "New Job Filing",
	"LocationBIN": "3338597",
	"Address": "991 MYRTLE AVENUE",
	"CommunityBoardNumber": "303",
	"LocationBoroughName": "BROOKLYN",
	"Longitude": -73.9420395,
	"Latitude": 40.6972198
 },
 {
	"Item Type Name": "Temporary DOB registered oil fired mobile boiler",
	"JFNPermitNumber": "B00873707-I1-LA",
	"FilingNumber": "I1",
	"Created On Date": "2023/5/11 12:00:00",
	"Work Type Name": "Oil Work",
	"Filing Type Name": "New Job Filing",
	"LocationBIN": "3150481",
	"Address": "7805 7 AVENUE",
	"CommunityBoardNumber": "310",
	"LocationBoroughName": "BROOKLYN",
	"Longitude": -74.0184708,
	"Latitude": 40.6237297
 },
 {
	"Item Type Name": "Temporary DOB registered oil fired mobile boiler",
	"JFNPermitNumber": "B00881202-I1-LA",
	"FilingNumber": "I1",
	"Created On Date": "2023/5/25 12:00:00",
	"Work Type Name": "Oil Work",
	"Filing Type Name": "New Job Filing",
	"LocationBIN": "3079428",
	"Address": "84 SCHAEFFER STREET",
	"CommunityBoardNumber": "304",
	"LocationBoroughName": "BROOKLYN",
	"Longitude": -73.9104233,
	"Latitude": 40.6864395
 },
 {
	"Item Type Name": "Temporary DOB registered oil fired mobile boiler",
	"JFNPermitNumber": "B00899064-I1-LA",
	"FilingNumber": "I1",
	"Created On Date": "2023/7/3 12:00:00",
	"Work Type Name": "Oil Work",
	"Filing Type Name": "New Job Filing",
	"LocationBIN": "3116368",
	"Address": "10 WESTMINSTER ROAD",
	"CommunityBoardNumber": "314",
	"LocationBoroughName": "BROOKLYN",
	"Longitude": -73.9690094,
	"Latitude": 40.6489105
 },
 {
	"Item Type Name": "Temporary DOB registered oil fired mobile boiler",
	"JFNPermitNumber": "B00903009-I1-LA",
	"FilingNumber": "I1",
	"Created On Date": "2023/7/12 12:00:00",
	"Work Type Name": "Oil Work",
	"Filing Type Name": "New Job Filing",
	"LocationBIN": "3037262",
	"Address": "1188 LINCOLN PLACE",
	"CommunityBoardNumber": "308",
	"LocationBoroughName": "BROOKLYN",
	"Longitude": -73.9372864,
	"Latitude": 40.669899
 },
 {
	"Item Type Name": "Temporary DOB registered oil fired mobile boiler",
	"JFNPermitNumber": "B00908020-I1-LA",
	"FilingNumber": "I1",
	"Created On Date": "2023/7/21 12:00:00",
	"Work Type Name": "Oil Work",
	"Filing Type Name": "New Job Filing",
	"LocationBIN": "3215705",
	"Address": "1199 EAST   53 STREET",
	"CommunityBoardNumber": "318",
	"LocationBoroughName": "BROOKLYN",
	"Longitude": -73.9245682,
	"Latitude": 40.6297493
 },
 {
	"Item Type Name": "Temporary DOB registered oil fired mobile boiler",
	"JFNPermitNumber": "B00908032-I1-LA",
	"FilingNumber": "I1",
	"Created On Date": "2023/7/21 12:00:00",
	"Work Type Name": "Oil Work",
	"Filing Type Name": "New Job Filing",
	"LocationBIN": "3215627",
	"Address": "1275 EAST   51 STREET",
	"CommunityBoardNumber": "318",
	"LocationBoroughName": "BROOKLYN",
	"Longitude": -73.9265594,
	"Latitude": 40.6298103
 },
 {
	"Item Type Name": "Temporary DOB registered oil fired mobile boiler",
	"JFNPermitNumber": "B00909905-I1-LA",
	"FilingNumber": "I1",
	"Created On Date": "2023/7/26 12:00:00",
	"Work Type Name": "Oil Work",
	"Filing Type Name": "New Job Filing",
	"LocationBIN": "3327832",
	"Address": "295 JACKSON STREET",
	"CommunityBoardNumber": "301",
	"LocationBoroughName": "BROOKLYN",
	"Longitude": -73.9384537,
	"Latitude": 40.718071
 },
 {
	"Item Type Name": "Temporary DOB registered oil fired mobile boiler",
	"JFNPermitNumber": "B00909986-I1-LA",
	"FilingNumber": "I1",
	"Created On Date": "2023/7/26 12:00:00",
	"Work Type Name": "Oil Work",
	"Filing Type Name": "New Job Filing",
	"LocationBIN": "3327832",
	"Address": "295 JACKSON STREET",
	"CommunityBoardNumber": "301",
	"LocationBoroughName": "BROOKLYN",
	"Longitude": -73.9384537,
	"Latitude": 40.718071
 },
 {
	"Item Type Name": "Temporary DOB registered oil fired mobile boiler",
	"JFNPermitNumber": "B00910269-I1-LA",
	"FilingNumber": "I1",
	"Created On Date": "2023/7/26 12:00:00",
	"Work Type Name": "Oil Work",
	"Filing Type Name": "New Job Filing",
	"LocationBIN": "3025343",
	"Address": "575 3 STREET",
	"CommunityBoardNumber": "306",
	"LocationBoroughName": "BROOKLYN",
	"Longitude": -73.9757767,
	"Latitude": 40.6694412
 },
 {
	"Item Type Name": "Temporary DOB registered oil fired mobile boiler",
	"JFNPermitNumber": "B00915540-I1-LA",
	"FilingNumber": "I1",
	"Created On Date": "2023/8/7 12:00:00",
	"Work Type Name": "Oil Work",
	"Filing Type Name": "New Job Filing",
	"LocationBIN": "3029254",
	"Address": "542 PARK PLACE",
	"CommunityBoardNumber": "308",
	"LocationBoroughName": "BROOKLYN",
	"Longitude": -73.9597702,
	"Latitude": 40.674511
 },
 {
	"Item Type Name": "Temporary DOB registered oil fired mobile boiler",
	"JFNPermitNumber": "B00917649-I1-LA",
	"FilingNumber": "I1",
	"Created On Date": "2023/8/10 12:00:00",
	"Work Type Name": "Oil Work",
	"Filing Type Name": "New Job Filing",
	"LocationBIN": "3031037",
	"Address": "850 ST MARKS AVENUE",
	"CommunityBoardNumber": "308",
	"LocationBoroughName": "BROOKLYN",
	"Longitude": -73.9448318,
	"Latitude": 40.6746101
 },
 {
	"Item Type Name": "Temporary DOB registered oil fired mobile boiler",
	"JFNPermitNumber": "B00918204-I1-LA",
	"FilingNumber": "I1",
	"Created On Date": "2023/8/11 12:00:00",
	"Work Type Name": "Oil Work",
	"Filing Type Name": "New Job Filing",
	"LocationBIN": "3076470",
	"Address": "1478 GATES AVENUE",
	"CommunityBoardNumber": "304",
	"LocationBoroughName": "BROOKLYN",
	"Longitude": -73.9135666,
	"Latitude": 40.6977882
 },
 {
	"Item Type Name": "Temporary DOB registered oil fired mobile boiler",
	"JFNPermitNumber": "B00919091-I1-LA",
	"FilingNumber": "I1",
	"Created On Date": "2023/8/14 12:00:00",
	"Work Type Name": "Oil Work",
	"Filing Type Name": "New Job Filing",
	"LocationBIN": "3325172",
	"Address": "329 PATCHEN AVENUE",
	"CommunityBoardNumber": "303",
	"LocationBoroughName": "BROOKLYN",
	"Longitude": -73.9238586,
	"Latitude": 40.6803703
 },
 {
	"Item Type Name": "Temporary DOB registered oil fired mobile boiler",
	"JFNPermitNumber": "B00919111-I1-LA",
	"FilingNumber": "I1",
	"Created On Date": "2023/8/14 12:00:00",
	"Work Type Name": "Oil Work",
	"Filing Type Name": "New Job Filing",
	"LocationBIN": "3325172",
	"Address": "329 PATCHEN AVENUE",
	"CommunityBoardNumber": "303",
	"LocationBoroughName": "BROOKLYN",
	"Longitude": -73.9238586,
	"Latitude": 40.6803703
 },
 {
	"Item Type Name": "Temporary DOB registered oil fired mobile boiler",
	"JFNPermitNumber": "B00920796-I1-LA",
	"FilingNumber": "I1",
	"Created On Date": "2023/8/17 12:00:00",
	"Work Type Name": "Oil Work",
	"Filing Type Name": "New Job Filing",
	"LocationBIN": "3320892",
	"Address": "950 EAST   14 STREET",
	"CommunityBoardNumber": "314",
	"LocationBoroughName": "BROOKLYN",
	"Longitude": -73.9628525,
	"Latitude": 40.6263809
 },
 {
	"Item Type Name": "Temporary DOB registered oil fired mobile boiler",
	"JFNPermitNumber": "B00932461-I1-LA",
	"FilingNumber": "I1",
	"Created On Date": "2023/9/12 12:00:00",
	"Work Type Name": "Oil Work",
	"Filing Type Name": "New Job Filing",
	"LocationBIN": "3037628",
	"Address": "1370 EASTERN PARKWAY",
	"CommunityBoardNumber": "308",
	"LocationBoroughName": "BROOKLYN",
	"Longitude": -73.9229813,
	"Latitude": 40.6679001
 },
 {
	"Item Type Name": "Temporary DOB registered oil fired mobile boiler",
	"JFNPermitNumber": "B00939297-I1-LA",
	"FilingNumber": "I1",
	"Created On Date": "2023/9/25 12:00:00",
	"Work Type Name": "Oil Work",
	"Filing Type Name": "New Job Filing",
	"LocationBIN": "3397349",
	"Address": "602 SURF AVENUE",
	"CommunityBoardNumber": "313",
	"LocationBoroughName": "BROOKLYN",
	"Longitude": -73.9754028,
	"Latitude": 40.5743484
 },
 {
	"Item Type Name": "Temporary DOB registered oil fired mobile boiler",
	"JFNPermitNumber": "B00945162-I1-LA",
	"FilingNumber": "I1",
	"Created On Date": "2023/10/9 12:00:00",
	"Work Type Name": "Oil Work",
	"Filing Type Name": "New Job Filing",
	"LocationBIN": "3076768",
	"Address": "440 CENTRAL AVENUE",
	"CommunityBoardNumber": "304",
	"LocationBoroughName": "BROOKLYN",
	"Longitude": -73.9160919,
	"Latitude": 40.6926193
 },
 {
	"Item Type Name": "Temporary DOB registered oil fired mobile boiler",
	"JFNPermitNumber": "B00945172-I1-LA",
	"FilingNumber": "I1",
	"Created On Date": "2023/10/9 12:00:00",
	"Work Type Name": "Oil Work",
	"Filing Type Name": "New Job Filing",
	"LocationBIN": "3045047",
	"Address": "794 MONROE STREET",
	"CommunityBoardNumber": "303",
	"LocationBoroughName": "BROOKLYN",
	"Longitude": -73.9244232,
	"Latitude": 40.6880989
 },
 {
	"Item Type Name": "Temporary DOB registered oil fired mobile boiler",
	"JFNPermitNumber": "B00945185-I1-LA",
	"FilingNumber": "I1",
	"Created On Date": "2023/10/9 12:00:00",
	"Work Type Name": "Oil Work",
	"Filing Type Name": "New Job Filing",
	"LocationBIN": "3326174",
	"Address": "390 WILSON AVENUE",
	"CommunityBoardNumber": "304",
	"LocationBoroughName": "BROOKLYN",
	"Longitude": -73.9159088,
	"Latitude": 40.6939697
 },
 {
	"Item Type Name": "Temporary DOB registered oil fired mobile boiler",
	"JFNPermitNumber": "B00948040-I1-LA",
	"FilingNumber": "I1",
	"Created On Date": "2023/10/13 12:00:00",
	"Work Type Name": "Oil Work",
	"Filing Type Name": "New Job Filing",
	"LocationBIN": "3339261",
	"Address": "450 FLATBUSH AVENUE",
	"CommunityBoardNumber": "355",
	"LocationBoroughName": "BROOKLYN",
	"Longitude": -73.9696426,
	"Latitude": 40.6613808
 },
 {
	"Item Type Name": "Temporary DOB registered oil fired mobile boiler",
	"JFNPermitNumber": "B00950145-I1-LA",
	"FilingNumber": "I1",
	"Created On Date": "2023/10/18 12:00:00",
	"Work Type Name": "Oil Work",
	"Filing Type Name": "New Job Filing",
	"LocationBIN": "3029670",
	"Address": "260 EASTERN PARKWAY",
	"CommunityBoardNumber": "309",
	"LocationBoroughName": "BROOKLYN",
	"Longitude": -73.9608231,
	"Latitude": 40.670681
 },
 {
	"Item Type Name": "Temporary DOB registered oil fired mobile boiler",
	"JFNPermitNumber": "B00950907-I1-LA",
	"FilingNumber": "I1",
	"Created On Date": "2023/10/20 12:00:00",
	"Work Type Name": "Oil Work",
	"Filing Type Name": "New Job Filing",
	"LocationBIN": "3034169",
	"Address": "377 MONTGOMERY STREET",
	"CommunityBoardNumber": "309",
	"LocationBoroughName": "BROOKLYN",
	"Longitude": -73.9517899,
	"Latitude": 40.6656799
 },
 {
	"Item Type Name": "Temporary DOB registered oil fired mobile boiler",
	"JFNPermitNumber": "B00951088-I1-LA",
	"FilingNumber": "I1",
	"Created On Date": "2023/10/20 12:00:00",
	"Work Type Name": "Oil Work",
	"Filing Type Name": "New Job Filing",
	"LocationBIN": "3182893",
	"Address": "1730 EAST   14 STREET",
	"CommunityBoardNumber": "315",
	"LocationBoroughName": "BROOKLYN",
	"Longitude": -73.9592285,
	"Latitude": 40.6072388
 },
 {
	"Item Type Name": "Temporary DOB registered oil fired mobile boiler",
	"JFNPermitNumber": "B00951199-I1-LA",
	"FilingNumber": "I1",
	"Created On Date": "2023/10/20 12:00:00",
	"Work Type Name": "Oil Work",
	"Filing Type Name": "New Job Filing",
	"LocationBIN": "3325593",
	"Address": "601 PARK AVENUE",
	"CommunityBoardNumber": "303",
	"LocationBoroughName": "BROOKLYN",
	"Longitude": -73.9514999,
	"Latitude": 40.6984787
 },
 {
	"Item Type Name": "Temporary DOB registered oil fired mobile boiler",
	"JFNPermitNumber": "B00954326-I1-LA",
	"FilingNumber": "I1",
	"Created On Date": "2023/10/26 12:00:00",
	"Work Type Name": "Oil Work",
	"Filing Type Name": "New Job Filing",
	"LocationBIN": "3325659",
	"Address": "140 HIMROD STREET",
	"CommunityBoardNumber": "304",
	"LocationBoroughName": "BROOKLYN",
	"Longitude": -73.9221268,
	"Latitude": 40.6972809
 },
 {
	"Item Type Name": "Temporary DOB registered oil fired mobile boiler",
	"JFNPermitNumber": "B08006576-I1-LA",
	"FilingNumber": "I1",
	"Created On Date": "2022/9/20 12:00:00",
	"Work Type Name": "Oil Work",
	"Filing Type Name": "New Job Filing",
	"LocationBIN": "3326174",
	"Address": "390 WILSON AVENUE",
	"CommunityBoardNumber": "304",
	"LocationBoroughName": "BROOKLYN",
	"Longitude": -73.9159088,
	"Latitude": 40.6939697
 },
 {
	"Item Type Name": "Temporary DOB registered oil fired mobile boiler",
	"JFNPermitNumber": "B08006577-I1-LA",
	"FilingNumber": "I1",
	"Created On Date": "2022/9/20 12:00:00",
	"Work Type Name": "Oil Work",
	"Filing Type Name": "New Job Filing",
	"LocationBIN": "3326173",
	"Address": "210 PALMETTO STREET",
	"CommunityBoardNumber": "304",
	"LocationBoroughName": "BROOKLYN",
	"Longitude": -73.9159088,
	"Latitude": 40.6939697
 },
 {
	"Item Type Name": "Temporary DOB registered oil fired mobile boiler",
	"JFNPermitNumber": "B08006794-I1-LA",
	"FilingNumber": "I1",
	"Created On Date": "2022/9/20 12:00:00",
	"Work Type Name": "Oil Work",
	"Filing Type Name": "New Job Filing",
	"LocationBIN": "3076768",
	"Address": "440 CENTRAL AVENUE",
	"CommunityBoardNumber": "304",
	"LocationBoroughName": "BROOKLYN",
	"Longitude": -73.9160919,
	"Latitude": 40.6926193
 },
 {
	"Item Type Name": "Temporary DOB registered oil fired mobile boiler",
	"JFNPermitNumber": "B08006857-I1-LA",
	"FilingNumber": "I1",
	"Created On Date": "2022/9/20 12:00:00",
	"Work Type Name": "Oil Work",
	"Filing Type Name": "New Job Filing",
	"LocationBIN": "3338492",
	"Address": "339 WILSON AVENUE",
	"CommunityBoardNumber": "304",
	"LocationBoroughName": "BROOKLYN",
	"Longitude": -73.916687,
	"Latitude": 40.6967888
 },
 {
	"Item Type Name": "Temporary DOB registered oil fired mobile boiler",
	"JFNPermitNumber": "B08006959-I1-LA",
	"FilingNumber": "I1",
	"Created On Date": "2022/9/20 12:00:00",
	"Work Type Name": "Oil Work",
	"Filing Type Name": "New Job Filing",
	"LocationBIN": "3338493",
	"Address": "357 WILSON AVENUE",
	"CommunityBoardNumber": "304",
	"LocationBoroughName": "BROOKLYN",
	"Longitude": -73.9159775,
	"Latitude": 40.6963005
 },
 {
	"Item Type Name": "Temporary DOB registered oil fired mobile boiler",
	"JFNPermitNumber": "B08015985-I1-LA",
	"FilingNumber": "I1",
	"Created On Date": "2022/10/5 12:00:00",
	"Work Type Name": "Oil Work",
	"Filing Type Name": "New Job Filing",
	"LocationBIN": "3063128",
	"Address": "183 SOUTH    3 STREET",
	"CommunityBoardNumber": "301",
	"LocationBoroughName": "BROOKLYN",
	"Longitude": -73.9601288,
	"Latitude": 40.7119217
 },
 {
	"Item Type Name": "Temporary DOB registered oil fired mobile boiler",
	"JFNPermitNumber": "B08016137-I1-LA",
	"FilingNumber": "I1",
	"Created On Date": "2022/10/5 12:00:00",
	"Work Type Name": "Oil Work",
	"Filing Type Name": "New Job Filing",
	"LocationBIN": "3152318",
	"Address": "8301 SHORE ROAD",
	"CommunityBoardNumber": "310",
	"LocationBoroughName": "BROOKLYN",
	"Longitude": -74.0380783,
	"Latitude": 40.6268082
 },
 {
	"Item Type Name": "Temporary DOB registered oil fired mobile boiler",
	"JFNPermitNumber": "B08018030-I1-LA",
	"FilingNumber": "I1",
	"Created On Date": "2022/10/9 12:00:00",
	"Work Type Name": "Oil Work",
	"Filing Type Name": "New Job Filing",
	"LocationBIN": "3119523",
	"Address": "2107 DITMAS AVENUE",
	"CommunityBoardNumber": "314",
	"LocationBoroughName": "BROOKLYN",
	"Longitude": -73.9576263,
	"Latitude": 40.6402397
 },
 {
	"Item Type Name": "Temporary DOB registered oil fired mobile boiler",
	"JFNPermitNumber": "B08019199-I1-LA",
	"FilingNumber": "I1",
	"Created On Date": "2022/10/11 12:00:00",
	"Work Type Name": "Oil Work",
	"Filing Type Name": "New Job Filing",
	"LocationBIN": "3025486",
	"Address": "636 3 STREET",
	"CommunityBoardNumber": "306",
	"LocationBoroughName": "BROOKLYN",
	"Longitude": -73.9742737,
	"Latitude": 40.6681595
 },
 {
	"Item Type Name": "Temporary DOB registered oil fired mobile boiler",
	"JFNPermitNumber": "B08024482-I1-LA",
	"FilingNumber": "I1",
	"Created On Date": "2022/10/20 12:00:00",
	"Work Type Name": "Oil Work",
	"Filing Type Name": "New Job Filing",
	"LocationBIN": "3246887",
	"Address": "1516 ORIENTAL BOULEVARD",
	"CommunityBoardNumber": "315",
	"LocationBoroughName": "BROOKLYN",
	"Longitude": -73.9383087,
	"Latitude": 40.5761909
 },
 {
	"Item Type Name": "Temporary DOB registered oil fired mobile boiler",
	"JFNPermitNumber": "B08028626-I1-LA",
	"FilingNumber": "I1",
	"Created On Date": "2022/10/26 12:00:00",
	"Work Type Name": "Oil Work",
	"Filing Type Name": "New Job Filing",
	"LocationBIN": "3196929",
	"Address": "1970 EAST   18 STREET",
	"CommunityBoardNumber": "315",
	"LocationBoroughName": "BROOKLYN",
	"Longitude": -73.9543991,
	"Latitude": 40.6021004
 },
 {
	"Item Type Name": "Temporary DOB registered oil fired mobile boiler",
	"JFNPermitNumber": "B08033224-I1-LA",
	"FilingNumber": "I1",
	"Created On Date": "2022/11/2 12:00:00",
	"Work Type Name": "Oil Work",
	"Filing Type Name": "New Job Filing",
	"LocationBIN": "3327301",
	"Address": "2915 CLARENDON ROAD",
	"CommunityBoardNumber": "317",
	"LocationBoroughName": "BROOKLYN",
	"Longitude": -73.9490738,
	"Latitude": 40.6434593
 },
 {
	"Item Type Name": "Temporary DOB registered oil fired mobile boiler",
	"JFNPermitNumber": "B08033959-I1-LA",
	"FilingNumber": "I1",
	"Created On Date": "2022/11/3 12:00:00",
	"Work Type Name": "Oil Work",
	"Filing Type Name": "New Job Filing",
	"LocationBIN": "3422980",
	"Address": "362 MASPETH AVENUE",
	"CommunityBoardNumber": "301",
	"LocationBoroughName": "BROOKLYN",
	"Longitude": -73.9293365,
	"Latitude": 40.7179718
 },
 {
	"Item Type Name": "Temporary DOB registered oil fired mobile boiler",
	"JFNPermitNumber": "B08036007-I1-LA",
	"FilingNumber": "I1",
	"Created On Date": "2022/11/7 12:00:00",
	"Work Type Name": "Oil Work",
	"Filing Type Name": "New Job Filing",
	"LocationBIN": "3326830",
	"Address": "5100 AVENUE U",
	"CommunityBoardNumber": "318",
	"LocationBoroughName": "BROOKLYN",
	"Longitude": -73.9195175,
	"Latitude": 40.6097183
 },
 {
	"Item Type Name": "Temporary DOB registered oil fired mobile boiler",
	"JFNPermitNumber": "B08038551-I1-LA",
	"FilingNumber": "I1",
	"Created On Date": "2022/11/11 12:00:00",
	"Work Type Name": "Oil Work",
	"Filing Type Name": "New Job Filing",
	"LocationBIN": "3070575",
	"Address": "185 RANDOLPH STREET",
	"CommunityBoardNumber": "301",
	"LocationBoroughName": "BROOKLYN",
	"Longitude": -73.9254684,
	"Latitude": 40.7100601
 },
 {
	"Item Type Name": "Temporary DOB registered oil fired mobile boiler",
	"JFNPermitNumber": "B08043307-I1-LA",
	"FilingNumber": "I1",
	"Created On Date": "2022/11/21 12:00:00",
	"Work Type Name": "Oil Work",
	"Filing Type Name": "New Job Filing",
	"LocationBIN": "3029701",
	"Address": "991 PRESIDENT STREET",
	"CommunityBoardNumber": "309",
	"LocationBoroughName": "BROOKLYN",
	"Longitude": -73.959343,
	"Latitude": 40.6693306
 },
 {
	"Item Type Name": "Temporary DOB registered oil fired mobile boiler",
	"JFNPermitNumber": "B08043464-I1-LA",
	"FilingNumber": "I1",
	"Created On Date": "2022/11/21 12:00:00",
	"Work Type Name": "Oil Work",
	"Filing Type Name": "New Job Filing",
	"LocationBIN": "3020278",
	"Address": "233 5 AVENUE",
	"CommunityBoardNumber": "306",
	"LocationBoroughName": "BROOKLYN",
	"Longitude": -73.9809036,
	"Latitude": 40.6753311
 },
 {
	"Item Type Name": "Temporary DOB registered oil fired mobile boiler",
	"JFNPermitNumber": "B08043956-I1-LA",
	"FilingNumber": "I1",
	"Created On Date": "2022/11/22 12:00:00",
	"Work Type Name": "Oil Work",
	"Filing Type Name": "New Job Filing",
	"LocationBIN": "3014545",
	"Address": "5422 4 AVENUE",
	"CommunityBoardNumber": "307",
	"LocationBoroughName": "BROOKLYN",
	"Longitude": -74.0156708,
	"Latitude": 40.643959
 },
 {
	"Item Type Name": "Temporary DOB registered oil fired mobile boiler",
	"JFNPermitNumber": "B08044623-I1-LA",
	"FilingNumber": "I1",
	"Created On Date": "2022/11/23 12:00:00",
	"Work Type Name": "Oil Work",
	"Filing Type Name": "New Job Filing",
	"LocationBIN": "3392234",
	"Address": "358 GROVE STREET",
	"CommunityBoardNumber": "304",
	"LocationBoroughName": "BROOKLYN",
	"Longitude": -73.9138031,
	"Latitude": 40.6999397
 },
 {
	"Item Type Name": "Temporary DOB registered oil fired mobile boiler",
	"JFNPermitNumber": "B08045815-I1-LA",
	"FilingNumber": "I1",
	"Created On Date": "2022/11/28 12:00:00",
	"Work Type Name": "Oil Work",
	"Filing Type Name": "New Job Filing",
	"LocationBIN": "3331325",
	"Address": "94 ROSS STREET",
	"CommunityBoardNumber": "301",
	"LocationBoroughName": "BROOKLYN",
	"Longitude": -73.9622269,
	"Latitude": 40.7031708
 },
 {
	"Item Type Name": "Temporary DOB registered oil fired mobile boiler",
	"JFNPermitNumber": "M00626302-S1-LA",
	"FilingNumber": "S1",
	"Created On Date": "2022/3/17 12:00:00",
	"Work Type Name": "Oil Work",
	"Filing Type Name": "Subsequent Filing",
	"LocationBIN": "1015049",
	"Address": "114 WEST   27 STREET",
	"CommunityBoardNumber": "105",
	"LocationBoroughName": "MANHATTAN",
	"Longitude": -73.9919662,
	"Latitude": 40.7456017
 },
 {
	"Item Type Name": "Temporary DOB registered oil fired mobile boiler",
	"JFNPermitNumber": "M00656996-I1-LA",
	"FilingNumber": "I1",
	"Created On Date": "2022/1/5 12:00:00",
	"Work Type Name": "Oil Work",
	"Filing Type Name": "New Job Filing",
	"LocationBIN": "1058450",
	"Address": "204 WEST  120 STREET",
	"CommunityBoardNumber": "110",
	"LocationBoroughName": "MANHATTAN",
	"Longitude": -73.9514084,
	"Latitude": 40.805851
 },
 {
	"Item Type Name": "Temporary DOB registered oil fired mobile boiler",
	"JFNPermitNumber": "M00657269-I1-LA",
	"FilingNumber": "I1",
	"Created On Date": "2022/1/5 12:00:00",
	"Work Type Name": "Oil Work",
	"Filing Type Name": "New Job Filing",
	"LocationBIN": "1060452",
	"Address": "219 WEST  144 STREET",
	"CommunityBoardNumber": "110",
	"LocationBoroughName": "MANHATTAN",
	"Longitude": -73.9405289,
	"Latitude": 40.8216095
 },
 {
	"Item Type Name": "Temporary DOB registered oil fired mobile boiler",
	"JFNPermitNumber": "M00657965-I1-LA",
	"FilingNumber": "I1",
	"Created On Date": "2022/1/6 12:00:00",
	"Work Type Name": "Oil Work",
	"Filing Type Name": "New Job Filing",
	"LocationBIN": "1063891",
	"Address": "566 WEST  191 STREET",
	"CommunityBoardNumber": "112",
	"LocationBoroughName": "MANHATTAN",
	"Longitude": -73.9285965,
	"Latitude": 40.8550606
 },
 {
	"Item Type Name": "Temporary DOB registered oil fired mobile boiler",
	"JFNPermitNumber": "M00660658-I1-LA",
	"FilingNumber": "I1",
	"Created On Date": "2022/1/11 12:00:00",
	"Work Type Name": "Oil Work",
	"Filing Type Name": "New Job Filing",
	"LocationBIN": "1044235",
	"Address": "355 EAST   61 STREET",
	"CommunityBoardNumber": "108",
	"LocationBoroughName": "MANHATTAN",
	"Longitude": -73.9612427,
	"Latitude": 40.7610588
 },
 {
	"Item Type Name": "Temporary DOB registered oil fired mobile boiler",
	"JFNPermitNumber": "M00661535-I1-LA",
	"FilingNumber": "I1",
	"Created On Date": "2022/1/12 12:00:00",
	"Work Type Name": "Oil Work",
	"Filing Type Name": "New Job Filing",
	"LocationBIN": "1063448",
	"Address": "4 SOUTH PINEHURST AVENUE",
	"CommunityBoardNumber": "112",
	"LocationBoroughName": "MANHATTAN",
	"Longitude": -73.9408493,
	"Latitude": 40.8478889
 },
 {
	"Item Type Name": "Temporary DOB registered oil fired mobile boiler",
	"JFNPermitNumber": "M00662125-I1-LA",
	"FilingNumber": "I1",
	"Created On Date": "2022/1/13 12:00:00",
	"Work Type Name": "Oil Work",
	"Filing Type Name": "New Job Filing",
	"LocationBIN": "1059944",
	"Address": "634 WEST  135 STREET",
	"CommunityBoardNumber": "109",
	"LocationBoroughName": "MANHATTAN",
	"Longitude": -73.9574966,
	"Latitude": 40.8207092
 },
 {
	"Item Type Name": "Temporary DOB registered oil fired mobile boiler",
	"JFNPermitNumber": "M00663569-I1-LA",
	"FilingNumber": "I1",
	"Created On Date": "2022/1/17 12:00:00",
	"Work Type Name": "Oil Work",
	"Filing Type Name": "New Job Filing",
	"LocationBIN": "1047486",
	"Address": "1157 LEXINGTON AVENUE",
	"CommunityBoardNumber": "108",
	"LocationBoroughName": "MANHATTAN",
	"Longitude": -73.9582367,
	"Latitude": 40.7753105
 },
 {
	"Item Type Name": "Temporary DOB registered oil fired mobile boiler",
	"JFNPermitNumber": "M00664761-I1-LA",
	"FilingNumber": "I1",
	"Created On Date": "2022/1/19 12:00:00",
	"Work Type Name": "Oil Work",
	"Filing Type Name": "New Job Filing",
	"LocationBIN": "1043946",
	"Address": "260 EAST   72 STREET",
	"CommunityBoardNumber": "108",
	"LocationBoroughName": "MANHATTAN",
	"Longitude": -73.9587936,
	"Latitude": 40.7686691
 },
 {
	"Item Type Name": "Temporary DOB registered oil fired mobile boiler",
	"JFNPermitNumber": "M00664886-I1-LA",
	"FilingNumber": "I1",
	"Created On Date": "2022/1/19 12:00:00",
	"Work Type Name": "Oil Work",
	"Filing Type Name": "New Job Filing",
	"LocationBIN": "1055916",
	"Address": "111 WEST  104 STREET",
	"CommunityBoardNumber": "107",
	"LocationBoroughName": "MANHATTAN",
	"Longitude": -73.9644165,
	"Latitude": 40.7984314
 },
 {
	"Item Type Name": "Temporary DOB registered oil fired mobile boiler",
	"JFNPermitNumber": "M00667166-I1-LA",
	"FilingNumber": "I1",
	"Created On Date": "2022/1/22 12:00:00",
	"Work Type Name": "Oil Work",
	"Filing Type Name": "New Job Filing",
	"LocationBIN": "1059688",
	"Address": "518 WEST  125 STREET",
	"CommunityBoardNumber": "109",
	"LocationBoroughName": "MANHATTAN",
	"Longitude": -73.9570465,
	"Latitude": 40.8137703
 },
 {
	"Item Type Name": "Temporary DOB registered oil fired mobile boiler",
	"JFNPermitNumber": "M00670002-I1-LA",
	"FilingNumber": "I1",
	"Created On Date": "2022/1/27 12:00:00",
	"Work Type Name": "Oil Work",
	"Filing Type Name": "New Job Filing",
	"LocationBIN": "1017232",
	"Address": "25 EAST   38 STREET",
	"CommunityBoardNumber": "106",
	"LocationBoroughName": "MANHATTAN",
	"Longitude": -73.9804535,
	"Latitude": 40.7502403
 },
 {
	"Item Type Name": "Temporary DOB registered oil fired mobile boiler",
	"JFNPermitNumber": "M00671495-I1-LA",
	"FilingNumber": "I1",
	"Created On Date": "2022/1/31 12:00:00",
	"Work Type Name": "Oil Work",
	"Filing Type Name": "New Job Filing",
	"LocationBIN": "1020211",
	"Address": "553 3 AVENUE",
	"CommunityBoardNumber": "106",
	"LocationBoroughName": "MANHATTAN",
	"Longitude": -73.9766083,
	"Latitude": 40.7472496
 },
 {
	"Item Type Name": "Temporary DOB registered oil fired mobile boiler",
	"JFNPermitNumber": "M00674261-I1-LA",
	"FilingNumber": "I1",
	"Created On Date": "2022/2/3 12:00:00",
	"Work Type Name": "Oil Work",
	"Filing Type Name": "New Job Filing",
	"LocationBIN": "1078032",
	"Address": "70 BARUCH DRIVE",
	"CommunityBoardNumber": "103",
	"LocationBoroughName": "MANHATTAN",
	"Longitude": -73.9778137,
	"Latitude": 40.7174301
 },
 {
	"Item Type Name": "Temporary DOB registered oil fired mobile boiler",
	"JFNPermitNumber": "M00685556-I1-LA",
	"FilingNumber": "I1",
	"Created On Date": "2022/2/22 12:00:00",
	"Work Type Name": "Oil Work",
	"Filing Type Name": "New Job Filing",
	"LocationBIN": "1015898",
	"Address": "1 WEST   35 STREET",
	"CommunityBoardNumber": "105",
	"LocationBoroughName": "MANHATTAN",
	"Longitude": -73.9842834,
	"Latitude": 40.7494392
 },
 {
	"Item Type Name": "Temporary DOB registered oil fired mobile boiler",
	"JFNPermitNumber": "M00693373-I1-LA",
	"FilingNumber": "I1",
	"Created On Date": "2022/3/7 12:00:00",
	"Work Type Name": "Oil Work",
	"Filing Type Name": "New Job Filing",
	"LocationBIN": "1080502",
	"Address": "1694 MADISON AVENUE",
	"CommunityBoardNumber": "111",
	"LocationBoroughName": "MANHATTAN",
	"Longitude": -73.9468231,
	"Latitude": 40.7986908
 },
 {
	"Item Type Name": "Temporary DOB registered oil fired mobile boiler",
	"JFNPermitNumber": "M00694039-I1-LA",
	"FilingNumber": "I1",
	"Created On Date": "2022/3/8 12:00:00",
	"Work Type Name": "Oil Work",
	"Filing Type Name": "New Job Filing",
	"LocationBIN": "1025445",
	"Address": "860 9 AVENUE",
	"CommunityBoardNumber": "104",
	"LocationBoroughName": "MANHATTAN",
	"Longitude": -73.9860687,
	"Latitude": 40.7669716
 },
 {
	"Item Type Name": "Temporary DOB registered oil fired mobile boiler",
	"JFNPermitNumber": "M00700642-I1-LA",
	"FilingNumber": "I1",
	"Created On Date": "2022/3/17 12:00:00",
	"Work Type Name": "Oil Work",
	"Filing Type Name": "New Job Filing",
	"LocationBIN": "1064066",
	"Address": "11 FORT GEORGE HILL",
	"CommunityBoardNumber": "112",
	"LocationBoroughName": "MANHATTAN",
	"Longitude": -73.9283676,
	"Latitude": 40.8577385
 },
 {
	"Item Type Name": "Temporary DOB registered oil fired mobile boiler",
	"JFNPermitNumber": "M00704473-I1-LA",
	"FilingNumber": "I1",
	"Created On Date": "2022/3/23 12:00:00",
	"Work Type Name": "Oil Work",
	"Filing Type Name": "New Job Filing",
	"LocationBIN": "1009333",
	"Address": "18 EAST   12 STREET",
	"CommunityBoardNumber": "102",
	"LocationBoroughName": "MANHATTAN",
	"Longitude": -73.9935837,
	"Latitude": 40.7340012
 },
 {
	"Item Type Name": "Temporary DOB registered oil fired mobile boiler",
	"JFNPermitNumber": "M00711068-I1-LA",
	"FilingNumber": "I1",
	"Created On Date": "2022/4/1 12:00:00",
	"Work Type Name": "Oil Work",
	"Filing Type Name": "New Job Filing",
	"LocationBIN": "1028788",
	"Address": "56 WEST   76 STREET",
	"CommunityBoardNumber": "107",
	"LocationBoroughName": "MANHATTAN",
	"Longitude": -73.9765472,
	"Latitude": 40.7795906
 },
 {
	"Item Type Name": "Temporary DOB registered oil fired mobile boiler",
	"JFNPermitNumber": "M00718316-I1-LA",
	"FilingNumber": "I1",
	"Created On Date": "2022/4/13 12:00:00",
	"Work Type Name": "Oil Work",
	"Filing Type Name": "New Job Filing",
	"LocationBIN": "1018905",
	"Address": "145 EAST   35 STREET",
	"CommunityBoardNumber": "106",
	"LocationBoroughName": "MANHATTAN",
	"Longitude": -73.9784012,
	"Latitude": 40.7469597
 },
 {
	"Item Type Name": "Temporary DOB registered oil fired mobile boiler",
	"JFNPermitNumber": "M00718690-I1-LA",
	"FilingNumber": "I1",
	"Created On Date": "2022/4/13 12:00:00",
	"Work Type Name": "Oil Work",
	"Filing Type Name": "New Job Filing",
	"LocationBIN": "1008820",
	"Address": "31 WASHINGTON PLACE",
	"CommunityBoardNumber": "102",
	"LocationBoroughName": "MANHATTAN",
	"Longitude": -73.9955978,
	"Latitude": 40.7303391
 },
 {
	"Item Type Name": "Temporary DOB registered oil fired mobile boiler",
	"JFNPermitNumber": "M00718698-I1-LA",
	"FilingNumber": "I1",
	"Created On Date": "2022/4/13 12:00:00",
	"Work Type Name": "Oil Work",
	"Filing Type Name": "New Job Filing",
	"LocationBIN": "1087825",
	"Address": "100 BLEEKER STREET",
	"CommunityBoardNumber": "102",
	"LocationBoroughName": "MANHATTAN",
	"Longitude": -73.997963,
	"Latitude": 40.726799
 },
 {
	"Item Type Name": "Temporary DOB registered oil fired mobile boiler",
	"JFNPermitNumber": "M00719284-I1-LA",
	"FilingNumber": "I1",
	"Created On Date": "2022/4/14 12:00:00",
	"Work Type Name": "Oil Work",
	"Filing Type Name": "New Job Filing",
	"LocationBIN": "1061766",
	"Address": "503 WEST  140 STREET",
	"CommunityBoardNumber": "109",
	"LocationBoroughName": "MANHATTAN",
	"Longitude": -73.9503326,
	"Latitude": 40.8224907
 },
 {
	"Item Type Name": "Temporary DOB registered oil fired mobile boiler",
	"JFNPermitNumber": "M00722905-I1-LA",
	"FilingNumber": "I1",
	"Created On Date": "2022/4/20 12:00:00",
	"Work Type Name": "Oil Work",
	"Filing Type Name": "New Job Filing",
	"LocationBIN": "1080105",
	"Address": "5 UNIVERSITY PLACE",
	"CommunityBoardNumber": "102",
	"LocationBoroughName": "MANHATTAN",
	"Longitude": -73.9947968,
	"Latitude": 40.7309494
 },
 {
	"Item Type Name": "Temporary DOB registered oil fired mobile boiler",
	"JFNPermitNumber": "M00726325-I1-LA",
	"FilingNumber": "I1",
	"Created On Date": "2022/4/26 12:00:00",
	"Work Type Name": "Oil Work",
	"Filing Type Name": "New Job Filing",
	"LocationBIN": "1066869",
	"Address": "240 MERCER STREET",
	"CommunityBoardNumber": "102",
	"LocationBoroughName": "MANHATTAN",
	"Longitude": -73.9954529,
	"Latitude": 40.7277107
 },
 {
	"Item Type Name": "Temporary DOB registered oil fired mobile boiler",
	"JFNPermitNumber": "M00726333-I1-LA",
	"FilingNumber": "I1",
	"Created On Date": "2022/4/26 12:00:00",
	"Work Type Name": "Oil Work",
	"Filing Type Name": "New Job Filing",
	"LocationBIN": "1008816",
	"Address": "4 WASHINGTON PLACE",
	"CommunityBoardNumber": "102",
	"LocationBoroughName": "MANHATTAN",
	"Longitude": -73.9944534,
	"Latitude": 40.7291603
 },
 {
	"Item Type Name": "Temporary DOB registered oil fired mobile boiler",
	"JFNPermitNumber": "M00726340-I1-LA",
	"FilingNumber": "I1",
	"Created On Date": "2022/4/26 12:00:00",
	"Work Type Name": "Oil Work",
	"Filing Type Name": "New Job Filing",
	"LocationBIN": "1008701",
	"Address": "110 WEST    3 STREET",
	"CommunityBoardNumber": "102",
	"LocationBoroughName": "MANHATTAN",
	"Longitude": -73.9999237,
	"Latitude": 40.7300911
 },
 {
	"Item Type Name": "Temporary DOB registered oil fired mobile boiler",
	"JFNPermitNumber": "M00730667-I1-LA",
	"FilingNumber": "I1",
	"Created On Date": "2022/5/3 12:00:00",
	"Work Type Name": "Oil Work",
	"Filing Type Name": "New Job Filing",
	"LocationBIN": "1008828",
	"Address": "15 WASHINGTON PLACE",
	"CommunityBoardNumber": "102",
	"LocationBoroughName": "MANHATTAN",
	"Longitude": -73.9947662,
	"Latitude": 40.7297783
 },
 {
	"Item Type Name": "Temporary DOB registered oil fired mobile boiler",
	"JFNPermitNumber": "M00730674-I1-LA",
	"FilingNumber": "I1",
	"Created On Date": "2022/5/3 12:00:00",
	"Work Type Name": "Oil Work",
	"Filing Type Name": "New Job Filing",
	"LocationBIN": "1008875",
	"Address": "33 WASHINGTON SQUARE WEST",
	"CommunityBoardNumber": "102",
	"LocationBoroughName": "MANHATTAN",
	"Longitude": -73.9995728,
	"Latitude": 40.7315788
 },
 {
	"Item Type Name": "Temporary DOB registered oil fired mobile boiler",
	"JFNPermitNumber": "M00731778-I1-LA",
	"FilingNumber": "I1",
	"Created On Date": "2022/5/4 12:00:00",
	"Work Type Name": "Oil Work",
	"Filing Type Name": "New Job Filing",
	"LocationBIN": "1008822",
	"Address": "24 WAVERLY PLACE",
	"CommunityBoardNumber": "102",
	"LocationBoroughName": "MANHATTAN",
	"Longitude": -73.9951172,
	"Latitude": 40.7302704
 },
 {
	"Item Type Name": "Temporary DOB registered oil fired mobile boiler",
	"JFNPermitNumber": "M00736330-I1-LA",
	"FilingNumber": "I1",
	"Created On Date": "2022/5/11 12:00:00",
	"Work Type Name": "Oil Work",
	"Filing Type Name": "New Job Filing",
	"LocationBIN": "1079987",
	"Address": "160 CABRINI BOULEVARD",
	"CommunityBoardNumber": "112",
	"LocationBoroughName": "MANHATTAN",
	"Longitude": -73.9400635,
	"Latitude": 40.8534012
 },
 {
	"Item Type Name": "Temporary DOB registered oil fired mobile boiler",
	"JFNPermitNumber": "M00736436-I1-LA",
	"FilingNumber": "I1",
	"Created On Date": "2022/5/11 12:00:00",
	"Work Type Name": "Oil Work",
	"Filing Type Name": "New Job Filing",
	"LocationBIN": "1008241",
	"Address": "505 LAGUARDIA PLACE",
	"CommunityBoardNumber": "102",
	"LocationBoroughName": "MANHATTAN",
	"Longitude": -73.9990234,
	"Latitude": 40.7271385
 },
 {
	"Item Type Name": "Temporary DOB registered oil fired mobile boiler",
	"JFNPermitNumber": "M00746056-I1-LA",
	"FilingNumber": "I1",
	"Created On Date": "2022/5/25 12:00:00",
	"Work Type Name": "Oil Work",
	"Filing Type Name": "New Job Filing",
	"LocationBIN": "1063381",
	"Address": "216 FORT WASHINGTON AVENUE",
	"CommunityBoardNumber": "112",
	"LocationBoroughName": "MANHATTAN",
	"Longitude": -73.9412918,
	"Latitude": 40.8421211
 },
 {
	"Item Type Name": "Temporary DOB registered oil fired mobile boiler",
	"JFNPermitNumber": "M00747171-I1-LA",
	"FilingNumber": "I1",
	"Created On Date": "2022/5/27 12:00:00",
	"Work Type Name": "Oil Work",
	"Filing Type Name": "New Job Filing",
	"LocationBIN": "1084148",
	"Address": "2816 FREDRICK DOUGLAS BOULEVARD",
	"CommunityBoardNumber": "110",
	"LocationBoroughName": "MANHATTAN",
	"Longitude": -73.9384232,
	"Latitude": 40.8250885
 },
 {
	"Item Type Name": "Temporary DOB registered oil fired mobile boiler",
	"JFNPermitNumber": "M00748353-I1-LA",
	"FilingNumber": "I1",
	"Created On Date": "2022/5/31 12:00:00",
	"Work Type Name": "Oil Work",
	"Filing Type Name": "New Job Filing",
	"LocationBIN": "1059862",
	"Address": "188 CLAREMONT AVENUE",
	"CommunityBoardNumber": "109",
	"LocationBoroughName": "MANHATTAN",
	"Longitude": -73.9599228,
	"Latitude": 40.8147392
 },
 {
	"Item Type Name": "Temporary DOB registered oil fired mobile boiler",
	"JFNPermitNumber": "M00748552-I1-LA",
	"FilingNumber": "I1",
	"Created On Date": "2022/5/31 12:00:00",
	"Work Type Name": "Oil Work",
	"Filing Type Name": "New Job Filing",
	"LocationBIN": "1085132",
	"Address": "37 EAST   65 STREET",
	"CommunityBoardNumber": "108",
	"LocationBoroughName": "MANHATTAN",
	"Longitude": -73.9679337,
	"Latitude": 40.7672806
 },
 {
	"Item Type Name": "Temporary DOB registered oil fired mobile boiler",
	"JFNPermitNumber": "M00748771-I1-LA",
	"FilingNumber": "I1",
	"Created On Date": "2022/6/1 12:00:00",
	"Work Type Name": "Oil Work",
	"Filing Type Name": "New Job Filing",
	"LocationBIN": "1038771",
	"Address": "321 EAST   45 STREET",
	"CommunityBoardNumber": "106",
	"LocationBoroughName": "MANHATTAN",
	"Longitude": -73.9695206,
	"Latitude": 40.7514496
 },
 {
	"Item Type Name": "Temporary DOB registered oil fired mobile boiler",
	"JFNPermitNumber": "M00752901-I1-LA",
	"FilingNumber": "I1",
	"Created On Date": "2022/6/7 12:00:00",
	"Work Type Name": "Oil Work",
	"Filing Type Name": "New Job Filing",
	"LocationBIN": "1006758",
	"Address": "11 ST MARKS PLACE",
	"CommunityBoardNumber": "103",
	"LocationBoroughName": "MANHATTAN",
	"Longitude": -73.9890137,
	"Latitude": 40.7294197
 },
 {
	"Item Type Name": "Temporary DOB registered oil fired mobile boiler",
	"JFNPermitNumber": "M00753738-I1-LA",
	"FilingNumber": "I1",
	"Created On Date": "2022/6/8 12:00:00",
	"Work Type Name": "Oil Work",
	"Filing Type Name": "New Job Filing",
	"LocationBIN": "1013777",
	"Address": "210 WEST   16 STREET",
	"CommunityBoardNumber": "104",
	"LocationBoroughName": "MANHATTAN",
	"Longitude": -73.9994736,
	"Latitude": 40.7399406
 },
 {
	"Item Type Name": "Temporary DOB registered oil fired mobile boiler",
	"JFNPermitNumber": "M00757348-I1-LA",
	"FilingNumber": "I1",
	"Created On Date": "2022/6/14 12:00:00",
	"Work Type Name": "Oil Work",
	"Filing Type Name": "New Job Filing",
	"LocationBIN": "1007729",
	"Address": "110 THOMPSON STREET",
	"CommunityBoardNumber": "102",
	"LocationBoroughName": "MANHATTAN",
	"Longitude": -74.0016937,
	"Latitude": 40.7256889
 },
 {
	"Item Type Name": "Temporary DOB registered oil fired mobile boiler",
	"JFNPermitNumber": "M00763752-I1-LA",
	"FilingNumber": "I1",
	"Created On Date": "2022/6/24 12:00:00",
	"Work Type Name": "Oil Work",
	"Filing Type Name": "New Job Filing",
	"LocationBIN": "1007051",
	"Address": "48 MERCER STREET",
	"CommunityBoardNumber": "102",
	"LocationBoroughName": "MANHATTAN",
	"Longitude": -74.0006866,
	"Latitude": 40.7215195
 },
 {
	"Item Type Name": "Temporary DOB registered oil fired mobile boiler",
	"JFNPermitNumber": "M00764706-I1-LA",
	"FilingNumber": "I1",
	"Created On Date": "2022/6/27 12:00:00",
	"Work Type Name": "Oil Work",
	"Filing Type Name": "New Job Filing",
	"LocationBIN": "1033611",
	"Address": "251 WEST   92 STREET",
	"CommunityBoardNumber": "107",
	"LocationBoroughName": "MANHATTAN",
	"Longitude": -73.973938,
	"Latitude": 40.792469
 },
 {
	"Item Type Name": "Temporary DOB registered oil fired mobile boiler",
	"JFNPermitNumber": "M00767749-I1-LA",
	"FilingNumber": "I1",
	"Created On Date": "2022/6/30 12:00:00",
	"Work Type Name": "Oil Work",
	"Filing Type Name": "New Job Filing",
	"LocationBIN": "1034234",
	"Address": "40 WEST   45 STREET",
	"CommunityBoardNumber": "105",
	"LocationBoroughName": "MANHATTAN",
	"Longitude": -73.9813309,
	"Latitude": 40.7559395
 },
 {
	"Item Type Name": "Temporary DOB registered oil fired mobile boiler",
	"JFNPermitNumber": "M00777260-I1-LA",
	"FilingNumber": "I1",
	"Created On Date": "2022/7/19 12:00:00",
	"Work Type Name": "Oil Work",
	"Filing Type Name": "New Job Filing",
	"LocationBIN": "1062701",
	"Address": "544 WEST  157 STREET",
	"CommunityBoardNumber": "112",
	"LocationBoroughName": "MANHATTAN",
	"Longitude": -73.9442673,
	"Latitude": 40.8335609
 },
 {
	"Item Type Name": "Temporary DOB registered oil fired mobile boiler",
	"JFNPermitNumber": "M00778661-I1-LA",
	"FilingNumber": "I1",
	"Created On Date": "2022/7/20 12:00:00",
	"Work Type Name": "Oil Work",
	"Filing Type Name": "New Job Filing",
	"LocationBIN": "1047668",
	"Address": "1001 PARK AVENUE",
	"CommunityBoardNumber": "108",
	"LocationBoroughName": "MANHATTAN",
	"Longitude": -73.9577179,
	"Latitude": 40.7789192
 },
 {
	"Item Type Name": "Temporary DOB registered oil fired mobile boiler",
	"JFNPermitNumber": "M00780862-I1-LA",
	"FilingNumber": "I1",
	"Created On Date": "2022/7/25 12:00:00",
	"Work Type Name": "Oil Work",
	"Filing Type Name": "New Job Filing",
	"LocationBIN": "1064724",
	"Address": "79 POST AVENUE",
	"CommunityBoardNumber": "112",
	"LocationBoroughName": "MANHATTAN",
	"Longitude": -73.9217224,
	"Latitude": 40.8636589
 },
 {
	"Item Type Name": "Temporary DOB registered oil fired mobile boiler",
	"JFNPermitNumber": "M00782962-I1-LA",
	"FilingNumber": "I1",
	"Created On Date": "2022/7/28 12:00:00",
	"Work Type Name": "Oil Work",
	"Filing Type Name": "New Job Filing",
	"LocationBIN": "1077587",
	"Address": "675 WATER STREET",
	"CommunityBoardNumber": "103",
	"LocationBoroughName": "MANHATTAN",
	"Longitude": -73.9820328,
	"Latitude": 40.7111702
 },
 {
	"Item Type Name": "Temporary DOB registered oil fired mobile boiler",
	"JFNPermitNumber": "M00787905-I1-LA",
	"FilingNumber": "I1",
	"Created On Date": "2022/8/4 12:00:00",
	"Work Type Name": "Oil Work",
	"Filing Type Name": "New Job Filing",
	"LocationBIN": "1056611",
	"Address": "229 WEST  105 STREET",
	"CommunityBoardNumber": "107",
	"LocationBoroughName": "MANHATTAN",
	"Longitude": -73.967247,
	"Latitude": 40.8004494
 },
 {
	"Item Type Name": "Temporary DOB registered oil fired mobile boiler",
	"JFNPermitNumber": "M00787907-I1-LA",
	"FilingNumber": "I1",
	"Created On Date": "2022/8/4 12:00:00",
	"Work Type Name": "Oil Work",
	"Filing Type Name": "New Job Filing",
	"LocationBIN": "1019945",
	"Address": "200 EAST   30 STREET",
	"CommunityBoardNumber": "106",
	"LocationBoroughName": "MANHATTAN",
	"Longitude": -73.9797516,
	"Latitude": 40.7429085
 },
 {
	"Item Type Name": "Temporary DOB registered oil fired mobile boiler",
	"JFNPermitNumber": "M00789628-I1-LA",
	"FilingNumber": "I1",
	"Created On Date": "2022/8/8 12:00:00",
	"Work Type Name": "Oil Work",
	"Filing Type Name": "New Job Filing",
	"LocationBIN": "1008875",
	"Address": "33 WASHINGTON SQUARE WEST",
	"CommunityBoardNumber": "102",
	"LocationBoroughName": "MANHATTAN",
	"Longitude": -73.9995728,
	"Latitude": 40.7315788
 },
 {
	"Item Type Name": "Temporary DOB registered oil fired mobile boiler",
	"JFNPermitNumber": "M00789630-I1-LA",
	"FilingNumber": "I1",
	"Created On Date": "2022/8/8 12:00:00",
	"Work Type Name": "Oil Work",
	"Filing Type Name": "New Job Filing",
	"LocationBIN": "1008701",
	"Address": "110 WEST    3 STREET",
	"CommunityBoardNumber": "102",
	"LocationBoroughName": "MANHATTAN",
	"Longitude": -73.9999237,
	"Latitude": 40.7300911
 },
 {
	"Item Type Name": "Temporary DOB registered oil fired mobile boiler",
	"JFNPermitNumber": "M00790764-I1-LA",
	"FilingNumber": "I1",
	"Created On Date": "2022/8/10 12:00:00",
	"Work Type Name": "Oil Work",
	"Filing Type Name": "New Job Filing",
	"LocationBIN": "1062597",
	"Address": "596 EDGECOMBE AVENUE",
	"CommunityBoardNumber": "112",
	"LocationBoroughName": "MANHATTAN",
	"Longitude": -73.937767,
	"Latitude": 40.8355484
 },
 {
	"Item Type Name": "Temporary DOB registered oil fired mobile boiler",
	"JFNPermitNumber": "M00792618-I1-LA",
	"FilingNumber": "I1",
	"Created On Date": "2022/8/12 12:00:00",
	"Work Type Name": "Oil Work",
	"Filing Type Name": "New Job Filing",
	"LocationBIN": "1028837",
	"Address": "165 WEST   66 STREET",
	"CommunityBoardNumber": "107",
	"LocationBoroughName": "MANHATTAN",
	"Longitude": -73.983757,
	"Latitude": 40.7748604
 },
 {
	"Item Type Name": "Temporary DOB registered oil fired mobile boiler",
	"JFNPermitNumber": "M00794830-I1-LA",
	"FilingNumber": "I1",
	"Created On Date": "2022/8/17 12:00:00",
	"Work Type Name": "Oil Work",
	"Filing Type Name": "New Job Filing",
	"LocationBIN": "1048833",
	"Address": "211 EAST   88 STREET",
	"CommunityBoardNumber": "108",
	"LocationBoroughName": "MANHATTAN",
	"Longitude": -73.9521103,
	"Latitude": 40.7799797
 },
 {
	"Item Type Name": "Temporary DOB registered oil fired mobile boiler",
	"JFNPermitNumber": "M00796550-I1-LA",
	"FilingNumber": "I1",
	"Created On Date": "2022/8/19 12:00:00",
	"Work Type Name": "Oil Work",
	"Filing Type Name": "New Job Filing",
	"LocationBIN": "1062142",
	"Address": "537 WEST  150 STREET",
	"CommunityBoardNumber": "109",
	"LocationBoroughName": "MANHATTAN",
	"Longitude": -73.9467316,
	"Latitude": 40.8292503
 },
 {
	"Item Type Name": "Temporary DOB registered oil fired mobile boiler",
	"JFNPermitNumber": "M00801814-I1-LA",
	"FilingNumber": "I1",
	"Created On Date": "2022/12/20 12:00:00",
	"Work Type Name": "Oil Work",
	"Filing Type Name": "New Job Filing",
	"LocationBIN": "1014540",
	"Address": "154 WEST   15 STREET",
	"CommunityBoardNumber": "104",
	"LocationBoroughName": "MANHATTAN",
	"Longitude": -73.9986725,
	"Latitude": 40.738781
 },
 {
	"Item Type Name": "Temporary DOB registered oil fired mobile boiler",
	"JFNPermitNumber": "M00802914-I1-LA",
	"FilingNumber": "I1",
	"Created On Date": "2022/12/21 12:00:00",
	"Work Type Name": "Oil Work",
	"Filing Type Name": "New Job Filing",
	"LocationBIN": "1061872",
	"Address": "536 WEST  143 STREET",
	"CommunityBoardNumber": "109",
	"LocationBoroughName": "MANHATTAN",
	"Longitude": -73.9509277,
	"Latitude": 40.8246918
 },
 {
	"Item Type Name": "Temporary DOB registered oil fired mobile boiler",
	"JFNPermitNumber": "M00804071-I1-LA",
	"FilingNumber": "I1",
	"Created On Date": "2022/12/23 12:00:00",
	"Work Type Name": "Oil Work",
	"Filing Type Name": "New Job Filing",
	"LocationBIN": "1009475",
	"Address": "20 WEST   10 STREET",
	"CommunityBoardNumber": "102",
	"LocationBoroughName": "MANHATTAN",
	"Longitude": -73.9968338,
	"Latitude": 40.7337608
 },
 {
	"Item Type Name": "Temporary DOB registered oil fired mobile boiler",
	"JFNPermitNumber": "M00804090-I1-LA",
	"FilingNumber": "I1",
	"Created On Date": "2022/12/23 12:00:00",
	"Work Type Name": "Oil Work",
	"Filing Type Name": "New Job Filing",
	"LocationBIN": "1009128",
	"Address": "34 EAST   12 STREET",
	"CommunityBoardNumber": "102",
	"LocationBoroughName": "MANHATTAN",
	"Longitude": -73.9926605,
	"Latitude": 40.7336884
 },
 {
	"Item Type Name": "Temporary DOB registered oil fired mobile boiler",
	"JFNPermitNumber": "M00804393-I1-LA",
	"FilingNumber": "I1",
	"Created On Date": "2022/12/26 12:00:00",
	"Work Type Name": "Oil Work",
	"Filing Type Name": "New Job Filing",
	"LocationBIN": "1082205",
	"Address": "53 WASHINGTON SQUARE SOUTH",
	"CommunityBoardNumber": "102",
	"LocationBoroughName": "MANHATTAN",
	"Longitude": -73.998703,
	"Latitude": 40.7303314
 },
 {
	"Item Type Name": "Temporary DOB registered oil fired mobile boiler",
	"JFNPermitNumber": "M00804395-I1-LA",
	"FilingNumber": "I1",
	"Created On Date": "2022/12/26 12:00:00",
	"Work Type Name": "Oil Work",
	"Filing Type Name": "New Job Filing",
	"LocationBIN": "1008716",
	"Address": "40 WASHINGTON SQUARE SOUTH",
	"CommunityBoardNumber": "102",
	"LocationBoroughName": "MANHATTAN",
	"Longitude": -73.9994888,
	"Latitude": 40.7305489
 },
 {
	"Item Type Name": "Temporary DOB registered oil fired mobile boiler",
	"JFNPermitNumber": "M00804405-I1-LA",
	"FilingNumber": "I1",
	"Created On Date": "2022/12/26 12:00:00",
	"Work Type Name": "Oil Work",
	"Filing Type Name": "New Job Filing",
	"LocationBIN": "1063302",
	"Address": "3815 BROADWAY",
	"CommunityBoardNumber": "112",
	"LocationBoroughName": "MANHATTAN",
	"Longitude": -73.9444885,
	"Latitude": 40.8352814
 },
 {
	"Item Type Name": "Temporary DOB registered oil fired mobile boiler",
	"JFNPermitNumber": "M00805977-I1-LA",
	"FilingNumber": "I1",
	"Created On Date": "2022/12/30 12:00:00",
	"Work Type Name": "Oil Work",
	"Filing Type Name": "New Job Filing",
	"LocationBIN": "1057495",
	"Address": "102 WEST  119 STREET",
	"CommunityBoardNumber": "110",
	"LocationBoroughName": "MANHATTAN",
	"Longitude": -73.948967,
	"Latitude": 40.8040009
 },
 {
	"Item Type Name": "Temporary DOB registered oil fired mobile boiler",
	"JFNPermitNumber": "M00806298-I1-LA",
	"FilingNumber": "I1",
	"Created On Date": "2022/12/30 12:00:00",
	"Work Type Name": "Oil Work",
	"Filing Type Name": "New Job Filing",
	"LocationBIN": "1047522",
	"Address": "1414 3 AVENUE",
	"CommunityBoardNumber": "108",
	"LocationBoroughName": "MANHATTAN",
	"Longitude": -73.9569397,
	"Latitude": 40.7752495
 },
 {
	"Item Type Name": "Temporary DOB registered oil fired mobile boiler",
	"JFNPermitNumber": "M00808843-I1-LA",
	"FilingNumber": "I1",
	"Created On Date": "2023/1/6 12:00:00",
	"Work Type Name": "Oil Work",
	"Filing Type Name": "New Job Filing",
	"LocationBIN": "1008835",
	"Address": "25 WAVERLY PLACE",
	"CommunityBoardNumber": "102",
	"LocationBoroughName": "MANHATTAN",
	"Longitude": -73.9947891,
	"Latitude": 40.7305908
 },
 {
	"Item Type Name": "Temporary DOB registered oil fired mobile boiler",
	"JFNPermitNumber": "M00811381-I1-LA",
	"FilingNumber": "I1",
	"Created On Date": "2023/1/11 12:00:00",
	"Work Type Name": "Oil Work",
	"Filing Type Name": "New Job Filing",
	"LocationBIN": "1008830",
	"Address": "284 MERCER STREET",
	"CommunityBoardNumber": "102",
	"LocationBoroughName": "MANHATTAN",
	"Longitude": -73.9942474,
	"Latitude": 40.7294998
 },
 {
	"Item Type Name": "Temporary DOB registered oil fired mobile boiler",
	"JFNPermitNumber": "M00811744-I1-LA",
	"FilingNumber": "I1",
	"Created On Date": "2023/1/12 12:00:00",
	"Work Type Name": "Oil Work",
	"Filing Type Name": "New Job Filing",
	"LocationBIN": "1053503",
	"Address": "17 WEST  125 STREET",
	"CommunityBoardNumber": "110",
	"LocationBoroughName": "MANHATTAN",
	"Longitude": -73.9431686,
	"Latitude": 40.8071098
 },
 {
	"Item Type Name": "Temporary DOB registered oil fired mobile boiler",
	"JFNPermitNumber": "M00811937-I1-LA",
	"FilingNumber": "I1",
	"Created On Date": "2023/1/12 12:00:00",
	"Work Type Name": "Oil Work",
	"Filing Type Name": "New Job Filing",
	"LocationBIN": "1052579",
	"Address": "239 EAST  116 STREET",
	"CommunityBoardNumber": "111",
	"LocationBoroughName": "MANHATTAN",
	"Longitude": -73.9382935,
	"Latitude": 40.7975311
 },
 {
	"Item Type Name": "Temporary DOB registered oil fired mobile boiler",
	"JFNPermitNumber": "M00813133-I1-LA",
	"FilingNumber": "I1",
	"Created On Date": "2023/1/16 12:00:00",
	"Work Type Name": "Oil Work",
	"Filing Type Name": "New Job Filing",
	"LocationBIN": "1008820",
	"Address": "31 WASHINGTON PLACE",
	"CommunityBoardNumber": "102",
	"LocationBoroughName": "MANHATTAN",
	"Longitude": -73.9955978,
	"Latitude": 40.7303391
 },
 {
	"Item Type Name": "Temporary DOB registered oil fired mobile boiler",
	"JFNPermitNumber": "M00813426-I1-LA",
	"FilingNumber": "I1",
	"Created On Date": "2023/1/16 12:00:00",
	"Work Type Name": "Oil Work",
	"Filing Type Name": "New Job Filing",
	"LocationBIN": "1008828",
	"Address": "15 WASHINGTON PLACE",
	"CommunityBoardNumber": "102",
	"LocationBoroughName": "MANHATTAN",
	"Longitude": -73.9947662,
	"Latitude": 40.7297783
 },
 {
	"Item Type Name": "Temporary DOB registered oil fired mobile boiler",
	"JFNPermitNumber": "M00823137-I1-LA",
	"FilingNumber": "I1",
	"Created On Date": "2023/2/2 12:00:00",
	"Work Type Name": "Oil Work",
	"Filing Type Name": "New Job Filing",
	"LocationBIN": "1019629",
	"Address": "202 EAST   21 STREET",
	"CommunityBoardNumber": "106",
	"LocationBoroughName": "MANHATTAN",
	"Longitude": -73.9837723,
	"Latitude": 40.7371788
 },
 {
	"Item Type Name": "Temporary DOB registered oil fired mobile boiler",
	"JFNPermitNumber": "M00823340-I1-LA",
	"FilingNumber": "I1",
	"Created On Date": "2023/2/3 12:00:00",
	"Work Type Name": "Oil Work",
	"Filing Type Name": "New Job Filing",
	"LocationBIN": "1054336",
	"Address": "16 EAST  132 STREET",
	"CommunityBoardNumber": "111",
	"LocationBoroughName": "MANHATTAN",
	"Longitude": -73.938118,
	"Latitude": 40.8101997
 },
 {
	"Item Type Name": "Temporary DOB registered oil fired mobile boiler",
	"JFNPermitNumber": "M00824224-I1-LA",
	"FilingNumber": "I1",
	"Created On Date": "2023/2/6 12:00:00",
	"Work Type Name": "Oil Work",
	"Filing Type Name": "New Job Filing",
	"LocationBIN": "1030836",
	"Address": "245 WEST   75 STREET",
	"CommunityBoardNumber": "107",
	"LocationBoroughName": "MANHATTAN",
	"Longitude": -73.982193,
	"Latitude": 40.7816391
 },
 {
	"Item Type Name": "Temporary DOB registered oil fired mobile boiler",
	"JFNPermitNumber": "M00824567-I1-LA",
	"FilingNumber": "I1",
	"Created On Date": "2023/2/6 12:00:00",
	"Work Type Name": "Oil Work",
	"Filing Type Name": "New Job Filing",
	"LocationBIN": "1056477",
	"Address": "237 WEST  100 STREET",
	"CommunityBoardNumber": "107",
	"LocationBoroughName": "MANHATTAN",
	"Longitude": -73.9704819,
	"Latitude": 40.797699
 },
 {
	"Item Type Name": "Temporary DOB registered oil fired mobile boiler",
	"JFNPermitNumber": "M00828705-I1-LA",
	"FilingNumber": "I1",
	"Created On Date": "2023/2/14 12:00:00",
	"Work Type Name": "Oil Work",
	"Filing Type Name": "New Job Filing",
	"LocationBIN": "1022671",
	"Address": "150 WEST   47 STREET",
	"CommunityBoardNumber": "105",
	"LocationBoroughName": "MANHATTAN",
	"Longitude": -73.9838333,
	"Latitude": 40.7586212
 },
 {
	"Item Type Name": "Temporary DOB registered oil fired mobile boiler",
	"JFNPermitNumber": "M00828967-I1-LA",
	"FilingNumber": "I1",
	"Created On Date": "2023/2/14 12:00:00",
	"Work Type Name": "Oil Work",
	"Filing Type Name": "New Job Filing",
	"LocationBIN": "1008042",
	"Address": "143 SULLIVAN STREET",
	"CommunityBoardNumber": "102",
	"LocationBoroughName": "MANHATTAN",
	"Longitude": -74.0016937,
	"Latitude": 40.7269211
 },
 {
	"Item Type Name": "Temporary DOB registered oil fired mobile boiler",
	"JFNPermitNumber": "M00831261-I1-LA",
	"FilingNumber": "I1",
	"Created On Date": "2023/2/17 12:00:00",
	"Work Type Name": "Oil Work",
	"Filing Type Name": "New Job Filing",
	"LocationBIN": "1086225",
	"Address": "780 8 AVENUE",
	"CommunityBoardNumber": "105",
	"LocationBoroughName": "MANHATTAN",
	"Longitude": -73.9869995,
	"Latitude": 40.7605095
 },
 {
	"Item Type Name": "Temporary DOB registered oil fired mobile boiler",
	"JFNPermitNumber": "M00831433-I1-LA",
	"FilingNumber": "I1",
	"Created On Date": "2023/2/17 12:00:00",
	"Work Type Name": "Oil Work",
	"Filing Type Name": "New Job Filing",
	"LocationBIN": "1081366",
	"Address": "315 EAST  113 STREET",
	"CommunityBoardNumber": "111",
	"LocationBoroughName": "MANHATTAN",
	"Longitude": -73.9384232,
	"Latitude": 40.7949982
 },
 {
	"Item Type Name": "Temporary DOB registered oil fired mobile boiler",
	"JFNPermitNumber": "M00837717-I1-LA",
	"FilingNumber": "I1",
	"Created On Date": "2023/3/2 12:00:00",
	"Work Type Name": "Oil Work",
	"Filing Type Name": "New Job Filing",
	"LocationBIN": "1062307",
	"Address": "626 RIVERSIDE DRIVE",
	"CommunityBoardNumber": "109",
	"LocationBoroughName": "MANHATTAN",
	"Longitude": -73.9544373,
	"Latitude": 40.8235512
 },
 {
	"Item Type Name": "Temporary DOB registered oil fired mobile boiler",
	"JFNPermitNumber": "M00837893-I1-LA",
	"FilingNumber": "I1",
	"Created On Date": "2023/3/2 12:00:00",
	"Work Type Name": "Oil Work",
	"Filing Type Name": "New Job Filing",
	"LocationBIN": "1006478",
	"Address": "185 FIRST AVENUE",
	"CommunityBoardNumber": "103",
	"LocationBoroughName": "MANHATTAN",
	"Longitude": -73.9844818,
	"Latitude": 40.7299995
 },
 {
	"Item Type Name": "Temporary DOB registered oil fired mobile boiler",
	"JFNPermitNumber": "M00846095-I1-LA",
	"FilingNumber": "I1",
	"Created On Date": "2023/3/18 12:00:00",
	"Work Type Name": "Oil Work",
	"Filing Type Name": "New Job Filing",
	"LocationBIN": "1060453",
	"Address": "211 WEST  144 STREET",
	"CommunityBoardNumber": "110",
	"LocationBoroughName": "MANHATTAN",
	"Longitude": -73.9403381,
	"Latitude": 40.8215294
 },
 {
	"Item Type Name": "Temporary DOB registered oil fired mobile boiler",
	"JFNPermitNumber": "M00846948-I1-LA",
	"FilingNumber": "I1",
	"Created On Date": "2023/3/21 12:00:00",
	"Work Type Name": "Oil Work",
	"Filing Type Name": "New Job Filing",
	"LocationBIN": "1063376",
	"Address": "130 FT WASHINGTON AVENUE",
	"CommunityBoardNumber": "112",
	"LocationBoroughName": "MANHATTAN",
	"Longitude": -73.9428864,
	"Latitude": 40.8397217
 },
 {
	"Item Type Name": "Temporary DOB registered oil fired mobile boiler",
	"JFNPermitNumber": "M00850774-I1-LA",
	"FilingNumber": "I1",
	"Created On Date": "2023/3/27 12:00:00",
	"Work Type Name": "Oil Work",
	"Filing Type Name": "New Job Filing",
	"LocationBIN": "1033742",
	"Address": "433 WEST END AVENUE",
	"CommunityBoardNumber": "107",
	"LocationBoroughName": "MANHATTAN",
	"Longitude": -73.9806366,
	"Latitude": 40.7855797
 },
 {
	"Item Type Name": "Temporary DOB registered oil fired mobile boiler",
	"JFNPermitNumber": "M00850825-I1-LA",
	"FilingNumber": "I1",
	"Created On Date": "2023/3/28 12:00:00",
	"Work Type Name": "Oil Work",
	"Filing Type Name": "New Job Filing",
	"LocationBIN": "1064472",
	"Address": "801 WEST  190 STREET",
	"CommunityBoardNumber": "112",
	"LocationBoroughName": "MANHATTAN",
	"Longitude": -73.9344177,
	"Latitude": 40.8571396
 },
 {
	"Item Type Name": "Temporary DOB registered oil fired mobile boiler",
	"JFNPermitNumber": "M00851697-I1-LA",
	"FilingNumber": "I1",
	"Created On Date": "2023/3/29 12:00:00",
	"Work Type Name": "Oil Work",
	"Filing Type Name": "New Job Filing",
	"LocationBIN": "1005908",
	"Address": "278 EAST   10 STREET",
	"CommunityBoardNumber": "103",
	"LocationBoroughName": "MANHATTAN",
	"Longitude": -73.9832001,
	"Latitude": 40.7280197
 },
 {
	"Item Type Name": "Temporary DOB registered oil fired mobile boiler",
	"JFNPermitNumber": "M00852571-I1-LA",
	"FilingNumber": "I1",
	"Created On Date": "2023/3/30 12:00:00",
	"Work Type Name": "Oil Work",
	"Filing Type Name": "New Job Filing",
	"LocationBIN": "1008977",
	"Address": "111 4 AVENUE",
	"CommunityBoardNumber": "103",
	"LocationBoroughName": "MANHATTAN",
	"Longitude": -73.9897003,
	"Latitude": 40.7323494
 },
 {
	"Item Type Name": "Temporary DOB registered oil fired mobile boiler",
	"JFNPermitNumber": "M00854031-I1-LA",
	"FilingNumber": "I1",
	"Created On Date": "2023/4/3 12:00:00",
	"Work Type Name": "Oil Work",
	"Filing Type Name": "New Job Filing",
	"LocationBIN": "1028693",
	"Address": "305 COLUMBUS AVENUE",
	"CommunityBoardNumber": "107",
	"LocationBoroughName": "MANHATTAN",
	"Longitude": -73.9773331,
	"Latitude": 40.7788582
 },
 {
	"Item Type Name": "Temporary DOB registered oil fired mobile boiler",
	"JFNPermitNumber": "M00860947-I1-LA",
	"FilingNumber": "I1",
	"Created On Date": "2023/4/18 12:00:00",
	"Work Type Name": "Oil Work",
	"Filing Type Name": "New Job Filing",
	"LocationBIN": "1087113",
	"Address": "520 WEST   48 STREET",
	"CommunityBoardNumber": "104",
	"LocationBoroughName": "MANHATTAN",
	"Longitude": -73.9941025,
	"Latitude": 40.7637711
 },
 {
	"Item Type Name": "Temporary DOB registered oil fired mobile boiler",
	"JFNPermitNumber": "M00862163-I1-LA",
	"FilingNumber": "I1",
	"Created On Date": "2023/4/19 12:00:00",
	"Work Type Name": "Oil Work",
	"Filing Type Name": "New Job Filing",
	"LocationBIN": "1076237",
	"Address": "105 WEST   77 STREET",
	"CommunityBoardNumber": "107",
	"LocationBoroughName": "MANHATTAN",
	"Longitude": -73.9767303,
	"Latitude": 40.7809906
 },
 {
	"Item Type Name": "Temporary DOB registered oil fired mobile boiler",
	"JFNPermitNumber": "M00863880-I1-LA",
	"FilingNumber": "I1",
	"Created On Date": "2023/4/24 12:00:00",
	"Work Type Name": "Oil Work",
	"Filing Type Name": "New Job Filing",
	"LocationBIN": "1072696",
	"Address": "530 EAST   76 STREET",
	"CommunityBoardNumber": "108",
	"LocationBoroughName": "MANHATTAN",
	"Longitude": -73.9500885,
	"Latitude": 40.7681885
 },
 {
	"Item Type Name": "Temporary DOB registered oil fired mobile boiler",
	"JFNPermitNumber": "M00865598-I1-LA",
	"FilingNumber": "I1",
	"Created On Date": "2023/4/26 12:00:00",
	"Work Type Name": "Oil Work",
	"Filing Type Name": "New Job Filing",
	"LocationBIN": "1081243",
	"Address": "420 EAST   76 STREET",
	"CommunityBoardNumber": "108",
	"LocationBoroughName": "MANHATTAN",
	"Longitude": -73.9529877,
	"Latitude": 40.7696609
 },
 {
	"Item Type Name": "Temporary DOB registered oil fired mobile boiler",
	"JFNPermitNumber": "M00867105-I1-LA",
	"FilingNumber": "I1",
	"Created On Date": "2023/4/28 12:00:00",
	"Work Type Name": "Oil Work",
	"Filing Type Name": "New Job Filing",
	"LocationBIN": "1079988",
	"Address": "180 CABRINI BOULEVARD",
	"CommunityBoardNumber": "112",
	"LocationBoroughName": "MANHATTAN",
	"Longitude": -73.9400635,
	"Latitude": 40.8534012
 },
 {
	"Item Type Name": "Temporary DOB registered oil fired mobile boiler",
	"JFNPermitNumber": "M00869825-I1-LA",
	"FilingNumber": "I1",
	"Created On Date": "2023/5/4 12:00:00",
	"Work Type Name": "Oil Work",
	"Filing Type Name": "New Job Filing",
	"LocationBIN": "1051371",
	"Address": "200 EAST END AVENUE",
	"CommunityBoardNumber": "108",
	"LocationBoroughName": "MANHATTAN",
	"Longitude": -73.9435272,
	"Latitude": 40.7773399
 },
 {
	"Item Type Name": "Temporary DOB registered oil fired mobile boiler",
	"JFNPermitNumber": "M00870294-I1-LA",
	"FilingNumber": "I1",
	"Created On Date": "2023/5/4 12:00:00",
	"Work Type Name": "Oil Work",
	"Filing Type Name": "New Job Filing",
	"LocationBIN": "1074333",
	"Address": "216 EAST  120 STREET",
	"CommunityBoardNumber": "111",
	"LocationBoroughName": "MANHATTAN",
	"Longitude": -73.9371567,
	"Latitude": 40.7997208
 },
 {
	"Item Type Name": "Temporary DOB registered oil fired mobile boiler",
	"JFNPermitNumber": "M00872716-I1-LA",
	"FilingNumber": "I1",
	"Created On Date": "2023/5/10 12:00:00",
	"Work Type Name": "Oil Work",
	"Filing Type Name": "New Job Filing",
	"LocationBIN": "1019124",
	"Address": "105 EAST   38 STREET",
	"CommunityBoardNumber": "106",
	"LocationBoroughName": "MANHATTAN",
	"Longitude": -73.9787216,
	"Latitude": 40.7495193
 },
 {
	"Item Type Name": "Temporary DOB registered oil fired mobile boiler",
	"JFNPermitNumber": "M00875690-I1-LA",
	"FilingNumber": "I1",
	"Created On Date": "2023/5/16 12:00:00",
	"Work Type Name": "Oil Work",
	"Filing Type Name": "New Job Filing",
	"LocationBIN": "1062731",
	"Address": "540 WEST  158 STREET",
	"CommunityBoardNumber": "112",
	"LocationBoroughName": "MANHATTAN",
	"Longitude": -73.9435272,
	"Latitude": 40.8340607
 },
 {
	"Item Type Name": "Temporary DOB registered oil fired mobile boiler",
	"JFNPermitNumber": "M00878989-I1-LA",
	"FilingNumber": "I1",
	"Created On Date": "2023/5/22 12:00:00",
	"Work Type Name": "Oil Work",
	"Filing Type Name": "New Job Filing",
	"LocationBIN": "1078801",
	"Address": "236 EAST   33 STREET",
	"CommunityBoardNumber": "106",
	"LocationBoroughName": "MANHATTAN",
	"Longitude": -73.9773636,
	"Latitude": 40.7442818
 },
 {
	"Item Type Name": "Temporary DOB registered oil fired mobile boiler",
	"JFNPermitNumber": "M00881260-I1-LA",
	"FilingNumber": "I1",
	"Created On Date": "2023/5/25 12:00:00",
	"Work Type Name": "Oil Work",
	"Filing Type Name": "New Job Filing",
	"LocationBIN": "1030558",
	"Address": "253 WEST   73 STREET",
	"CommunityBoardNumber": "107",
	"LocationBoroughName": "MANHATTAN",
	"Longitude": -73.9829636,
	"Latitude": 40.7803001
 },
 {
	"Item Type Name": "Temporary DOB registered oil fired mobile boiler",
	"JFNPermitNumber": "M00885602-I1-LA",
	"FilingNumber": "I1",
	"Created On Date": "2023/6/6 12:00:00",
	"Work Type Name": "Oil Work",
	"Filing Type Name": "New Job Filing",
	"LocationBIN": "1030011",
	"Address": "141 WEST   73 STREET",
	"CommunityBoardNumber": "107",
	"LocationBoroughName": "MANHATTAN",
	"Longitude": -73.9797363,
	"Latitude": 40.7789612
 },
 {
	"Item Type Name": "Temporary DOB registered oil fired mobile boiler",
	"JFNPermitNumber": "M00885735-I1-LA",
	"FilingNumber": "I1",
	"Created On Date": "2023/6/6 12:00:00",
	"Work Type Name": "Oil Work",
	"Filing Type Name": "New Job Filing",
	"LocationBIN": "1050756",
	"Address": "1755 YORK AVENUE",
	"CommunityBoardNumber": "108",
	"LocationBoroughName": "MANHATTAN",
	"Longitude": -73.94487,
	"Latitude": 40.7795601
 },
 {
	"Item Type Name": "Temporary DOB registered oil fired mobile boiler",
	"JFNPermitNumber": "M00894072-I1-LA",
	"FilingNumber": "I1",
	"Created On Date": "2023/6/21 12:00:00",
	"Work Type Name": "Oil Work",
	"Filing Type Name": "New Job Filing",
	"LocationBIN": "1017939",
	"Address": "119 EAST   19 STREET",
	"CommunityBoardNumber": "106",
	"LocationBoroughName": "MANHATTAN",
	"Longitude": -73.9868698,
	"Latitude": 40.7375793
 },
 {
	"Item Type Name": "Temporary DOB registered oil fired mobile boiler",
	"JFNPermitNumber": "M00896239-I1-LA",
	"FilingNumber": "I1",
	"Created On Date": "2023/6/26 12:00:00",
	"Work Type Name": "Oil Work",
	"Filing Type Name": "New Job Filing",
	"LocationBIN": "1005856",
	"Address": "95 EAST    7 STREET",
	"CommunityBoardNumber": "103",
	"LocationBoroughName": "MANHATTAN",
	"Longitude": -73.9851303,
	"Latitude": 40.7269592
 },
 {
	"Item Type Name": "Temporary DOB registered oil fired mobile boiler",
	"JFNPermitNumber": "M00897158-I1-LA",
	"FilingNumber": "I1",
	"Created On Date": "2023/6/28 12:00:00",
	"Work Type Name": "Oil Work",
	"Filing Type Name": "New Job Filing",
	"LocationBIN": "1033305",
	"Address": "590 WEST END AVENUE",
	"CommunityBoardNumber": "107",
	"LocationBoroughName": "MANHATTAN",
	"Longitude": -73.9762802,
	"Latitude": 40.7904892
 },
 {
	"Item Type Name": "Temporary DOB registered oil fired mobile boiler",
	"JFNPermitNumber": "M00903506-I1-LA",
	"FilingNumber": "I1",
	"Created On Date": "2023/7/12 12:00:00",
	"Work Type Name": "Oil Work",
	"Filing Type Name": "New Job Filing",
	"LocationBIN": "1064378",
	"Address": "350 CABRINI BOULEVARD",
	"CommunityBoardNumber": "112",
	"LocationBoroughName": "MANHATTAN",
	"Longitude": -73.9375381,
	"Latitude": 40.8567085
 },
 {
	"Item Type Name": "Temporary DOB registered oil fired mobile boiler",
	"JFNPermitNumber": "M00905326-I1-LA",
	"FilingNumber": "I1",
	"Created On Date": "2023/7/18 12:00:00",
	"Work Type Name": "Oil Work",
	"Filing Type Name": "New Job Filing",
	"LocationBIN": "1045997",
	"Address": "440 EAST   78 STREET",
	"CommunityBoardNumber": "108",
	"LocationBoroughName": "MANHATTAN",
	"Longitude": -73.9520035,
	"Latitude": 40.7709084
 },
 {
	"Item Type Name": "Temporary DOB registered oil fired mobile boiler",
	"JFNPermitNumber": "M00906400-I1-LA",
	"FilingNumber": "I1",
	"Created On Date": "2023/7/19 12:00:00",
	"Work Type Name": "Oil Work",
	"Filing Type Name": "New Job Filing",
	"LocationBIN": "1001531",
	"Address": "166 DUANE STREET",
	"CommunityBoardNumber": "101",
	"LocationBoroughName": "MANHATTAN",
	"Longitude": -74.009407,
	"Latitude": 40.7167397
 },
 {
	"Item Type Name": "Temporary DOB registered oil fired mobile boiler",
	"JFNPermitNumber": "M00907081-I1-LA",
	"FilingNumber": "I1",
	"Created On Date": "2023/7/20 12:00:00",
	"Work Type Name": "Oil Work",
	"Filing Type Name": "New Job Filing",
	"LocationBIN": "1033206",
	"Address": "251 WEST   87 STREET",
	"CommunityBoardNumber": "107",
	"LocationBoroughName": "MANHATTAN",
	"Longitude": -73.9761734,
	"Latitude": 40.789299
 },
 {
	"Item Type Name": "Temporary DOB registered oil fired mobile boiler",
	"JFNPermitNumber": "M00909928-I1-LA",
	"FilingNumber": "I1",
	"Created On Date": "2023/7/26 12:00:00",
	"Work Type Name": "Oil Work",
	"Filing Type Name": "New Job Filing",
	"LocationBIN": "1008052",
	"Address": "131 THOMPSON STREET",
	"CommunityBoardNumber": "102",
	"LocationBoroughName": "MANHATTAN",
	"Longitude": -74.0014877,
	"Latitude": 40.7266312
 },
 {
	"Item Type Name": "Temporary DOB registered oil fired mobile boiler",
	"JFNPermitNumber": "M00912151-I1-LA",
	"FilingNumber": "I1",
	"Created On Date": "2023/7/31 12:00:00",
	"Work Type Name": "Oil Work",
	"Filing Type Name": "New Job Filing",
	"LocationBIN": "1019122",
	"Address": "67 PARK AVENUE",
	"CommunityBoardNumber": "106",
	"LocationBoroughName": "MANHATTAN",
	"Longitude": -73.9790115,
	"Latitude": 40.7495804
 },
 {
	"Item Type Name": "Temporary DOB registered oil fired mobile boiler",
	"JFNPermitNumber": "M00913507-I1-LA",
	"FilingNumber": "I1",
	"Created On Date": "2023/8/2 12:00:00",
	"Work Type Name": "Oil Work",
	"Filing Type Name": "New Job Filing",
	"LocationBIN": "1085486",
	"Address": "41 RIVER TERRACE",
	"CommunityBoardNumber": "101",
	"LocationBoroughName": "MANHATTAN",
	"Longitude": -74.0146713,
	"Latitude": 40.7182617
 },
 {
	"Item Type Name": "Temporary DOB registered oil fired mobile boiler",
	"JFNPermitNumber": "M00915668-I1-LA",
	"FilingNumber": "I1",
	"Created On Date": "2023/8/7 12:00:00",
	"Work Type Name": "Oil Work",
	"Filing Type Name": "New Job Filing",
	"LocationBIN": "1033206",
	"Address": "251 WEST   87 STREET",
	"CommunityBoardNumber": "107",
	"LocationBoroughName": "MANHATTAN",
	"Longitude": -73.9761734,
	"Latitude": 40.789299
 },
 {
	"Item Type Name": "Temporary DOB registered oil fired mobile boiler",
	"JFNPermitNumber": "M00917265-I1-LA",
	"FilingNumber": "I1",
	"Created On Date": "2023/8/10 12:00:00",
	"Work Type Name": "Oil Work",
	"Filing Type Name": "New Job Filing",
	"LocationBIN": "1054377",
	"Address": "1980 LEXINGTON AVENUE",
	"CommunityBoardNumber": "111",
	"LocationBoroughName": "MANHATTAN",
	"Longitude": -73.9401321,
	"Latitude": 40.8017616
 },
 {
	"Item Type Name": "Temporary DOB registered oil fired mobile boiler",
	"JFNPermitNumber": "M00919703-I1-LA",
	"FilingNumber": "I1",
	"Created On Date": "2023/8/15 12:00:00",
	"Work Type Name": "Oil Work",
	"Filing Type Name": "New Job Filing",
	"LocationBIN": "1033196",
	"Address": "257 WEST   86 STREET",
	"CommunityBoardNumber": "107",
	"LocationBoroughName": "MANHATTAN",
	"Longitude": -73.9769363,
	"Latitude": 40.7887993
 },
 {
	"Item Type Name": "Temporary DOB registered oil fired mobile boiler",
	"JFNPermitNumber": "M00920673-I1-LA",
	"FilingNumber": "I1",
	"Created On Date": "2023/8/16 12:00:00",
	"Work Type Name": "Oil Work",
	"Filing Type Name": "New Job Filing",
	"LocationBIN": "1077414",
	"Address": "7 ST JAMES PLACE",
	"CommunityBoardNumber": "103",
	"LocationBoroughName": "MANHATTAN",
	"Longitude": -73.998703,
	"Latitude": 40.7103386
 },
 {
	"Item Type Name": "Temporary DOB registered oil fired mobile boiler",
	"JFNPermitNumber": "M00923773-I1-LA",
	"FilingNumber": "I1",
	"Created On Date": "2023/8/23 12:00:00",
	"Work Type Name": "Oil Work",
	"Filing Type Name": "New Job Filing",
	"LocationBIN": "1013749",
	"Address": "254 WEST   15 STREET",
	"CommunityBoardNumber": "104",
	"LocationBoroughName": "MANHATTAN",
	"Longitude": -74.0015182,
	"Latitude": 40.7399712
 },
 {
	"Item Type Name": "Temporary DOB registered oil fired mobile boiler",
	"JFNPermitNumber": "M00927830-I1-LA",
	"FilingNumber": "I1",
	"Created On Date": "2023/8/31 12:00:00",
	"Work Type Name": "Oil Work",
	"Filing Type Name": "New Job Filing",
	"LocationBIN": "1077586",
	"Address": "645 WATER STREET",
	"CommunityBoardNumber": "103",
	"LocationBoroughName": "MANHATTAN",
	"Longitude": -73.9820328,
	"Latitude": 40.7111702
 },
 {
	"Item Type Name": "Temporary DOB registered oil fired mobile boiler",
	"JFNPermitNumber": "M00930108-I1-LA",
	"FilingNumber": "I1",
	"Created On Date": "2023/9/6 12:00:00",
	"Work Type Name": "Oil Work",
	"Filing Type Name": "New Job Filing",
	"LocationBIN": "1078437",
	"Address": "520 EAST   72 STREET",
	"CommunityBoardNumber": "108",
	"LocationBoroughName": "MANHATTAN",
	"Longitude": -73.9528275,
	"Latitude": 40.7659798
 },
 {
	"Item Type Name": "Temporary DOB registered oil fired mobile boiler",
	"JFNPermitNumber": "M00931151-I1-LA",
	"FilingNumber": "I1",
	"Created On Date": "2023/9/8 12:00:00",
	"Work Type Name": "Oil Work",
	"Filing Type Name": "New Job Filing",
	"LocationBIN": "1019821",
	"Address": "201 EAST   25 STREET",
	"CommunityBoardNumber": "106",
	"LocationBoroughName": "MANHATTAN",
	"Longitude": -73.9817429,
	"Latitude": 40.7402
 },
 {
	"Item Type Name": "Temporary DOB registered oil fired mobile boiler",
	"JFNPermitNumber": "M00931950-I1-LA",
	"FilingNumber": "I1",
	"Created On Date": "2023/9/11 12:00:00",
	"Work Type Name": "Oil Work",
	"Filing Type Name": "New Job Filing",
	"LocationBIN": "1008184",
	"Address": "308 MOTT STREET",
	"CommunityBoardNumber": "102",
	"LocationBoroughName": "MANHATTAN",
	"Longitude": -73.993782,
	"Latitude": 40.7251282
 },
 {
	"Item Type Name": "Temporary DOB registered oil fired mobile boiler",
	"JFNPermitNumber": "M00934298-I1-LA",
	"FilingNumber": "I1",
	"Created On Date": "2023/9/15 12:00:00",
	"Work Type Name": "Oil Work",
	"Filing Type Name": "New Job Filing",
	"LocationBIN": "1070806",
	"Address": "127 WEST   82 STREET",
	"CommunityBoardNumber": "107",
	"LocationBoroughName": "MANHATTAN",
	"Longitude": -73.9752426,
	"Latitude": 40.7846489
 },
 {
	"Item Type Name": "Temporary DOB registered oil fired mobile boiler",
	"JFNPermitNumber": "M00934815-I1-LA",
	"FilingNumber": "I1",
	"Created On Date": "2023/9/15 12:00:00",
	"Work Type Name": "Oil Work",
	"Filing Type Name": "New Job Filing",
	"LocationBIN": "1059526",
	"Address": "425 WEST  123 STREET",
	"CommunityBoardNumber": "109",
	"LocationBoroughName": "MANHATTAN",
	"Longitude": -73.9557266,
	"Latitude": 40.810791
 },
 {
	"Item Type Name": "Temporary DOB registered oil fired mobile boiler",
	"JFNPermitNumber": "M00935111-I1-LA",
	"FilingNumber": "I1",
	"Created On Date": "2023/9/18 12:00:00",
	"Work Type Name": "Oil Work",
	"Filing Type Name": "New Job Filing",
	"LocationBIN": "1031996",
	"Address": "170 WEST   81 STREET",
	"CommunityBoardNumber": "107",
	"LocationBoroughName": "MANHATTAN",
	"Longitude": -73.9767532,
	"Latitude": 40.7839508
 },
 {
	"Item Type Name": "Temporary DOB registered oil fired mobile boiler",
	"JFNPermitNumber": "M00935120-I1-LA",
	"FilingNumber": "I1",
	"Created On Date": "2023/9/18 12:00:00",
	"Work Type Name": "Oil Work",
	"Filing Type Name": "New Job Filing",
	"LocationBIN": "1062164",
	"Address": "524 WEST  151 STREET",
	"CommunityBoardNumber": "109",
	"LocationBoroughName": "MANHATTAN",
	"Longitude": -73.9466324,
	"Latitude": 40.8295288
 },
 {
	"Item Type Name": "Temporary DOB registered oil fired mobile boiler",
	"JFNPermitNumber": "M00935122-I1-LA",
	"FilingNumber": "I1",
	"Created On Date": "2023/9/18 12:00:00",
	"Work Type Name": "Oil Work",
	"Filing Type Name": "New Job Filing",
	"LocationBIN": "1064331",
	"Address": "875 WEST  181 STREET",
	"CommunityBoardNumber": "112",
	"LocationBoroughName": "MANHATTAN",
	"Longitude": -73.9412766,
	"Latitude": 40.851841
 },
 {
	"Item Type Name": "Temporary DOB registered oil fired mobile boiler",
	"JFNPermitNumber": "M00936105-I1-LA",
	"FilingNumber": "I1",
	"Created On Date": "2023/9/19 12:00:00",
	"Work Type Name": "Oil Work",
	"Filing Type Name": "New Job Filing",
	"LocationBIN": "1051748",
	"Address": "102 EAST   98 STREET",
	"CommunityBoardNumber": "111",
	"LocationBoroughName": "MANHATTAN",
	"Longitude": -73.9513321,
	"Latitude": 40.7876091
 },
 {
	"Item Type Name": "Temporary DOB registered oil fired mobile boiler",
	"JFNPermitNumber": "M00936414-I1-LA",
	"FilingNumber": "I1",
	"Created On Date": "2023/9/20 12:00:00",
	"Work Type Name": "Oil Work",
	"Filing Type Name": "New Job Filing",
	"LocationBIN": "1028714",
	"Address": "145 CENTRAL PARK WEST",
	"CommunityBoardNumber": "107",
	"LocationBoroughName": "MANHATTAN",
	"Longitude": -73.9751892,
	"Latitude": 40.7780113
 },
 {
	"Item Type Name": "Temporary DOB registered oil fired mobile boiler",
	"JFNPermitNumber": "M00937627-I1-LA",
	"FilingNumber": "I1",
	"Created On Date": "2023/9/21 12:00:00",
	"Work Type Name": "Oil Work",
	"Filing Type Name": "New Job Filing",
	"LocationBIN": "1082409",
	"Address": "404 WEST   51 STREET",
	"CommunityBoardNumber": "104",
	"LocationBoroughName": "MANHATTAN",
	"Longitude": -73.9891434,
	"Latitude": 40.7641411
 },
 {
	"Item Type Name": "Temporary DOB registered oil fired mobile boiler",
	"JFNPermitNumber": "M00939380-I1-LA",
	"FilingNumber": "I1",
	"Created On Date": "2023/9/26 12:00:00",
	"Work Type Name": "Oil Work",
	"Filing Type Name": "New Job Filing",
	"LocationBIN": "1013732",
	"Address": "201 WEST   14 STREET",
	"CommunityBoardNumber": "104",
	"LocationBoroughName": "MANHATTAN",
	"Longitude": -73.9997025,
	"Latitude": 40.7388611
 },
 {
	"Item Type Name": "Temporary DOB registered oil fired mobile boiler",
	"JFNPermitNumber": "M00939418-I1-LA",
	"FilingNumber": "I1",
	"Created On Date": "2023/9/26 12:00:00",
	"Work Type Name": "Oil Work",
	"Filing Type Name": "New Job Filing",
	"LocationBIN": "1011222",
	"Address": "207 WEST   10 STREET",
	"CommunityBoardNumber": "102",
	"LocationBoroughName": "MANHATTAN",
	"Longitude": -74.0041122,
	"Latitude": 40.7342682
 },
 {
	"Item Type Name": "Temporary DOB registered oil fired mobile boiler",
	"JFNPermitNumber": "M00940791-I1-LA",
	"FilingNumber": "I1",
	"Created On Date": "2023/9/28 12:00:00",
	"Work Type Name": "Oil Work",
	"Filing Type Name": "New Job Filing",
	"LocationBIN": "1062595",
	"Address": "426 WEST  163 STREET",
	"CommunityBoardNumber": "112",
	"LocationBoroughName": "MANHATTAN",
	"Longitude": -73.9380493,
	"Latitude": 40.8356705
 },