[
 {
	"Item Type Name": "Temporary DOB registered oil fired mobile boiler",
	"JFNPermitNumber": "B00535480-S1-LA",
	"FilingNumber": "S1",
	"Created On Date": "2022/2/4 12:00:00",
	"Work Type Name": "Oil Work",
	"Filing Type Name": "Subsequent Filing",
	"LocationBIN": "3029638",
	"Address": "400 LINCOLN PLACE",
	"CommunityBoardNumber": "308",
	"LocationBoroughName": "BROOKLYN",
	"Longitude": -73.96313,
	"Latitude": 40.67266
 },
 {
	"Item Type Name": "Temporary DOB registered oil fired mobile boiler",
	"JFNPermitNumber": "B00661081-I1-LA",
	"FilingNumber": "I1",
	"Created On Date": "2022/1/12 12:00:00",
	"Work Type Name": "Oil Work",
	"Filing Type Name": "New Job Filing",
	"LocationBIN": "3117588",
	"Address": "205 EAST   17 STREET",
	"CommunityBoardNumber": "314",
	"LocationBoroughName": "BROOKLYN",
	"Longitude": -73.96305,
	"Latitude": 40.64581
 },
 {
	"Item Type Name": "Temporary DOB registered oil fired mobile boiler",
	"JFNPermitNumber": "B00663611-I1-LA",
	"FilingNumber": "I1",
	"Created On Date": "2022/1/17 12:00:00",
	"Work Type Name": "Oil Work",
	"Filing Type Name": "New Job Filing",
	"LocationBIN": "3338999",
	"Address": "2520 CHURCH AVENUE",
	"CommunityBoardNumber": "317",
	"LocationBoroughName": "BROOKLYN",
	"Longitude": -73.95379,
	"Latitude": 40.65012
 },
 {
	"Item Type Name": "Temporary DOB registered oil fired mobile boiler",
	"JFNPermitNumber": "B00671201-I1-LA",
	"FilingNumber": "I1",
	"Created On Date": "2022/1/28 12:00:00",
	"Work Type Name": "Oil Work",
	"Filing Type Name": "New Job Filing",
	"LocationBIN": "3019597",
	"Address": "180 6 AVENUE",
	"CommunityBoardNumber": "306",
	"LocationBoroughName": "BROOKLYN",
	"Longitude": -73.97799,
	"Latitude": 40.67665
 },
 {
	"Item Type Name": "Temporary DOB registered oil fired mobile boiler",
	"JFNPermitNumber": "B00674612-I1-LA",
	"FilingNumber": "I1",
	"Created On Date": "2022/2/4 12:00:00",
	"Work Type Name": "Oil Work",
	"Filing Type Name": "New Job Filing",
	"LocationBIN": "3117616",
	"Address": "165 EAST   19 STREET",
	"CommunityBoardNumber": "314",
	"LocationBoroughName": "BROOKLYN",
	"Longitude": -73.96104,
	"Latitude": 40.64552
 },
 {
	"Item Type Name": "Temporary DOB registered oil fired mobile boiler",
	"JFNPermitNumber": "B00676792-I1-LA",
	"FilingNumber": "I1",
	"Created On Date": "2022/2/8 12:00:00",
	"Work Type Name": "Oil Work",
	"Filing Type Name": "New Job Filing",
	"LocationBIN": "3400387",
	"Address": "161 VARICK AVENUE",
	"CommunityBoardNumber": "301",
	"LocationBoroughName": "BROOKLYN",
	"Longitude": -73.92967,
	"Latitude": 40.71096
 },
 {
	"Item Type Name": "Temporary DOB registered oil fired mobile boiler",
	"JFNPermitNumber": "B00685255-I1-LA",
	"FilingNumber": "I1",
	"Created On Date": "2022/2/22 12:00:00",
	"Work Type Name": "Oil Work",
	"Filing Type Name": "New Job Filing",
	"LocationBIN": "3125450",
	"Address": "300 OCEAN PARKWAY",
	"CommunityBoardNumber": "312",
	"LocationBoroughName": "BROOKLYN",
	"Longitude": -73.97446,
	"Latitude": 40.64177
 },
 {
	"Item Type Name": "Temporary DOB registered oil fired mobile boiler",
	"JFNPermitNumber": "B00685758-I1-LA",
	"FilingNumber": "I1",
	"Created On Date": "2022/2/23 12:00:00",
	"Work Type Name": "Oil Work",
	"Filing Type Name": "New Job Filing",
	"LocationBIN": "3010685",
	"Address": "354 41 STREET",
	"CommunityBoardNumber": "307",
	"LocationBoroughName": "BROOKLYN",
	"Longitude": -74.0083,
	"Latitude": 40.65182
 },
 {
	"Item Type Name": "Temporary DOB registered oil fired mobile boiler",
	"JFNPermitNumber": "B00685931-I1-LA",
	"FilingNumber": "I1",
	"Created On Date": "2022/2/23 12:00:00",
	"Work Type Name": "Oil Work",
	"Filing Type Name": "New Job Filing",
	"LocationBIN": "3000092",
	"Address": "57 JAY STREET",
	"CommunityBoardNumber": "302",
	"LocationBoroughName": "BROOKLYN",
	"Longitude": -73.98636,
	"Latitude": 40.70297
 },
 {
	"Item Type Name": "Temporary DOB registered oil fired mobile boiler",
	"JFNPermitNumber": "B00687608-I1-LA",
	"FilingNumber": "I1",
	"Created On Date": "2022/2/25 12:00:00",
	"Work Type Name": "Oil Work",
	"Filing Type Name": "New Job Filing",
	"LocationBIN": "3139614",
	"Address": "5511 FORT HAMILTON PARKWAY",
	"CommunityBoardNumber": "312",
	"LocationBoroughName": "BROOKLYN",
	"Longitude": -74.00195,
	"Latitude": 40.63512
 },
 {
	"Item Type Name": "Temporary DOB registered oil fired mobile boiler",
	"JFNPermitNumber": "B00692136-I1-LA",
	"FilingNumber": "I1",
	"Created On Date": "2022/3/4 12:00:00",
	"Work Type Name": "Oil Work",
	"Filing Type Name": "New Job Filing",
	"LocationBIN": "3030348",
	"Address": "1055 BERGEN STREET",
	"CommunityBoardNumber": "308",
	"LocationBoroughName": "BROOKLYN",
	"Longitude": -73.95148,
	"Latitude": 40.67642
 },
 {
	"Item Type Name": "Temporary DOB registered oil fired mobile boiler",
	"JFNPermitNumber": "B00698682-I1-LA",
	"FilingNumber": "I1",
	"Created On Date": "2022/3/15 12:00:00",
	"Work Type Name": "Oil Work",
	"Filing Type Name": "New Job Filing",
	"LocationBIN": "3076419",
	"Address": "1152 GATES AVENUE",
	"CommunityBoardNumber": "304",
	"LocationBoroughName": "BROOKLYN",
	"Longitude": -73.92006,
	"Latitude": 40.69118
 },
 {
	"Item Type Name": "Temporary DOB registered oil fired mobile boiler",
	"JFNPermitNumber": "B00698971-I1-LA",
	"FilingNumber": "I1",
	"Created On Date": "2022/3/15 12:00:00",
	"Work Type Name": "Oil Work",
	"Filing Type Name": "New Job Filing",
	"LocationBIN": "3138058",
	"Address": "1231 51 STREET",
	"CommunityBoardNumber": "312",
	"LocationBoroughName": "BROOKLYN",
	"Longitude": -73.99447,
	"Latitude": 40.63491
 },
 {
	"Item Type Name": "Temporary DOB registered oil fired mobile boiler",
	"JFNPermitNumber": "B00701540-I1-LA",
	"FilingNumber": "I1",
	"Created On Date": "2022/3/18 12:00:00",
	"Work Type Name": "Oil Work",
	"Filing Type Name": "New Job Filing",
	"LocationBIN": "3398591",
	"Address": "461 DEAN STREET",
	"CommunityBoardNumber": "306",
	"LocationBoroughName": "BROOKLYN",
	"Longitude": -73.97549,
	"Latitude": 40.68196
 },
 {
	"Item Type Name": "Temporary DOB registered oil fired mobile boiler",
	"JFNPermitNumber": "B00704022-I1-LA",
	"FilingNumber": "I1",
	"Created On Date": "2022/3/22 12:00:00",
	"Work Type Name": "Oil Work",
	"Filing Type Name": "New Job Filing",
	"LocationBIN": "3165172",
	"Address": "1901 84 STREET",
	"CommunityBoardNumber": "311",
	"LocationBoroughName": "BROOKLYN",
	"Longitude": -73.99871,
	"Latitude": 40.60705
 },
 {
	"Item Type Name": "Temporary DOB registered oil fired mobile boiler",
	"JFNPermitNumber": "B00704396-I1-LA",
	"FilingNumber": "I1",
	"Created On Date": "2022/3/23 12:00:00",
	"Work Type Name": "Oil Work",
	"Filing Type Name": "New Job Filing",
	"LocationBIN": "3002060",
	"Address": "110 MONTAGUE STREET",
	"CommunityBoardNumber": "302",
	"LocationBoroughName": "BROOKLYN",
	"Longitude": -73.99512,
	"Latitude": 40.69478
 },
 {
	"Item Type Name": "Temporary DOB registered oil fired mobile boiler",
	"JFNPermitNumber": "B00710327-I1-LA",
	"FilingNumber": "I1",
	"Created On Date": "2022/3/31 12:00:00",
	"Work Type Name": "Oil Work",
	"Filing Type Name": "New Job Filing",
	"LocationBIN": "3413894",
	"Address": "181 FRONT STREET",
	"CommunityBoardNumber": "302",
	"LocationBoroughName": "BROOKLYN",
	"Longitude": -73.98596,
	"Latitude": 40.7026
 },
 {
	"Item Type Name": "Temporary DOB registered oil fired mobile boiler",
	"JFNPermitNumber": "B00713576-I1-LA",
	"FilingNumber": "I1",
	"Created On Date": "2022/4/6 12:00:00",
	"Work Type Name": "Oil Work",
	"Filing Type Name": "New Job Filing",
	"LocationBIN": "3116130",
	"Address": "416 OCEAN AVENUE",
	"CommunityBoardNumber": "314",
	"LocationBoroughName": "BROOKLYN",
	"Longitude": -73.96181,
	"Latitude": 40.65237
 },
 {
	"Item Type Name": "Temporary DOB registered oil fired mobile boiler",
	"JFNPermitNumber": "B00718984-I1-LA",
	"FilingNumber": "I1",
	"Created On Date": "2022/4/14 12:00:00",
	"Work Type Name": "Oil Work",
	"Filing Type Name": "New Job Filing",
	"LocationBIN": "3163319",
	"Address": "1803 81 STREET",
	"CommunityBoardNumber": "311",
	"LocationBoroughName": "BROOKLYN",
	"Longitude": -73.99903,
	"Latitude": 40.60997
 },
 {
	"Item Type Name": "Temporary DOB registered oil fired mobile boiler",
	"JFNPermitNumber": "B00719127-I1-LA",
	"FilingNumber": "I1",
	"Created On Date": "2022/4/14 12:00:00",
	"Work Type Name": "Oil Work",
	"Filing Type Name": "New Job Filing",
	"LocationBIN": "3129069",
	"Address": "1806 48 STREET",
	"CommunityBoardNumber": "312",
	"LocationBoroughName": "BROOKLYN",
	"Longitude": -73.98034,
	"Latitude": 40.62854
 },
 {
	"Item Type Name": "Temporary DOB registered oil fired mobile boiler",
	"JFNPermitNumber": "B00719390-I1-LA",
	"FilingNumber": "I1",
	"Created On Date": "2022/4/14 12:00:00",
	"Work Type Name": "Oil Work",
	"Filing Type Name": "New Job Filing",
	"LocationBIN": "3129240",
	"Address": "1801 50 STREET",
	"CommunityBoardNumber": "312",
	"LocationBoroughName": "BROOKLYN",
	"Longitude": -73.98114,
	"Latitude": 40.62776
 },
 {
	"Item Type Name": "Temporary DOB registered oil fired mobile boiler",
	"JFNPermitNumber": "B00729026-I1-LA",
	"FilingNumber": "I1",
	"Created On Date": "2022/5/2 12:00:00",
	"Work Type Name": "Oil Work",
	"Filing Type Name": "New Job Filing",
	"LocationBIN": "3138126",
	"Address": "1425 51 STREET",
	"CommunityBoardNumber": "312",
	"LocationBoroughName": "BROOKLYN",
	"Longitude": -73.99035,
	"Latitude": 40.6324
 },
 {
	"Item Type Name": "Temporary DOB registered oil fired mobile boiler",
	"JFNPermitNumber": "B00734536-I1-LA",
	"FilingNumber": "I1",
	"Created On Date": "2022/5/9 12:00:00",
	"Work Type Name": "Oil Work",
	"Filing Type Name": "New Job Filing",
	"LocationBIN": "3029652",
	"Address": "255 EASTERN PARKWAY",
	"CommunityBoardNumber": "308",
	"LocationBoroughName": "BROOKLYN",
	"Longitude": -73.96029,
	"Latitude": 40.67172
 },
 {
	"Item Type Name": "Temporary DOB registered oil fired mobile boiler",
	"JFNPermitNumber": "B00734660-I1-LA",
	"FilingNumber": "I1",
	"Created On Date": "2022/5/10 12:00:00",
	"Work Type Name": "Oil Work",
	"Filing Type Name": "New Job Filing",
	"LocationBIN": "3129068",
	"Address": "1805 49 STREET",
	"CommunityBoardNumber": "312",
	"LocationBoroughName": "BROOKLYN",
	"Longitude": -73.98057,
	"Latitude": 40.62833
 },
 {
	"Item Type Name": "Temporary DOB registered oil fired mobile boiler",
	"JFNPermitNumber": "B00739670-I1-LA",
	"FilingNumber": "I1",
	"Created On Date": "2022/5/17 12:00:00",
	"Work Type Name": "Oil Work",
	"Filing Type Name": "New Job Filing",
	"LocationBIN": "3171510",
	"Address": "1012 AVENUE K",
	"CommunityBoardNumber": "312",
	"LocationBoroughName": "BROOKLYN",
	"Longitude": -73.96503,
	"Latitude": 40.62209
 },
 {
	"Item Type Name": "Temporary DOB registered oil fired mobile boiler",
	"JFNPermitNumber": "B00742896-I1-LA",
	"FilingNumber": "I1",
	"Created On Date": "2022/5/20 12:00:00",
	"Work Type Name": "Oil Work",
	"Filing Type Name": "New Job Filing",
	"LocationBIN": "3418326",
	"Address": "2415 CHURCH AVENUE",
	"CommunityBoardNumber": "317",
	"LocationBoroughName": "BROOKLYN",
	"Longitude": -73.95512,
	"Latitude": 40.65085
 },
 {
	"Item Type Name": "Temporary DOB registered oil fired mobile boiler",
	"JFNPermitNumber": "B00746243-I1-LA",
	"FilingNumber": "I1",
	"Created On Date": "2022/5/26 12:00:00",
	"Work Type Name": "Oil Work",
	"Filing Type Name": "New Job Filing",
	"LocationBIN": "3327372",
	"Address": "217 EAST    7 STREET",
	"CommunityBoardNumber": "312",
	"LocationBoroughName": "BROOKLYN",
	"Longitude": -73.97282,
	"Latitude": 40.64639
 },
 {
	"Item Type Name": "Temporary DOB registered oil fired mobile boiler",
	"JFNPermitNumber": "B00747926-I1-LA",
	"FilingNumber": "I1",
	"Created On Date": "2022/5/31 12:00:00",
	"Work Type Name": "Oil Work",
	"Filing Type Name": "New Job Filing",
	"LocationBIN": "3055968",
	"Address": "430 CLINTON AVENUE",
	"CommunityBoardNumber": "302",
	"LocationBoroughName": "BROOKLYN",
	"Longitude": -73.96781,
	"Latitude": 40.68534
 },
 {
	"Item Type Name": "Temporary DOB registered oil fired mobile boiler",
	"JFNPermitNumber": "B00748875-I1-LA",
	"FilingNumber": "I1",
	"Created On Date": "2022/6/1 12:00:00",
	"Work Type Name": "Oil Work",
	"Filing Type Name": "New Job Filing",
	"LocationBIN": "3136585",
	"Address": "983 46 STREET",
	"CommunityBoardNumber": "312",
	"LocationBoroughName": "BROOKLYN",
	"Longitude": -73.9971,
	"Latitude": 40.64096
 },
 {
	"Item Type Name": "Temporary DOB registered oil fired mobile boiler",
	"JFNPermitNumber": "B00749510-I1-LA",
	"FilingNumber": "I1",
	"Created On Date": "2022/6/1 12:00:00",
	"Work Type Name": "Oil Work",
	"Filing Type Name": "New Job Filing",
	"LocationBIN": "3061080",
	"Address": "40 HEYWARD STREET",
	"CommunityBoardNumber": "301",
	"LocationBoroughName": "BROOKLYN",
	"Longitude": -73.95792,
	"Latitude": 40.70024
 },
 {
	"Item Type Name": "Temporary DOB registered oil fired mobile boiler",
	"JFNPermitNumber": "B00760621-I1-LA",
	"FilingNumber": "I1",
	"Created On Date": "2022/6/20 12:00:00",
	"Work Type Name": "Oil Work",
	"Filing Type Name": "New Job Filing",
	"LocationBIN": "3180160",
	"Address": "1921 AVENUE K",
	"CommunityBoardNumber": "314",
	"LocationBoroughName": "BROOKLYN",
	"Longitude": -73.95643,
	"Latitude": 40.62349
 },
 {
	"Item Type Name": "Temporary DOB registered oil fired mobile boiler",
	"JFNPermitNumber": "B00760994-I1-LA",
	"FilingNumber": "I1",
	"Created On Date": "2022/6/20 12:00:00",
	"Work Type Name": "Oil Work",
	"Filing Type Name": "New Job Filing",
	"LocationBIN": "3047914",
	"Address": "180 CHAUNCEY STREET",
	"CommunityBoardNumber": "303",
	"LocationBoroughName": "BROOKLYN",
	"Longitude": -73.92667,
	"Latitude": 40.68035
 },
 {
	"Item Type Name": "Temporary DOB registered oil fired mobile boiler",
	"JFNPermitNumber": "B00762349-I1-LA",
	"FilingNumber": "I1",
	"Created On Date": "2022/6/22 12:00:00",
	"Work Type Name": "Oil Work",
	"Filing Type Name": "New Job Filing",
	"LocationBIN": "3150455",
	"Address": "601 79 STREET",
	"CommunityBoardNumber": "310",
	"LocationBoroughName": "BROOKLYN",
	"Longitude": -74.02086,
	"Latitude": 40.62498
 },
 {
	"Item Type Name": "Temporary DOB registered oil fired mobile boiler",
	"JFNPermitNumber": "B00776319-I1-LA",
	"FilingNumber": "I1",
	"Created On Date": "2022/7/18 12:00:00",
	"Work Type Name": "Oil Work",
	"Filing Type Name": "New Job Filing",
	"LocationBIN": "3163419",
	"Address": "8002 21 AVENUE",
	"CommunityBoardNumber": "311",
	"LocationBoroughName": "BROOKLYN",
	"Longitude": -73.99297,
	"Latitude": 40.60667
 },
 {
	"Item Type Name": "Temporary DOB registered oil fired mobile boiler",
	"JFNPermitNumber": "B00781943-I1-LA",
	"FilingNumber": "I1",
	"Created On Date": "2022/7/26 12:00:00",
	"Work Type Name": "Oil Work",
	"Filing Type Name": "New Job Filing",
	"LocationBIN": "3002558",
	"Address": "210 JORALEMON STREET",
	"CommunityBoardNumber": "302",
	"LocationBoroughName": "BROOKLYN",
	"Longitude": -73.99047,
	"Latitude": 40.69207
 },
 {
	"Item Type Name": "Temporary DOB registered oil fired mobile boiler",
	"JFNPermitNumber": "B00783443-I1-LA",
	"FilingNumber": "I1",
	"Created On Date": "2022/7/28 12:00:00",
	"Work Type Name": "Oil Work",
	"Filing Type Name": "New Job Filing",
	"LocationBIN": "3000203",
	"Address": "50 NAVY STREET",
	"CommunityBoardNumber": "302",
	"LocationBoroughName": "BROOKLYN",
	"Longitude": -73.98112,
	"Latitude": 40.69785
 },
 {
	"Item Type Name": "Temporary DOB registered oil fired mobile boiler",
	"JFNPermitNumber": "B00784992-I1-LA",
	"FilingNumber": "I1",
	"Created On Date": "2022/8/1 12:00:00",
	"Work Type Name": "Oil Work",
	"Filing Type Name": "New Job Filing",
	"LocationBIN": "3324294",
	"Address": "725 STANLEY AVENUE",
	"CommunityBoardNumber": "305",
	"LocationBoroughName": "BROOKLYN",
	"Longitude": -73.88185,
	"Latitude": 40.66122
 },
 {
	"Item Type Name": "Temporary DOB registered oil fired mobile boiler",
	"JFNPermitNumber": "B00789626-I1-LA",
	"FilingNumber": "I1",
	"Created On Date": "2022/8/8 12:00:00",
	"Work Type Name": "Oil Work",
	"Filing Type Name": "New Job Filing",
	"LocationBIN": "3334961",
	"Address": "200 WILLOUGHBY AVENUE",
	"CommunityBoardNumber": "302",
	"LocationBoroughName": "BROOKLYN",
	"Longitude": -73.96389,
	"Latitude": 40.69102
 },
 {
	"Item Type Name": "Temporary DOB registered oil fired mobile boiler",
	"JFNPermitNumber": "B00792350-I1-LA",
	"FilingNumber": "I1",
	"Created On Date": "2022/8/12 12:00:00",
	"Work Type Name": "Oil Work",
	"Filing Type Name": "New Job Filing",
	"LocationBIN": "3048818",
	"Address": "545 WILLOUGHBY AVENUE",
	"CommunityBoardNumber": "303",
	"LocationBoroughName": "BROOKLYN",
	"Longitude": -73.94736,
	"Latitude": 40.69444
 },
 {
	"Item Type Name": "Temporary DOB registered oil fired mobile boiler",
	"JFNPermitNumber": "B00793297-I1-LA",
	"FilingNumber": "I1",
	"Created On Date": "2022/8/15 12:00:00",
	"Work Type Name": "Oil Work",
	"Filing Type Name": "New Job Filing",
	"LocationBIN": "3115529",
	"Address": "75 HAWTHORNE STREET",
	"CommunityBoardNumber": "309",
	"LocationBoroughName": "BROOKLYN",
	"Longitude": -73.95764,
	"Latitude": 40.65764
 },
 {
	"Item Type Name": "Temporary DOB registered oil fired mobile boiler",
	"JFNPermitNumber": "B00793518-I1-LA",
	"FilingNumber": "I1",
	"Created On Date": "2022/8/15 12:00:00",
	"Work Type Name": "Oil Work",
	"Filing Type Name": "New Job Filing",
	"LocationBIN": "3224947",
	"Address": "956 EAST   82 STREET",
	"CommunityBoardNumber": "318",
	"LocationBoroughName": "BROOKLYN",
	"Longitude": -73.91122,
	"Latitude": 40.63539
 },
 {
	"Item Type Name": "Temporary DOB registered oil fired mobile boiler",
	"JFNPermitNumber": "B00807709-I1-LA",
	"FilingNumber": "I1",
	"Created On Date": "2023/1/4 12:00:00",
	"Work Type Name": "Oil Work",
	"Filing Type Name": "New Job Filing",
	"LocationBIN": "3192661",
	"Address": "345 VAN SICKLEN STREET",
	"CommunityBoardNumber": "315",
	"LocationBoroughName": "BROOKLYN",
	"Longitude": -73.97467,
	"Latitude": 40.596
 },
 {
	"Item Type Name": "Temporary DOB registered oil fired mobile boiler",
	"JFNPermitNumber": "B00810067-I1-LA",
	"FilingNumber": "I1",
	"Created On Date": "2023/1/9 12:00:00",
	"Work Type Name": "Oil Work",
	"Filing Type Name": "New Job Filing",
	"LocationBIN": "3046876",
	"Address": "500 MACON STREET",
	"CommunityBoardNumber": "303",
	"LocationBoroughName": "BROOKLYN",
	"Longitude": -73.93013,
	"Latitude": 40.68295
 },
 {
	"Item Type Name": "Temporary DOB registered oil fired mobile boiler",
	"JFNPermitNumber": "B00812387-I1-LA",
	"FilingNumber": "I1",
	"Created On Date": "2023/1/13 12:00:00",
	"Work Type Name": "Oil Work",
	"Filing Type Name": "New Job Filing",
	"LocationBIN": "3145633",
	"Address": "237 OVINGTON AVENUE",
	"CommunityBoardNumber": "310",
	"LocationBoroughName": "BROOKLYN",
	"Longitude": -74.02763,
	"Latitude": 40.63546
 },
 {
	"Item Type Name": "Temporary DOB registered oil fired mobile boiler",
	"JFNPermitNumber": "B00812688-I1-LA",
	"FilingNumber": "I1",
	"Created On Date": "2023/1/13 12:00:00",
	"Work Type Name": "Oil Work",
	"Filing Type Name": "New Job Filing",
	"LocationBIN": "3034161",
	"Address": "240 CROWN STREET",
	"CommunityBoardNumber": "309",
	"LocationBoroughName": "BROOKLYN",
	"Longitude": -73.95274,
	"Latitude": 40.6661
 },
 {
	"Item Type Name": "Temporary DOB registered oil fired mobile boiler",
	"JFNPermitNumber": "B00822608-I1-LA",
	"FilingNumber": "I1",
	"Created On Date": "2023/2/2 12:00:00",
	"Work Type Name": "Oil Work",
	"Filing Type Name": "New Job Filing",
	"LocationBIN": "3392234",
	"Address": "358 GROVE STREET",
	"CommunityBoardNumber": "304",
	"LocationBoroughName": "BROOKLYN",
	"Longitude": -73.9138,
	"Latitude": 40.69994
 },
 {
	"Item Type Name": "Temporary DOB registered oil fired mobile boiler",
	"JFNPermitNumber": "B00824521-I1-LA",
	"FilingNumber": "I1",
	"Created On Date": "2023/2/6 12:00:00",
	"Work Type Name": "Oil Work",
	"Filing Type Name": "New Job Filing",
	"LocationBIN": "3324228",
	"Address": "207 PROSPECT PARK SOUTH WEST",
	"CommunityBoardNumber": "307",
	"LocationBoroughName": "BROOKLYN",
	"Longitude": -73.97307,
	"Latitude": 40.65205
 },
 {
	"Item Type Name": "Temporary DOB registered oil fired mobile boiler",
	"JFNPermitNumber": "B00831937-I1-LA",
	"FilingNumber": "I1",
	"Created On Date": "2023/2/20 12:00:00",
	"Work Type Name": "Oil Work",
	"Filing Type Name": "New Job Filing",
	"LocationBIN": "3117147",
	"Address": "280 EAST   21 STREET",
	"CommunityBoardNumber": "314",
	"LocationBoroughName": "BROOKLYN",
	"Longitude": -73.95971,
	"Latitude": 40.64769
 },
 {
	"Item Type Name": "Temporary DOB registered oil fired mobile boiler",
	"JFNPermitNumber": "B00834385-I1-LA",
	"FilingNumber": "I1",
	"Created On Date": "2023/2/23 12:00:00",
	"Work Type Name": "Oil Work",
	"Filing Type Name": "New Job Filing",
	"LocationBIN": "3172747",
	"Address": "1397 EAST    2 STREET",
	"CommunityBoardNumber": "312",
	"LocationBoroughName": "BROOKLYN",
	"Longitude": -73.97287,
	"Latitude": 40.61559
 },
 {
	"Item Type Name": "Temporary DOB registered oil fired mobile boiler",
	"JFNPermitNumber": "B00835451-I1-LA",
	"FilingNumber": "I1",
	"Created On Date": "2023/2/27 12:00:00",
	"Work Type Name": "Oil Work",
	"Filing Type Name": "New Job Filing",
	"LocationBIN": "3063012",
	"Address": "231 SOUTH    2 STREET",
	"CommunityBoardNumber": "301",
	"LocationBoroughName": "BROOKLYN",
	"Longitude": -73.95828,
	"Latitude": 40.71212
 },
 {
	"Item Type Name": "Temporary DOB registered oil fired mobile boiler",
	"JFNPermitNumber": "B00852822-I1-LA",
	"FilingNumber": "I1",
	"Created On Date": "2023/3/30 12:00:00",
	"Work Type Name": "Oil Work",
	"Filing Type Name": "New Job Filing",
	"LocationBIN": "3008506",
	"Address": "120 RICHARDS STREET",
	"CommunityBoardNumber": "306",
	"LocationBoroughName": "BROOKLYN",
	"Longitude": -74.00999,
	"Latitude": 40.67783
 },
 {
	"Item Type Name": "Temporary DOB registered oil fired mobile boiler",
	"JFNPermitNumber": "B00856375-I1-LA",
	"FilingNumber": "I1",
	"Created On Date": "2023/4/6 12:00:00",
	"Work Type Name": "Oil Work",
	"Filing Type Name": "New Job Filing",
	"LocationBIN": "3391534",
	"Address": "171 PROSPECT PLACE",
	"CommunityBoardNumber": "308",
	"LocationBoroughName": "BROOKLYN",
	"Longitude": -73.9709,
	"Latitude": 40.67838
 },
 {
	"Item Type Name": "Temporary DOB registered oil fired mobile boiler",
	"JFNPermitNumber": "B00859880-I1-LA",
	"FilingNumber": "I1",
	"Created On Date": "2023/4/14 12:00:00",
	"Work Type Name": "Oil Work",
	"Filing Type Name": "New Job Filing",
	"LocationBIN": "3426346",
	"Address": "50 BRIDGE PARK DRIVE",
	"CommunityBoardNumber": "302",
	"LocationBoroughName": "BROOKLYN",
	"Longitude": -74.00069,
	"Latitude": 40.69283
 },
 {
	"Item Type Name": "Temporary DOB registered oil fired mobile boiler",
	"JFNPermitNumber": "B00859880-S1-LA",
	"FilingNumber": "S1",
	"Created On Date": "2024/1/8 12:00:00",
	"Work Type Name": "Oil Work",
	"Filing Type Name": "Subsequent Filing",
	"LocationBIN": "3426346",
	"Address": "50 BRIDGE PARK DRIVE",
	"CommunityBoardNumber": "302",
	"LocationBoroughName": "BROOKLYN",
	"Longitude": -74.00069,
	"Latitude": 40.69283
 },
 {
	"Item Type Name": "Temporary DOB registered oil fired mobile boiler",
	"JFNPermitNumber": "B00871479-I1-LA",
	"FilingNumber": "I1",
	"Created On Date": "2023/6/7 12:00:00",
	"Work Type Name": "Oil Work",
	"Filing Type Name": "New Job Filing",
	"LocationBIN": "3338597",
	"Address": "991 MYRTLE AVENUE",
	"CommunityBoardNumber": "303",
	"LocationBoroughName": "BROOKLYN",
	"Longitude": -73.94204,
	"Latitude": 40.69722
 },
 {
	"Item Type Name": "Temporary DOB registered oil fired mobile boiler",
	"JFNPermitNumber": "B00873707-I1-LA",
	"FilingNumber": "I1",
	"Created On Date": "2023/5/11 12:00:00",
	"Work Type Name": "Oil Work",
	"Filing Type Name": "New Job Filing",
	"LocationBIN": "3150481",
	"Address": "7805 7 AVENUE",
	"CommunityBoardNumber": "310",
	"LocationBoroughName": "BROOKLYN",
	"Longitude": -74.01847,
	"Latitude": 40.62373
 },
 {
	"Item Type Name": "Temporary DOB registered oil fired mobile boiler",
	"JFNPermitNumber": "B00881202-I1-LA",
	"FilingNumber": "I1",
	"Created On Date": "2023/5/25 12:00:00",
	"Work Type Name": "Oil Work",
	"Filing Type Name": "New Job Filing",
	"LocationBIN": "3079428",
	"Address": "84 SCHAEFFER STREET",
	"CommunityBoardNumber": "304",
	"LocationBoroughName": "BROOKLYN",
	"Longitude": -73.91042,
	"Latitude": 40.68644
 },
 {
	"Item Type Name": "Temporary DOB registered oil fired mobile boiler",
	"JFNPermitNumber": "B00899064-I1-LA",
	"FilingNumber": "I1",
	"Created On Date": "2023/7/3 12:00:00",
	"Work Type Name": "Oil Work",
	"Filing Type Name": "New Job Filing",
	"LocationBIN": "3116368",
	"Address": "10 WESTMINSTER ROAD",
	"CommunityBoardNumber": "314",
	"LocationBoroughName": "BROOKLYN",
	"Longitude": -73.96901,
	"Latitude": 40.64891
 },
 {
	"Item Type Name": "Temporary DOB registered oil fired mobile boiler",
	"JFNPermitNumber": "B00903009-I1-LA",
	"FilingNumber": "I1",
	"Created On Date": "2023/7/12 12:00:00",
	"Work Type Name": "Oil Work",
	"Filing Type Name": "New Job Filing",
	"LocationBIN": "3037262",
	"Address": "1188 LINCOLN PLACE",
	"CommunityBoardNumber": "308",
	"LocationBoroughName": "BROOKLYN",
	"Longitude": -73.93729,
	"Latitude": 40.6699
 },
 {
	"Item Type Name": "Temporary DOB registered oil fired mobile boiler",
	"JFNPermitNumber": "B00908020-I1-LA",
	"FilingNumber": "I1",
	"Created On Date": "2023/7/21 12:00:00",
	"Work Type Name": "Oil Work",
	"Filing Type Name": "New Job Filing",
	"LocationBIN": "3215705",
	"Address": "1199 EAST   53 STREET",
	"CommunityBoardNumber": "318",
	"LocationBoroughName": "BROOKLYN",
	"Longitude": -73.92457,
	"Latitude": 40.62975
 },
 {
	"Item Type Name": "Temporary DOB registered oil fired mobile boiler",
	"JFNPermitNumber": "B00908032-I1-LA",
	"FilingNumber": "I1",
	"Created On Date": "2023/7/21 12:00:00",
	"Work Type Name": "Oil Work",
	"Filing Type Name": "New Job Filing",
	"LocationBIN": "3215627",
	"Address": "1275 EAST   51 STREET",
	"CommunityBoardNumber": "318",
	"LocationBoroughName": "BROOKLYN",
	"Longitude": -73.92656,
	"Latitude": 40.62981
 },
 {
	"Item Type Name": "Temporary DOB registered oil fired mobile boiler",
	"JFNPermitNumber": "B00909905-I1-LA",
	"FilingNumber": "I1",
	"Created On Date": "2023/7/26 12:00:00",
	"Work Type Name": "Oil Work",
	"Filing Type Name": "New Job Filing",
	"LocationBIN": "3327832",
	"Address": "295 JACKSON STREET",
	"CommunityBoardNumber": "301",
	"LocationBoroughName": "BROOKLYN",
	"Longitude": -73.93845,
	"Latitude": 40.71807
 },
 {
	"Item Type Name": "Temporary DOB registered oil fired mobile boiler",
	"JFNPermitNumber": "B00909986-I1-LA",
	"FilingNumber": "I1",
	"Created On Date": "2023/7/26 12:00:00",
	"Work Type Name": "Oil Work",
	"Filing Type Name": "New Job Filing",
	"LocationBIN": "3327832",
	"Address": "295 JACKSON STREET",
	"CommunityBoardNumber": "301",
	"LocationBoroughName": "BROOKLYN",
	"Longitude": -73.93845,
	"Latitude": 40.71807
 },
 {
	"Item Type Name": "Temporary DOB registered oil fired mobile boiler",
	"JFNPermitNumber": "B00910269-I1-LA",
	"FilingNumber": "I1",
	"Created On Date": "2023/7/26 12:00:00",
	"Work Type Name": "Oil Work",
	"Filing Type Name": "New Job Filing",
	"LocationBIN": "3025343",
	"Address": "575 3 STREET",
	"CommunityBoardNumber": "306",
	"LocationBoroughName": "BROOKLYN",
	"Longitude": -73.97578,
	"Latitude": 40.66944
 },
 {
	"Item Type Name": "Temporary DOB registered oil fired mobile boiler",
	"JFNPermitNumber": "B00915540-I1-LA",
	"FilingNumber": "I1",
	"Created On Date": "2023/8/7 12:00:00",
	"Work Type Name": "Oil Work",
	"Filing Type Name": "New Job Filing",
	"LocationBIN": "3029254",
	"Address": "542 PARK PLACE",
	"CommunityBoardNumber": "308",
	"LocationBoroughName": "BROOKLYN",
	"Longitude": -73.95977,
	"Latitude": 40.67451
 },
 {
	"Item Type Name": "Temporary DOB registered oil fired mobile boiler",
	"JFNPermitNumber": "B00917649-I1-LA",
	"FilingNumber": "I1",
	"Created On Date": "2023/8/10 12:00:00",
	"Work Type Name": "Oil Work",
	"Filing Type Name": "New Job Filing",
	"LocationBIN": "3031037",
	"Address": "850 ST MARKS AVENUE",
	"CommunityBoardNumber": "308",
	"LocationBoroughName": "BROOKLYN",
	"Longitude": -73.94483,
	"Latitude": 40.67461
 },
 {
	"Item Type Name": "Temporary DOB registered oil fired mobile boiler",
	"JFNPermitNumber": "B00918204-I1-LA",
	"FilingNumber": "I1",
	"Created On Date": "2023/8/11 12:00:00",
	"Work Type Name": "Oil Work",
	"Filing Type Name": "New Job Filing",
	"LocationBIN": "3076470",
	"Address": "1478 GATES AVENUE",
	"CommunityBoardNumber": "304",
	"LocationBoroughName": "BROOKLYN",
	"Longitude": -73.91357,
	"Latitude": 40.69779
 },
 {
	"Item Type Name": "Temporary DOB registered oil fired mobile boiler",
	"JFNPermitNumber": "B00919091-I1-LA",
	"FilingNumber": "I1",
	"Created On Date": "2023/8/14 12:00:00",
	"Work Type Name": "Oil Work",
	"Filing Type Name": "New Job Filing",
	"LocationBIN": "3325172",
	"Address": "329 PATCHEN AVENUE",
	"CommunityBoardNumber": "303",
	"LocationBoroughName": "BROOKLYN",
	"Longitude": -73.92386,
	"Latitude": 40.68037
 },
 {
	"Item Type Name": "Temporary DOB registered oil fired mobile boiler",
	"JFNPermitNumber": "B00919111-I1-LA",
	"FilingNumber": "I1",
	"Created On Date": "2023/8/14 12:00:00",
	"Work Type Name": "Oil Work",
	"Filing Type Name": "New Job Filing",
	"LocationBIN": "3325172",
	"Address": "329 PATCHEN AVENUE",
	"CommunityBoardNumber": "303",
	"LocationBoroughName": "BROOKLYN",
	"Longitude": -73.92386,
	"Latitude": 40.68037
 },
 {
	"Item Type Name": "Temporary DOB registered oil fired mobile boiler",
	"JFNPermitNumber": "B00920796-I1-LA",
	"FilingNumber": "I1",
	"Created On Date": "2023/8/17 12:00:00",
	"Work Type Name": "Oil Work",
	"Filing Type Name": "New Job Filing",
	"LocationBIN": "3320892",
	"Address": "950 EAST   14 STREET",
	"CommunityBoardNumber": "314",
	"LocationBoroughName": "BROOKLYN",
	"Longitude": -73.96285,
	"Latitude": 40.62638
 },
 {
	"Item Type Name": "Temporary DOB registered oil fired mobile boiler",
	"JFNPermitNumber": "B00932461-I1-LA",
	"FilingNumber": "I1",
	"Created On Date": "2023/9/12 12:00:00",
	"Work Type Name": "Oil Work",
	"Filing Type Name": "New Job Filing",
	"LocationBIN": "3037628",
	"Address": "1370 EASTERN PARKWAY",
	"CommunityBoardNumber": "308",
	"LocationBoroughName": "BROOKLYN",
	"Longitude": -73.92298,
	"Latitude": 40.6679
 },
 {
	"Item Type Name": "Temporary DOB registered oil fired mobile boiler",
	"JFNPermitNumber": "B00939297-I1-LA",
	"FilingNumber": "I1",
	"Created On Date": "2023/9/25 12:00:00",
	"Work Type Name": "Oil Work",
	"Filing Type Name": "New Job Filing",
	"LocationBIN": "3397349",
	"Address": "602 SURF AVENUE",
	"CommunityBoardNumber": "313",
	"LocationBoroughName": "BROOKLYN",
	"Longitude": -73.9754,
	"Latitude": 40.57435
 },
 {
	"Item Type Name": "Temporary DOB registered oil fired mobile boiler",
	"JFNPermitNumber": "B00945162-I1-LA",
	"FilingNumber": "I1",
	"Created On Date": "2023/10/9 12:00:00",
	"Work Type Name": "Oil Work",
	"Filing Type Name": "New Job Filing",
	"LocationBIN": "3076768",
	"Address": "440 CENTRAL AVENUE",
	"CommunityBoardNumber": "304",
	"LocationBoroughName": "BROOKLYN",
	"Longitude": -73.91609,
	"Latitude": 40.69262
 },
 {
	"Item Type Name": "Temporary DOB registered oil fired mobile boiler",
	"JFNPermitNumber": "B00945172-I1-LA",
	"FilingNumber": "I1",
	"Created On Date": "2023/10/9 12:00:00",
	"Work Type Name": "Oil Work",
	"Filing Type Name": "New Job Filing",
	"LocationBIN": "3045047",
	"Address": "794 MONROE STREET",
	"CommunityBoardNumber": "303",
	"LocationBoroughName": "BROOKLYN",
	"Longitude": -73.92442,
	"Latitude": 40.6881
 },
 {
	"Item Type Name": "Temporary DOB registered oil fired mobile boiler",
	"JFNPermitNumber": "B00945185-I1-LA",
	"FilingNumber": "I1",
	"Created On Date": "2023/10/9 12:00:00",
	"Work Type Name": "Oil Work",
	"Filing Type Name": "New Job Filing",
	"LocationBIN": "3326174",
	"Address": "390 WILSON AVENUE",
	"CommunityBoardNumber": "304",
	"LocationBoroughName": "BROOKLYN",
	"Longitude": -73.91591,
	"Latitude": 40.69397
 },
 {
	"Item Type Name": "Temporary DOB registered oil fired mobile boiler",
	"JFNPermitNumber": "B00948040-I1-LA",
	"FilingNumber": "I1",
	"Created On Date": "2023/10/13 12:00:00",
	"Work Type Name": "Oil Work",
	"Filing Type Name": "New Job Filing",
	"LocationBIN": "3339261",
	"Address": "450 FLATBUSH AVENUE",
	"CommunityBoardNumber": "355",
	"LocationBoroughName": "BROOKLYN",
	"Longitude": -73.96964,
	"Latitude": 40.66138
 },
 {
	"Item Type Name": "Temporary DOB registered oil fired mobile boiler",
	"JFNPermitNumber": "B00950145-I1-LA",
	"FilingNumber": "I1",
	"Created On Date": "2023/10/18 12:00:00",
	"Work Type Name": "Oil Work",
	"Filing Type Name": "New Job Filing",
	"LocationBIN": "3029670",
	"Address": "260 EASTERN PARKWAY",
	"CommunityBoardNumber": "309",
	"LocationBoroughName": "BROOKLYN",
	"Longitude": -73.96082,
	"Latitude": 40.67068
 },
 {
	"Item Type Name": "Temporary DOB registered oil fired mobile boiler",
	"JFNPermitNumber": "B00950907-I1-LA",
	"FilingNumber": "I1",
	"Created On Date": "2023/10/20 12:00:00",
	"Work Type Name": "Oil Work",
	"Filing Type Name": "New Job Filing",
	"LocationBIN": "3034169",
	"Address": "377 MONTGOMERY STREET",
	"CommunityBoardNumber": "309",
	"LocationBoroughName": "BROOKLYN",
	"Longitude": -73.95179,
	"Latitude": 40.66568
 },
 {
	"Item Type Name": "Temporary DOB registered oil fired mobile boiler",
	"JFNPermitNumber": "B00951088-I1-LA",
	"FilingNumber": "I1",
	"Created On Date": "2023/10/20 12:00:00",
	"Work Type Name": "Oil Work",
	"Filing Type Name": "New Job Filing",
	"LocationBIN": "3182893",
	"Address": "1730 EAST   14 STREET",
	"CommunityBoardNumber": "315",
	"LocationBoroughName": "BROOKLYN",
	"Longitude": -73.95923,
	"Latitude": 40.60724
 },
 {
	"Item Type Name": "Temporary DOB registered oil fired mobile boiler",
	"JFNPermitNumber": "B00951199-I1-LA",
	"FilingNumber": "I1",
	"Created On Date": "2023/10/20 12:00:00",
	"Work Type Name": "Oil Work",
	"Filing Type Name": "New Job Filing",
	"LocationBIN": "3325593",
	"Address": "601 PARK AVENUE",
	"CommunityBoardNumber": "303",
	"LocationBoroughName": "BROOKLYN",
	"Longitude": -73.9515,
	"Latitude": 40.69848
 },
 {
	"Item Type Name": "Temporary DOB registered oil fired mobile boiler",
	"JFNPermitNumber": "B00954326-I1-LA",
	"FilingNumber": "I1",
	"Created On Date": "2023/10/26 12:00:00",
	"Work Type Name": "Oil Work",
	"Filing Type Name": "New Job Filing",
	"LocationBIN": "3325659",
	"Address": "140 HIMROD STREET",
	"CommunityBoardNumber": "304",
	"LocationBoroughName": "BROOKLYN",
	"Longitude": -73.92213,
	"Latitude": 40.69728
 },
 {
	"Item Type Name": "Temporary DOB registered oil fired mobile boiler",
	"JFNPermitNumber": "B00959783-I1-LA",
	"FilingNumber": "I1",
	"Created On Date": "2023/11/8 12:00:00",
	"Work Type Name": "Oil Work",
	"Filing Type Name": "New Job Filing",
	"LocationBIN": "3229624",
	"Address": "1106 EAST   95 STREET",
	"CommunityBoardNumber": "318",
	"LocationBoroughName": "BROOKLYN",
	"Longitude": -73.90351,
	"Latitude": 40.64332
 },
 {
	"Item Type Name": "Temporary DOB registered oil fired mobile boiler",
	"JFNPermitNumber": "B00964880-I1-LA",
	"FilingNumber": "I1",
	"Created On Date": "2023/11/17 12:00:00",
	"Work Type Name": "Oil Work",
	"Filing Type Name": "New Job Filing",
	"LocationBIN": "3325593",
	"Address": "601 PARK AVENUE",
	"CommunityBoardNumber": "303",
	"LocationBoroughName": "BROOKLYN",
	"Longitude": -73.9515,
	"Latitude": 40.69848
 },
 {
	"Item Type Name": "Temporary DOB registered oil fired mobile boiler",
	"JFNPermitNumber": "B00980875-I1-LA",
	"FilingNumber": "I1",
	"Created On Date": "2023/12/21 12:00:00",
	"Work Type Name": "Oil Work",
	"Filing Type Name": "New Job Filing",
	"LocationBIN": "3081191",
	"Address": "104 TAPSCOTT STREET",
	"CommunityBoardNumber": "316",
	"LocationBoroughName": "BROOKLYN",
	"Longitude": -73.9206,
	"Latitude": 40.66508
 },
 {
	"Item Type Name": "Temporary DOB registered oil fired mobile boiler",
	"JFNPermitNumber": "B00981455-I1-LA",
	"FilingNumber": "I1",
	"Created On Date": "2023/12/22 12:00:00",
	"Work Type Name": "Oil Work",
	"Filing Type Name": "New Job Filing",
	"LocationBIN": "3031228",
	"Address": "685 NOSTRAND AVENUE",
	"CommunityBoardNumber": "308",
	"LocationBoroughName": "BROOKLYN",
	"Longitude": -73.94975,
	"Latitude": 40.67384
 },
 {
	"Item Type Name": "Temporary DOB registered oil fired mobile boiler",
	"JFNPermitNumber": "B00981686-I1-LA",
	"FilingNumber": "I1",
	"Created On Date": "2023/12/22 12:00:00",
	"Work Type Name": "Oil Work",
	"Filing Type Name": "New Job Filing",
	"LocationBIN": "3036891",
	"Address": "1598 STERLING PLACE",
	"CommunityBoardNumber": "308",
	"LocationBoroughName": "BROOKLYN",
	"Longitude": -73.92595,
	"Latitude": 40.67094
 },
 {
	"Item Type Name": "Temporary DOB registered oil fired mobile boiler",
	"JFNPermitNumber": "B00984960-I1-LA",
	"FilingNumber": "I1",
	"Created On Date": "2024/1/3 12:00:00",
	"Work Type Name": "Oil Work",
	"Filing Type Name": "New Job Filing",
	"LocationBIN": "3106612",
	"Address": "728 EAST NEW YORK AVENUE",
	"CommunityBoardNumber": "309",
	"LocationBoroughName": "BROOKLYN",
	"Longitude": -73.93837,
	"Latitude": 40.66199
 },
 {
	"Item Type Name": "Temporary DOB registered oil fired mobile boiler",
	"JFNPermitNumber": "B00986855-I1-LA",
	"FilingNumber": "I1",
	"Created On Date": "2024/1/8 12:00:00",
	"Work Type Name": "Oil Work",
	"Filing Type Name": "New Job Filing",
	"LocationBIN": "3099358",
	"Address": "110 EAST   92 STREET",
	"CommunityBoardNumber": "317",
	"LocationBoroughName": "BROOKLYN",
	"Longitude": -73.92817,
	"Latitude": 40.66187
 },
 {
	"Item Type Name": "Temporary DOB registered oil fired mobile boiler",
	"JFNPermitNumber": "B00987788-I1-LA",
	"FilingNumber": "I1",
	"Created On Date": "2024/1/9 12:00:00",
	"Work Type Name": "Oil Work",
	"Filing Type Name": "New Job Filing",
	"LocationBIN": "3081227",
	"Address": "41 BLAKE AVENUE",
	"CommunityBoardNumber": "316",
	"LocationBoroughName": "BROOKLYN",
	"Longitude": -73.91882,
	"Latitude": 40.66445
 },
 {
	"Item Type Name": "Temporary DOB registered oil fired mobile boiler",
	"JFNPermitNumber": "B00987819-I1-LA",
	"FilingNumber": "I1",
	"Created On Date": "2024/1/9 12:00:00",
	"Work Type Name": "Oil Work",
	"Filing Type Name": "New Job Filing",
	"LocationBIN": "3000080",
	"Address": "11 FRONT STREET",
	"CommunityBoardNumber": "302",
	"LocationBoroughName": "BROOKLYN",
	"Longitude": -73.99304,
	"Latitude": 40.70301
 },
 {
	"Item Type Name": "Temporary DOB registered oil fired mobile boiler",
	"JFNPermitNumber": "B00988620-I1-LA",
	"FilingNumber": "I1",
	"Created On Date": "2024/1/10 12:00:00",
	"Work Type Name": "Oil Work",
	"Filing Type Name": "New Job Filing",
	"LocationBIN": "3424875",
	"Address": "1761 STERLING PLACE",
	"CommunityBoardNumber": "316",
	"LocationBoroughName": "BROOKLYN",
	"Longitude": -73.92033,
	"Latitude": 40.67117
 },
 {
	"Item Type Name": "Temporary DOB registered oil fired mobile boiler",
	"JFNPermitNumber": "B00991233-I1-LA",
	"FilingNumber": "I1",
	"Created On Date": "2024/1/16 12:00:00",
	"Work Type Name": "Oil Work",
	"Filing Type Name": "New Job Filing",
	"LocationBIN": "3103061",
	"Address": "192 EAST   56 STREET",
	"CommunityBoardNumber": "317",
	"LocationBoroughName": "BROOKLYN",
	"Longitude": -73.9249,
	"Latitude": 40.65212
 },
 {
	"Item Type Name": "Temporary DOB registered oil fired mobile boiler",
	"JFNPermitNumber": "B00991583-I1-LA",
	"FilingNumber": "I1",
	"Created On Date": "2024/1/17 12:00:00",
	"Work Type Name": "Oil Work",
	"Filing Type Name": "New Job Filing",
	"LocationBIN": "3030690",
	"Address": "641 ST MARKS AVENUE",
	"CommunityBoardNumber": "308",
	"LocationBoroughName": "BROOKLYN",
	"Longitude": -73.95197,
	"Latitude": 40.67558
 },
 {
	"Item Type Name": "Temporary DOB registered oil fired mobile boiler",
	"JFNPermitNumber": "B01005678-I1-LA",
	"FilingNumber": "I1",
	"Created On Date": "2024/2/14 12:00:00",
	"Work Type Name": "Oil Work",
	"Filing Type Name": "New Job Filing",
	"LocationBIN": "3229460",
	"Address": "650 EAST  104 STREET",
	"CommunityBoardNumber": "318",
	"LocationBoroughName": "BROOKLYN",
	"Longitude": -73.89798,
	"Latitude": 40.64896
 },
 {
	"Item Type Name": "Temporary DOB registered oil fired mobile boiler",
	"JFNPermitNumber": "B01006002-I1-LA",
	"FilingNumber": "I1",
	"Created On Date": "2024/2/15 12:00:00",
	"Work Type Name": "Oil Work",
	"Filing Type Name": "New Job Filing",
	"LocationBIN": "3154775",
	"Address": "9115 5 AVENUE",
	"CommunityBoardNumber": "310",
	"LocationBoroughName": "BROOKLYN",
	"Longitude": -74.0285,
	"Latitude": 40.61808
 },
 {
	"Item Type Name": "Temporary DOB registered oil fired mobile boiler",
	"JFNPermitNumber": "B01007948-I1-LA",
	"FilingNumber": "I1",
	"Created On Date": "2024/2/20 12:00:00",
	"Work Type Name": "Oil Work",
	"Filing Type Name": "New Job Filing",
	"LocationBIN": "3048478",
	"Address": "89 WALWORTH STREET",
	"CommunityBoardNumber": "303",
	"LocationBoroughName": "BROOKLYN",
	"Longitude": -73.95432,
	"Latitude": 40.6962
 },
 {
	"Item Type Name": "Temporary DOB registered oil fired mobile boiler",
	"JFNPermitNumber": "B01031938-I1-LA",
	"FilingNumber": "I1",
	"Created On Date": "2024/4/8 12:00:00",
	"Work Type Name": "Oil Work",
	"Filing Type Name": "New Job Filing",
	"LocationBIN": "3024968",
	"Address": "27 PROSPECT PARK WEST",
	"CommunityBoardNumber": "306",
	"LocationBoroughName": "BROOKLYN",
	"Longitude": -73.97198,
	"Latitude": 40.67089
 },
 {
	"Item Type Name": "Temporary DOB registered oil fired mobile boiler",
	"JFNPermitNumber": "B01045501-I1-LA",
	"FilingNumber": "I1",
	"Created On Date": "2024/5/2 12:00:00",
	"Work Type Name": "Oil Work",
	"Filing Type Name": "New Job Filing",
	"LocationBIN": "3131855",
	"Address": "1847 60 STREET",
	"CommunityBoardNumber": "312",
	"LocationBoroughName": "BROOKLYN",
	"Longitude": -73.98579,
	"Latitude": 40.62145
 },
 {
	"Item Type Name": "Temporary DOB registered oil fired mobile boiler",
	"JFNPermitNumber": "B01053609-I1-LA",
	"FilingNumber": "I1",
	"Created On Date": "2024/5/20 12:00:00",
	"Work Type Name": "Oil Work",
	"Filing Type Name": "New Job Filing",
	"LocationBIN": "3331441",
	"Address": "9820 SEAVIEW AVENUE",
	"CommunityBoardNumber": "318",
	"LocationBoroughName": "BROOKLYN",
	"Longitude": -73.88597,
	"Latitude": 40.63334
 },
 {
	"Item Type Name": "Temporary DOB registered oil fired mobile boiler",
	"JFNPermitNumber": "B01059177-I1-LA",
	"FilingNumber": "I1",
	"Created On Date": "2024/5/30 12:00:00",
	"Work Type Name": "Oil Work",
	"Filing Type Name": "New Job Filing",
	"LocationBIN": "3331441",
	"Address": "9820 SEAVIEW AVENUE",
	"CommunityBoardNumber": "318",
	"LocationBoroughName": "BROOKLYN",
	"Longitude": -73.88597,
	"Latitude": 40.63334
 },
 {
	"Item Type Name": "Temporary DOB registered oil fired mobile boiler",
	"JFNPermitNumber": "B01059215-I1-LA",
	"FilingNumber": "I1",
	"Created On Date": "2024/5/30 12:00:00",
	"Work Type Name": "Oil Work",
	"Filing Type Name": "New Job Filing",
	"LocationBIN": "3331441",
	"Address": "9820 SEAVIEW AVENUE",
	"CommunityBoardNumber": "318",
	"LocationBoroughName": "BROOKLYN",
	"Longitude": -73.88597,
	"Latitude": 40.63334
 },
 {
	"Item Type Name": "Temporary DOB registered oil fired mobile boiler",
	"JFNPermitNumber": "B01060203-I1-LA",
	"FilingNumber": "I1",
	"Created On Date": "2024/6/3 12:00:00",
	"Work Type Name": "Oil Work",
	"Filing Type Name": "New Job Filing",
	"LocationBIN": "3056061",
	"Address": "415 WASHINGTON AVENUE",
	"CommunityBoardNumber": "302",
	"LocationBoroughName": "BROOKLYN",
	"Longitude": -73.96503,
	"Latitude": 40.68605
 },
 {
	"Item Type Name": "Temporary DOB registered oil fired mobile boiler",
	"JFNPermitNumber": "B01061597-I1-LA",
	"FilingNumber": "I1",
	"Created On Date": "2024/6/5 12:00:00",
	"Work Type Name": "Oil Work",
	"Filing Type Name": "New Job Filing",
	"LocationBIN": "3325593",
	"Address": "601 PARK AVENUE",
	"CommunityBoardNumber": "303",
	"LocationBoroughName": "BROOKLYN",
	"Longitude": -73.9515,
	"Latitude": 40.69848
 },
 {
	"Item Type Name": "Temporary DOB registered oil fired mobile boiler",
	"JFNPermitNumber": "B01062646-I1-LA",
	"FilingNumber": "I1",
	"Created On Date": "2024/6/6 12:00:00",
	"Work Type Name": "Oil Work",
	"Filing Type Name": "New Job Filing",
	"LocationBIN": "3325593",
	"Address": "601 PARK AVENUE",
	"CommunityBoardNumber": "303",
	"LocationBoroughName": "BROOKLYN",
	"Longitude": -73.9515,
	"Latitude": 40.69848
 },
 {
	"Item Type Name": "Temporary DOB registered oil fired mobile boiler",
	"JFNPermitNumber": "B01066548-I1-LA",
	"FilingNumber": "I1",
	"Created On Date": "2024/6/13 12:00:00",
	"Work Type Name": "Oil Work",
	"Filing Type Name": "New Job Filing",
	"LocationBIN": "3325919",
	"Address": "234 SAND STREET",
	"CommunityBoardNumber": "302",
	"LocationBoroughName": "BROOKLYN",
	"Longitude": -73.9817,
	"Latitude": 40.69903
 },
 {
	"Item Type Name": "Temporary DOB registered oil fired mobile boiler",
	"JFNPermitNumber": "B08006576-I1-LA",
	"FilingNumber": "I1",
	"Created On Date": "2022/9/20 12:00:00",
	"Work Type Name": "Oil Work",
	"Filing Type Name": "New Job Filing",
	"LocationBIN": "3326174",
	"Address": "390 WILSON AVENUE",
	"CommunityBoardNumber": "304",
	"LocationBoroughName": "BROOKLYN",
	"Longitude": -73.91591,
	"Latitude": 40.69397
 },
 {
	"Item Type Name": "Temporary DOB registered oil fired mobile boiler",
	"JFNPermitNumber": "B08006577-I1-LA",
	"FilingNumber": "I1",
	"Created On Date": "2022/9/20 12:00:00",
	"Work Type Name": "Oil Work",
	"Filing Type Name": "New Job Filing",
	"LocationBIN": "3326173",
	"Address": "210 PALMETTO STREET",
	"CommunityBoardNumber": "304",
	"LocationBoroughName": "BROOKLYN",
	"Longitude": -73.91591,
	"Latitude": 40.69397
 },
 {
	"Item Type Name": "Temporary DOB registered oil fired mobile boiler",
	"JFNPermitNumber": "B08006794-I1-LA",
	"FilingNumber": "I1",
	"Created On Date": "2022/9/20 12:00:00",
	"Work Type Name": "Oil Work",
	"Filing Type Name": "New Job Filing",
	"LocationBIN": "3076768",
	"Address": "440 CENTRAL AVENUE",
	"CommunityBoardNumber": "304",
	"LocationBoroughName": "BROOKLYN",
	"Longitude": -73.91609,
	"Latitude": 40.69262
 },
 {
	"Item Type Name": "Temporary DOB registered oil fired mobile boiler",
	"JFNPermitNumber": "B08006857-I1-LA",
	"FilingNumber": "I1",
	"Created On Date": "2022/9/20 12:00:00",
	"Work Type Name": "Oil Work",
	"Filing Type Name": "New Job Filing",
	"LocationBIN": "3338492",
	"Address": "339 WILSON AVENUE",
	"CommunityBoardNumber": "304",
	"LocationBoroughName": "BROOKLYN",
	"Longitude": -73.91669,
	"Latitude": 40.69679
 },
 {
	"Item Type Name": "Temporary DOB registered oil fired mobile boiler",
	"JFNPermitNumber": "B08006959-I1-LA",
	"FilingNumber": "I1",
	"Created On Date": "2022/9/20 12:00:00",
	"Work Type Name": "Oil Work",
	"Filing Type Name": "New Job Filing",
	"LocationBIN": "3338493",
	"Address": "357 WILSON AVENUE",
	"CommunityBoardNumber": "304",
	"LocationBoroughName": "BROOKLYN",
	"Longitude": -73.91598,
	"Latitude": 40.6963
 },
 {
	"Item Type Name": "Temporary DOB registered oil fired mobile boiler",
	"JFNPermitNumber": "B08015985-I1-LA",
	"FilingNumber": "I1",
	"Created On Date": "2022/10/5 12:00:00",
	"Work Type Name": "Oil Work",
	"Filing Type Name": "New Job Filing",
	"LocationBIN": "3063128",
	"Address": "183 SOUTH    3 STREET",
	"CommunityBoardNumber": "301",
	"LocationBoroughName": "BROOKLYN",
	"Longitude": -73.96013,
	"Latitude": 40.71192
 },
 {
	"Item Type Name": "Temporary DOB registered oil fired mobile boiler",
	"JFNPermitNumber": "B08016137-I1-LA",
	"FilingNumber": "I1",
	"Created On Date": "2022/10/5 12:00:00",
	"Work Type Name": "Oil Work",
	"Filing Type Name": "New Job Filing",
	"LocationBIN": "3152318",
	"Address": "8301 SHORE ROAD",
	"CommunityBoardNumber": "310",
	"LocationBoroughName": "BROOKLYN",
	"Longitude": -74.03808,
	"Latitude": 40.62681
 },
 {
	"Item Type Name": "Temporary DOB registered oil fired mobile boiler",
	"JFNPermitNumber": "B08018030-I1-LA",
	"FilingNumber": "I1",
	"Created On Date": "2022/10/9 12:00:00",
	"Work Type Name": "Oil Work",
	"Filing Type Name": "New Job Filing",
	"LocationBIN": "3119523",
	"Address": "2107 DITMAS AVENUE",
	"CommunityBoardNumber": "314",
	"LocationBoroughName": "BROOKLYN",
	"Longitude": -73.95763,
	"Latitude": 40.64024
 },
 {
	"Item Type Name": "Temporary DOB registered oil fired mobile boiler",
	"JFNPermitNumber": "B08019199-I1-LA",
	"FilingNumber": "I1",
	"Created On Date": "2022/10/11 12:00:00",
	"Work Type Name": "Oil Work",
	"Filing Type Name": "New Job Filing",
	"LocationBIN": "3025486",
	"Address": "636 3 STREET",
	"CommunityBoardNumber": "306",
	"LocationBoroughName": "BROOKLYN",
	"Longitude": -73.97427,
	"Latitude": 40.66816
 },
 {
	"Item Type Name": "Temporary DOB registered oil fired mobile boiler",
	"JFNPermitNumber": "B08024482-I1-LA",
	"FilingNumber": "I1",
	"Created On Date": "2022/10/20 12:00:00",
	"Work Type Name": "Oil Work",
	"Filing Type Name": "New Job Filing",
	"LocationBIN": "3246887",
	"Address": "1516 ORIENTAL BOULEVARD",
	"CommunityBoardNumber": "315",
	"LocationBoroughName": "BROOKLYN",
	"Longitude": -73.93831,
	"Latitude": 40.57619
 },
 {
	"Item Type Name": "Temporary DOB registered oil fired mobile boiler",
	"JFNPermitNumber": "B08028626-I1-LA",
	"FilingNumber": "I1",
	"Created On Date": "2022/10/26 12:00:00",
	"Work Type Name": "Oil Work",
	"Filing Type Name": "New Job Filing",
	"LocationBIN": "3196929",
	"Address": "1970 EAST   18 STREET",
	"CommunityBoardNumber": "315",
	"LocationBoroughName": "BROOKLYN",
	"Longitude": -73.9544,
	"Latitude": 40.6021
 },
 {
	"Item Type Name": "Temporary DOB registered oil fired mobile boiler",
	"JFNPermitNumber": "B08033224-I1-LA",
	"FilingNumber": "I1",
	"Created On Date": "2022/11/2 12:00:00",
	"Work Type Name": "Oil Work",
	"Filing Type Name": "New Job Filing",
	"LocationBIN": "3327301",
	"Address": "2915 CLARENDON ROAD",
	"CommunityBoardNumber": "317",
	"LocationBoroughName": "BROOKLYN",
	"Longitude": -73.94907,
	"Latitude": 40.64346
 },
 {
	"Item Type Name": "Temporary DOB registered oil fired mobile boiler",
	"JFNPermitNumber": "B08033959-I1-LA",
	"FilingNumber": "I1",
	"Created On Date": "2022/11/3 12:00:00",
	"Work Type Name": "Oil Work",
	"Filing Type Name": "New Job Filing",
	"LocationBIN": "3422980",
	"Address": "362 MASPETH AVENUE",
	"CommunityBoardNumber": "301",
	"LocationBoroughName": "BROOKLYN",
	"Longitude": -73.92934,
	"Latitude": 40.71797
 },
 {
	"Item Type Name": "Temporary DOB registered oil fired mobile boiler",
	"JFNPermitNumber": "B08036007-I1-LA",
	"FilingNumber": "I1",
	"Created On Date": "2022/11/7 12:00:00",
	"Work Type Name": "Oil Work",
	"Filing Type Name": "New Job Filing",
	"LocationBIN": "3326830",
	"Address": "5100 AVENUE U",
	"CommunityBoardNumber": "318",
	"LocationBoroughName": "BROOKLYN",
	"Longitude": -73.91952,
	"Latitude": 40.60972
 },
 {
	"Item Type Name": "Temporary DOB registered oil fired mobile boiler",
	"JFNPermitNumber": "B08038551-I1-LA",
	"FilingNumber": "I1",
	"Created On Date": "2022/11/11 12:00:00",
	"Work Type Name": "Oil Work",
	"Filing Type Name": "New Job Filing",
	"LocationBIN": "3070575",
	"Address": "185 RANDOLPH STREET",
	"CommunityBoardNumber": "301",
	"LocationBoroughName": "BROOKLYN",
	"Longitude": -73.92547,
	"Latitude": 40.71006
 },
 {
	"Item Type Name": "Temporary DOB registered oil fired mobile boiler",
	"JFNPermitNumber": "B08043307-I1-LA",
	"FilingNumber": "I1",
	"Created On Date": "2022/11/21 12:00:00",
	"Work Type Name": "Oil Work",
	"Filing Type Name": "New Job Filing",
	"LocationBIN": "3029701",
	"Address": "991 PRESIDENT STREET",
	"CommunityBoardNumber": "309",
	"LocationBoroughName": "BROOKLYN",
	"Longitude": -73.95934,
	"Latitude": 40.66933
 },
 {
	"Item Type Name": "Temporary DOB registered oil fired mobile boiler",
	"JFNPermitNumber": "B08043464-I1-LA",
	"FilingNumber": "I1",
	"Created On Date": "2022/11/21 12:00:00",
	"Work Type Name": "Oil Work",
	"Filing Type Name": "New Job Filing",
	"LocationBIN": "3020278",
	"Address": "233 5 AVENUE",
	"CommunityBoardNumber": "306",
	"LocationBoroughName": "BROOKLYN",
	"Longitude": -73.9809,
	"Latitude": 40.67533
 },
 {
	"Item Type Name": "Temporary DOB registered oil fired mobile boiler",
	"JFNPermitNumber": "B08043956-I1-LA",
	"FilingNumber": "I1",
	"Created On Date": "2022/11/22 12:00:00",
	"Work Type Name": "Oil Work",
	"Filing Type Name": "New Job Filing",
	"LocationBIN": "3014545",
	"Address": "5422 4 AVENUE",
	"CommunityBoardNumber": "307",
	"LocationBoroughName": "BROOKLYN",
	"Longitude": -74.01567,
	"Latitude": 40.64396
 },
 {
	"Item Type Name": "Temporary DOB registered oil fired mobile boiler",
	"JFNPermitNumber": "B08044623-I1-LA",
	"FilingNumber": "I1",
	"Created On Date": "2022/11/23 12:00:00",
	"Work Type Name": "Oil Work",
	"Filing Type Name": "New Job Filing",
	"LocationBIN": "3392234",
	"Address": "358 GROVE STREET",
	"CommunityBoardNumber": "304",
	"LocationBoroughName": "BROOKLYN",
	"Longitude": -73.9138,
	"Latitude": 40.69994
 },
 {
	"Item Type Name": "Temporary DOB registered oil fired mobile boiler",
	"JFNPermitNumber": "B08045815-I1-LA",
	"FilingNumber": "I1",
	"Created On Date": "2022/11/28 12:00:00",
	"Work Type Name": "Oil Work",
	"Filing Type Name": "New Job Filing",
	"LocationBIN": "3331325",
	"Address": "94 ROSS STREET",
	"CommunityBoardNumber": "301",
	"LocationBoroughName": "BROOKLYN",
	"Longitude": -73.96223,
	"Latitude": 40.70317
 },
 {
	"Item Type Name": "Temporary DOB registered oil fired mobile boiler",
	"JFNPermitNumber": "M00626302-S1-LA",
	"FilingNumber": "S1",
	"Created On Date": "2022/3/17 12:00:00",
	"Work Type Name": "Oil Work",
	"Filing Type Name": "Subsequent Filing",
	"LocationBIN": "1015049",
	"Address": "114 WEST   27 STREET",
	"CommunityBoardNumber": "105",
	"LocationBoroughName": "MANHATTAN",
	"Longitude": -73.99197,
	"Latitude": 40.7456
 },
 {
	"Item Type Name": "Temporary DOB registered oil fired mobile boiler",
	"JFNPermitNumber": "M00656996-I1-LA",
	"FilingNumber": "I1",
	"Created On Date": "2022/1/5 12:00:00",
	"Work Type Name": "Oil Work",
	"Filing Type Name": "New Job Filing",
	"LocationBIN": "1058450",
	"Address": "204 WEST  120 STREET",
	"CommunityBoardNumber": "110",
	"LocationBoroughName": "MANHATTAN",
	"Longitude": -73.95141,
	"Latitude": 40.80585
 },
 {
	"Item Type Name": "Temporary DOB registered oil fired mobile boiler",
	"JFNPermitNumber": "M00657269-I1-LA",
	"FilingNumber": "I1",
	"Created On Date": "2022/1/5 12:00:00",
	"Work Type Name": "Oil Work",
	"Filing Type Name": "New Job Filing",
	"LocationBIN": "1060452",
	"Address": "219 WEST  144 STREET",
	"CommunityBoardNumber": "110",
	"LocationBoroughName": "MANHATTAN",
	"Longitude": -73.94053,
	"Latitude": 40.82161
 },
 {
	"Item Type Name": "Temporary DOB registered oil fired mobile boiler",
	"JFNPermitNumber": "M00657965-I1-LA",
	"FilingNumber": "I1",
	"Created On Date": "2022/1/6 12:00:00",
	"Work Type Name": "Oil Work",
	"Filing Type Name": "New Job Filing",
	"LocationBIN": "1063891",
	"Address": "566 WEST  191 STREET",
	"CommunityBoardNumber": "112",
	"LocationBoroughName": "MANHATTAN",
	"Longitude": -73.9286,
	"Latitude": 40.85506
 },
 {
	"Item Type Name": "Temporary DOB registered oil fired mobile boiler",
	"JFNPermitNumber": "M00660658-I1-LA",
	"FilingNumber": "I1",
	"Created On Date": "2022/1/11 12:00:00",
	"Work Type Name": "Oil Work",
	"Filing Type Name": "New Job Filing",
	"LocationBIN": "1044235",
	"Address": "355 EAST   61 STREET",
	"CommunityBoardNumber": "108",
	"LocationBoroughName": "MANHATTAN",
	"Longitude": -73.96124,
	"Latitude": 40.76106
 },
 {
	"Item Type Name": "Temporary DOB registered oil fired mobile boiler",
	"JFNPermitNumber": "M00661535-I1-LA",
	"FilingNumber": "I1",
	"Created On Date": "2022/1/12 12:00:00",
	"Work Type Name": "Oil Work",
	"Filing Type Name": "New Job Filing",
	"LocationBIN": "1063448",
	"Address": "4 SOUTH PINEHURST AVENUE",
	"CommunityBoardNumber": "112",
	"LocationBoroughName": "MANHATTAN",
	"Longitude": -73.94085,
	"Latitude": 40.84789
 },
 {
	"Item Type Name": "Temporary DOB registered oil fired mobile boiler",
	"JFNPermitNumber": "M00662125-I1-LA",
	"FilingNumber": "I1",
	"Created On Date": "2022/1/13 12:00:00",
	"Work Type Name": "Oil Work",
	"Filing Type Name": "New Job Filing",
	"LocationBIN": "1059944",
	"Address": "634 WEST  135 STREET",
	"CommunityBoardNumber": "109",
	"LocationBoroughName": "MANHATTAN",
	"Longitude": -73.9575,
	"Latitude": 40.82071
 },
 {
	"Item Type Name": "Temporary DOB registered oil fired mobile boiler",
	"JFNPermitNumber": "M00663569-I1-LA",
	"FilingNumber": "I1",
	"Created On Date": "2022/1/17 12:00:00",
	"Work Type Name": "Oil Work",
	"Filing Type Name": "New Job Filing",
	"LocationBIN": "1047486",
	"Address": "1157 LEXINGTON AVENUE",
	"CommunityBoardNumber": "108",
	"LocationBoroughName": "MANHATTAN",
	"Longitude": -73.95824,
	"Latitude": 40.77531
 },
 {
	"Item Type Name": "Temporary DOB registered oil fired mobile boiler",
	"JFNPermitNumber": "M00664761-I1-LA",
	"FilingNumber": "I1",
	"Created On Date": "2022/1/19 12:00:00",
	"Work Type Name": "Oil Work",
	"Filing Type Name": "New Job Filing",
	"LocationBIN": "1091813",
	"Address": "252 EAST 72 STREET",
	"CommunityBoardNumber": "108",
	"LocationBoroughName": "MANHATTAN",
	"Longitude": -73.95879,
	"Latitude": 40.76867
 },
 {
	"Item Type Name": "Temporary DOB registered oil fired mobile boiler",
	"JFNPermitNumber": "M00664886-I1-LA",
	"FilingNumber": "I1",
	"Created On Date": "2022/1/19 12:00:00",
	"Work Type Name": "Oil Work",
	"Filing Type Name": "New Job Filing",
	"LocationBIN": "1055916",
	"Address": "111 WEST  104 STREET",
	"CommunityBoardNumber": "107",
	"LocationBoroughName": "MANHATTAN",
	"Longitude": -73.96442,
	"Latitude": 40.79843
 },
 {
	"Item Type Name": "Temporary DOB registered oil fired mobile boiler",
	"JFNPermitNumber": "M00667166-I1-LA",
	"FilingNumber": "I1",
	"Created On Date": "2022/1/22 12:00:00",
	"Work Type Name": "Oil Work",
	"Filing Type Name": "New Job Filing",
	"LocationBIN": "1059688",
	"Address": "518 WEST  125 STREET",
	"CommunityBoardNumber": "109",
	"LocationBoroughName": "MANHATTAN",
	"Longitude": -73.95705,
	"Latitude": 40.81377
 },
 {
	"Item Type Name": "Temporary DOB registered oil fired mobile boiler",
	"JFNPermitNumber": "M00670002-I1-LA",
	"FilingNumber": "I1",
	"Created On Date": "2022/1/27 12:00:00",
	"Work Type Name": "Oil Work",
	"Filing Type Name": "New Job Filing",
	"LocationBIN": "1017232",
	"Address": "25 EAST   38 STREET",
	"CommunityBoardNumber": "106",
	"LocationBoroughName": "MANHATTAN",
	"Longitude": -73.98045,
	"Latitude": 40.75024
 },
 {
	"Item Type Name": "Temporary DOB registered oil fired mobile boiler",
	"JFNPermitNumber": "M00671495-I1-LA",
	"FilingNumber": "I1",
	"Created On Date": "2022/1/31 12:00:00",
	"Work Type Name": "Oil Work",
	"Filing Type Name": "New Job Filing",
	"LocationBIN": "1020211",
	"Address": "553 3 AVENUE",
	"CommunityBoardNumber": "106",
	"LocationBoroughName": "MANHATTAN",
	"Longitude": -73.97661,
	"Latitude": 40.74725
 },
 {
	"Item Type Name": "Temporary DOB registered oil fired mobile boiler",
	"JFNPermitNumber": "M00674261-I1-LA",
	"FilingNumber": "I1",
	"Created On Date": "2022/2/3 12:00:00",
	"Work Type Name": "Oil Work",
	"Filing Type Name": "New Job Filing",
	"LocationBIN": "1078032",
	"Address": "70 BARUCH DRIVE",
	"CommunityBoardNumber": "103",
	"LocationBoroughName": "MANHATTAN",
	"Longitude": -73.97781,
	"Latitude": 40.71743
 },
 {
	"Item Type Name": "Temporary DOB registered oil fired mobile boiler",
	"JFNPermitNumber": "M00685556-I1-LA",
	"FilingNumber": "I1",
	"Created On Date": "2022/2/22 12:00:00",
	"Work Type Name": "Oil Work",
	"Filing Type Name": "New Job Filing",
	"LocationBIN": "1015898",
	"Address": "1 WEST   35 STREET",
	"CommunityBoardNumber": "105",
	"LocationBoroughName": "MANHATTAN",
	"Longitude": -73.98428,
	"Latitude": 40.74944
 },
 {
	"Item Type Name": "Temporary DOB registered oil fired mobile boiler",
	"JFNPermitNumber": "M00693373-I1-LA",
	"FilingNumber": "I1",
	"Created On Date": "2022/3/7 12:00:00",
	"Work Type Name": "Oil Work",
	"Filing Type Name": "New Job Filing",
	"LocationBIN": "1080502",
	"Address": "1694 MADISON AVENUE",
	"CommunityBoardNumber": "111",
	"LocationBoroughName": "MANHATTAN",
	"Longitude": -73.94682,
	"Latitude": 40.79869
 },
 {
	"Item Type Name": "Temporary DOB registered oil fired mobile boiler",
	"JFNPermitNumber": "M00694039-I1-LA",
	"FilingNumber": "I1",
	"Created On Date": "2022/3/8 12:00:00",
	"Work Type Name": "Oil Work",
	"Filing Type Name": "New Job Filing",
	"LocationBIN": "1025445",
	"Address": "860 9 AVENUE",
	"CommunityBoardNumber": "104",
	"LocationBoroughName": "MANHATTAN",
	"Longitude": -73.98607,
	"Latitude": 40.76697
 },
 {
	"Item Type Name": "Temporary DOB registered oil fired mobile boiler",
	"JFNPermitNumber": "M00700642-I1-LA",
	"FilingNumber": "I1",
	"Created On Date": "2022/3/17 12:00:00",
	"Work Type Name": "Oil Work",
	"Filing Type Name": "New Job Filing",
	"LocationBIN": "1064066",
	"Address": "11 FORT GEORGE HILL",
	"CommunityBoardNumber": "112",
	"LocationBoroughName": "MANHATTAN",
	"Longitude": -73.92837,
	"Latitude": 40.85774
 },
 {
	"Item Type Name": "Temporary DOB registered oil fired mobile boiler",
	"JFNPermitNumber": "M00704473-I1-LA",
	"FilingNumber": "I1",
	"Created On Date": "2022/3/23 12:00:00",
	"Work Type Name": "Oil Work",
	"Filing Type Name": "New Job Filing",
	"LocationBIN": "1009333",
	"Address": "18 EAST   12 STREET",
	"CommunityBoardNumber": "102",
	"LocationBoroughName": "MANHATTAN",
	"Longitude": -73.99358,
	"Latitude": 40.734
 },
 {
	"Item Type Name": "Temporary DOB registered oil fired mobile boiler",
	"JFNPermitNumber": "M00711068-I1-LA",
	"FilingNumber": "I1",
	"Created On Date": "2022/4/1 12:00:00",
	"Work Type Name": "Oil Work",
	"Filing Type Name": "New Job Filing",
	"LocationBIN": "1028788",
	"Address": "56 WEST   76 STREET",
	"CommunityBoardNumber": "107",
	"LocationBoroughName": "MANHATTAN",
	"Longitude": -73.97655,
	"Latitude": 40.77959
 },
 {
	"Item Type Name": "Temporary DOB registered oil fired mobile boiler",
	"JFNPermitNumber": "M00718316-I1-LA",
	"FilingNumber": "I1",
	"Created On Date": "2022/4/13 12:00:00",
	"Work Type Name": "Oil Work",
	"Filing Type Name": "New Job Filing",
	"LocationBIN": "1018905",
	"Address": "145 EAST   35 STREET",
	"CommunityBoardNumber": "106",
	"LocationBoroughName": "MANHATTAN",
	"Longitude": -73.9784,
	"Latitude": 40.74696
 },
 {
	"Item Type Name": "Temporary DOB registered oil fired mobile boiler",
	"JFNPermitNumber": "M00718690-I1-LA",
	"FilingNumber": "I1",
	"Created On Date": "2022/4/13 12:00:00",
	"Work Type Name": "Oil Work",
	"Filing Type Name": "New Job Filing",
	"LocationBIN": "1008820",
	"Address": "31 WASHINGTON PLACE",
	"CommunityBoardNumber": "102",
	"LocationBoroughName": "MANHATTAN",
	"Longitude": -73.9956,
	"Latitude": 40.73034
 },
 {
	"Item Type Name": "Temporary DOB registered oil fired mobile boiler",
	"JFNPermitNumber": "M00718698-I1-LA",
	"FilingNumber": "I1",
	"Created On Date": "2022/4/13 12:00:00",
	"Work Type Name": "Oil Work",
	"Filing Type Name": "New Job Filing",
	"LocationBIN": "1087825",
	"Address": "100 BLEEKER STREET",
	"CommunityBoardNumber": "102",
	"LocationBoroughName": "MANHATTAN",
	"Longitude": -73.99796,
	"Latitude": 40.7268
 },
 {
	"Item Type Name": "Temporary DOB registered oil fired mobile boiler",
	"JFNPermitNumber": "M00719284-I1-LA",
	"FilingNumber": "I1",
	"Created On Date": "2022/4/14 12:00:00",
	"Work Type Name": "Oil Work",
	"Filing Type Name": "New Job Filing",
	"LocationBIN": "1061766",
	"Address": "503 WEST  140 STREET",
	"CommunityBoardNumber": "109",
	"LocationBoroughName": "MANHATTAN",
	"Longitude": -73.95033,
	"Latitude": 40.82249
 },
 {
	"Item Type Name": "Temporary DOB registered oil fired mobile boiler",
	"JFNPermitNumber": "M00722905-I1-LA",
	"FilingNumber": "I1",
	"Created On Date": "2022/4/20 12:00:00",
	"Work Type Name": "Oil Work",
	"Filing Type Name": "New Job Filing",
	"LocationBIN": "1080105",
	"Address": "5 UNIVERSITY PLACE",
	"CommunityBoardNumber": "102",
	"LocationBoroughName": "MANHATTAN",
	"Longitude": -73.9948,
	"Latitude": 40.73095
 },
 {
	"Item Type Name": "Temporary DOB registered oil fired mobile boiler",
	"JFNPermitNumber": "M00726325-I1-LA",
	"FilingNumber": "I1",
	"Created On Date": "2022/4/26 12:00:00",
	"Work Type Name": "Oil Work",
	"Filing Type Name": "New Job Filing",
	"LocationBIN": "1066869",
	"Address": "240 MERCER STREET",
	"CommunityBoardNumber": "102",
	"LocationBoroughName": "MANHATTAN",
	"Longitude": -73.99545,
	"Latitude": 40.72771
 },
 {
	"Item Type Name": "Temporary DOB registered oil fired mobile boiler",
	"JFNPermitNumber": "M00726333-I1-LA",
	"FilingNumber": "I1",
	"Created On Date": "2022/4/26 12:00:00",
	"Work Type Name": "Oil Work",
	"Filing Type Name": "New Job Filing",
	"LocationBIN": "1008816",
	"Address": "4 WASHINGTON PLACE",
	"CommunityBoardNumber": "102",
	"LocationBoroughName": "MANHATTAN",
	"Longitude": -73.99445,
	"Latitude": 40.72916
 },
 {
	"Item Type Name": "Temporary DOB registered oil fired mobile boiler",
	"JFNPermitNumber": "M00726340-I1-LA",
	"FilingNumber": "I1",
	"Created On Date": "2022/4/26 12:00:00",
	"Work Type Name": "Oil Work",
	"Filing Type Name": "New Job Filing",
	"LocationBIN": "1008701",
	"Address": "110 WEST    3 STREET",
	"CommunityBoardNumber": "102",
	"LocationBoroughName": "MANHATTAN",
	"Longitude": -73.99992,
	"Latitude": 40.73009
 },
 {
	"Item Type Name": "Temporary DOB registered oil fired mobile boiler",
	"JFNPermitNumber": "M00730667-I1-LA",
	"FilingNumber": "I1",
	"Created On Date": "2022/5/3 12:00:00",
	"Work Type Name": "Oil Work",
	"Filing Type Name": "New Job Filing",
	"LocationBIN": "1008828",
	"Address": "15 WASHINGTON PLACE",
	"CommunityBoardNumber": "102",
	"LocationBoroughName": "MANHATTAN",
	"Longitude": -73.99477,
	"Latitude": 40.72978
 },
 {
	"Item Type Name": "Temporary DOB registered oil fired mobile boiler",
	"JFNPermitNumber": "M00730674-I1-LA",
	"FilingNumber": "I1",
	"Created On Date": "2022/5/3 12:00:00",
	"Work Type Name": "Oil Work",
	"Filing Type Name": "New Job Filing",
	"LocationBIN": "1008875",
	"Address": "33 WASHINGTON SQUARE WEST",
	"CommunityBoardNumber": "102",
	"LocationBoroughName": "MANHATTAN",
	"Longitude": -73.99957,
	"Latitude": 40.73158
 },
 {
	"Item Type Name": "Temporary DOB registered oil fired mobile boiler",
	"JFNPermitNumber": "M00731778-I1-LA",
	"FilingNumber": "I1",
	"Created On Date": "2022/5/4 12:00:00",
	"Work Type Name": "Oil Work",
	"Filing Type Name": "New Job Filing",
	"LocationBIN": "1008822",
	"Address": "24 WAVERLY PLACE",
	"CommunityBoardNumber": "102",
	"LocationBoroughName": "MANHATTAN",
	"Longitude": -73.99512,
	"Latitude": 40.73027
 },
 {
	"Item Type Name": "Temporary DOB registered oil fired mobile boiler",
	"JFNPermitNumber": "M00736330-I1-LA",
	"FilingNumber": "I1",
	"Created On Date": "2022/5/11 12:00:00",
	"Work Type Name": "Oil Work",
	"Filing Type Name": "New Job Filing",
	"LocationBIN": "1079987",
	"Address": "160 CABRINI BOULEVARD",
	"CommunityBoardNumber": "112",
	"LocationBoroughName": "MANHATTAN",
	"Longitude": -73.94006,
	"Latitude": 40.8534
 },
 {
	"Item Type Name": "Temporary DOB registered oil fired mobile boiler",
	"JFNPermitNumber": "M00736436-I1-LA",
	"FilingNumber": "I1",
	"Created On Date": "2022/5/11 12:00:00",
	"Work Type Name": "Oil Work",
	"Filing Type Name": "New Job Filing",
	"LocationBIN": "1008241",
	"Address": "505 LAGUARDIA PLACE",
	"CommunityBoardNumber": "102",
	"LocationBoroughName": "MANHATTAN",
	"Longitude": -73.99902,
	"Latitude": 40.72714
 },
 {
	"Item Type Name": "Temporary DOB registered oil fired mobile boiler",
	"JFNPermitNumber": "M00746056-I1-LA",
	"FilingNumber": "I1",
	"Created On Date": "2022/5/25 12:00:00",
	"Work Type Name": "Oil Work",
	"Filing Type Name": "New Job Filing",
	"LocationBIN": "1063381",
	"Address": "216 FORT WASHINGTON AVENUE",
	"CommunityBoardNumber": "112",
	"LocationBoroughName": "MANHATTAN",
	"Longitude": -73.94129,
	"Latitude": 40.84212
 },
 {
	"Item Type Name": "Temporary DOB registered oil fired mobile boiler",
	"JFNPermitNumber": "M00747171-I1-LA",
	"FilingNumber": "I1",
	"Created On Date": "2022/5/27 12:00:00",
	"Work Type Name": "Oil Work",
	"Filing Type Name": "New Job Filing",
	"LocationBIN": "1084148",
	"Address": "2816 FREDRICK DOUGLAS BOULEVARD",
	"CommunityBoardNumber": "110",
	"LocationBoroughName": "MANHATTAN",
	"Longitude": -73.93842,
	"Latitude": 40.82509
 },
 {
	"Item Type Name": "Temporary DOB registered oil fired mobile boiler",
	"JFNPermitNumber": "M00748353-I1-LA",
	"FilingNumber": "I1",
	"Created On Date": "2022/5/31 12:00:00",
	"Work Type Name": "Oil Work",
	"Filing Type Name": "New Job Filing",
	"LocationBIN": "1059862",
	"Address": "188 CLAREMONT AVENUE",
	"CommunityBoardNumber": "109",
	"LocationBoroughName": "MANHATTAN",
	"Longitude": -73.95992,
	"Latitude": 40.81474
 },
 {
	"Item Type Name": "Temporary DOB registered oil fired mobile boiler",
	"JFNPermitNumber": "M00748552-I1-LA",
	"FilingNumber": "I1",
	"Created On Date": "2022/5/31 12:00:00",
	"Work Type Name": "Oil Work",
	"Filing Type Name": "New Job Filing",
	"LocationBIN": "1085132",
	"Address": "37 EAST   65 STREET",
	"CommunityBoardNumber": "108",
	"LocationBoroughName": "MANHATTAN",
	"Longitude": -73.96793,
	"Latitude": 40.76728
 },
 {
	"Item Type Name": "Temporary DOB registered oil fired mobile boiler",
	"JFNPermitNumber": "M00748771-I1-LA",
	"FilingNumber": "I1",
	"Created On Date": "2022/6/1 12:00:00",
	"Work Type Name": "Oil Work",
	"Filing Type Name": "New Job Filing",
	"LocationBIN": "1038771",
	"Address": "321 EAST   45 STREET",
	"CommunityBoardNumber": "106",
	"LocationBoroughName": "MANHATTAN",
	"Longitude": -73.96952,
	"Latitude": 40.75145
 },
 {
	"Item Type Name": "Temporary DOB registered oil fired mobile boiler",
	"JFNPermitNumber": "M00752901-I1-LA",
	"FilingNumber": "I1",
	"Created On Date": "2022/6/7 12:00:00",
	"Work Type Name": "Oil Work",
	"Filing Type Name": "New Job Filing",
	"LocationBIN": "1006758",
	"Address": "11 ST MARKS PLACE",
	"CommunityBoardNumber": "103",
	"LocationBoroughName": "MANHATTAN",
	"Longitude": -73.98901,
	"Latitude": 40.72942
 },
 {
	"Item Type Name": "Temporary DOB registered oil fired mobile boiler",
	"JFNPermitNumber": "M00753738-I1-LA",
	"FilingNumber": "I1",
	"Created On Date": "2022/6/8 12:00:00",
	"Work Type Name": "Oil Work",
	"Filing Type Name": "New Job Filing",
	"LocationBIN": "1013777",
	"Address": "210 WEST   16 STREET",
	"CommunityBoardNumber": "104",
	"LocationBoroughName": "MANHATTAN",
	"Longitude": -73.99947,
	"Latitude": 40.73994
 },
 {
	"Item Type Name": "Temporary DOB registered oil fired mobile boiler",
	"JFNPermitNumber": "M00757348-I1-LA",
	"FilingNumber": "I1",
	"Created On Date": "2022/6/14 12:00:00",
	"Work Type Name": "Oil Work",
	"Filing Type Name": "New Job Filing",
	"LocationBIN": "1007729",
	"Address": "110 THOMPSON STREET",
	"CommunityBoardNumber": "102",
	"LocationBoroughName": "MANHATTAN",
	"Longitude": -74.00169,
	"Latitude": 40.72569
 },
 {
	"Item Type Name": "Temporary DOB registered oil fired mobile boiler",
	"JFNPermitNumber": "M00763752-I1-LA",
	"FilingNumber": "I1",
	"Created On Date": "2022/6/24 12:00:00",
	"Work Type Name": "Oil Work",
	"Filing Type Name": "New Job Filing",
	"LocationBIN": "1007051",
	"Address": "48 MERCER STREET",
	"CommunityBoardNumber": "102",
	"LocationBoroughName": "MANHATTAN",
	"Longitude": -74.00069,
	"Latitude": 40.72152
 },
 {
	"Item Type Name": "Temporary DOB registered oil fired mobile boiler",
	"JFNPermitNumber": "M00764706-I1-LA",
	"FilingNumber": "I1",
	"Created On Date": "2022/6/27 12:00:00",
	"Work Type Name": "Oil Work",
	"Filing Type Name": "New Job Filing",
	"LocationBIN": "1033611",
	"Address": "251 WEST   92 STREET",
	"CommunityBoardNumber": "107",
	"LocationBoroughName": "MANHATTAN",
	"Longitude": -73.97394,
	"Latitude": 40.79247
 },
 {
	"Item Type Name": "Temporary DOB registered oil fired mobile boiler",
	"JFNPermitNumber": "M00767749-I1-LA",
	"FilingNumber": "I1",
	"Created On Date": "2022/6/30 12:00:00",
	"Work Type Name": "Oil Work",
	"Filing Type Name": "New Job Filing",
	"LocationBIN": "1034234",
	"Address": "40 WEST   45 STREET",
	"CommunityBoardNumber": "105",
	"LocationBoroughName": "MANHATTAN",
	"Longitude": -73.98133,
	"Latitude": 40.75594
 },
 {
	"Item Type Name": "Temporary DOB registered oil fired mobile boiler",
	"JFNPermitNumber": "M00777260-I1-LA",
	"FilingNumber": "I1",
	"Created On Date": "2022/7/19 12:00:00",
	"Work Type Name": "Oil Work",
	"Filing Type Name": "New Job Filing",
	"LocationBIN": "1062701",
	"Address": "544 WEST  157 STREET",
	"CommunityBoardNumber": "112",
	"LocationBoroughName": "MANHATTAN",
	"Longitude": -73.94427,
	"Latitude": 40.83356
 },
 {
	"Item Type Name": "Temporary DOB registered oil fired mobile boiler",
	"JFNPermitNumber": "M00778661-I1-LA",
	"FilingNumber": "I1",
	"Created On Date": "2022/7/20 12:00:00",
	"Work Type Name": "Oil Work",
	"Filing Type Name": "New Job Filing",
	"LocationBIN": "1047668",
	"Address": "1001 PARK AVENUE",
	"CommunityBoardNumber": "108",
	"LocationBoroughName": "MANHATTAN",
	"Longitude": -73.95772,
	"Latitude": 40.77892
 },
 {
	"Item Type Name": "Temporary DOB registered oil fired mobile boiler",
	"JFNPermitNumber": "M00780862-I1-LA",
	"FilingNumber": "I1",
	"Created On Date": "2022/7/25 12:00:00",
	"Work Type Name": "Oil Work",
	"Filing Type Name": "New Job Filing",
	"LocationBIN": "1064724",
	"Address": "79 POST AVENUE",
	"CommunityBoardNumber": "112",
	"LocationBoroughName": "MANHATTAN",
	"Longitude": -73.92172,
	"Latitude": 40.86366
 },
 {
	"Item Type Name": "Temporary DOB registered oil fired mobile boiler",
	"JFNPermitNumber": "M00782962-I1-LA",
	"FilingNumber": "I1",
	"Created On Date": "2022/7/28 12:00:00",
	"Work Type Name": "Oil Work",
	"Filing Type Name": "New Job Filing",
	"LocationBIN": "1077587",
	"Address": "675 WATER STREET",
	"CommunityBoardNumber": "103",
	"LocationBoroughName": "MANHATTAN",
	"Longitude": -73.98203,
	"Latitude": 40.71117
 },
 {
	"Item Type Name": "Temporary DOB registered oil fired mobile boiler",
	"JFNPermitNumber": "M00787905-I1-LA",
	"FilingNumber": "I1",
	"Created On Date": "2022/8/4 12:00:00",
	"Work Type Name": "Oil Work",
	"Filing Type Name": "New Job Filing",
	"LocationBIN": "1056611",
	"Address": "229 WEST  105 STREET",
	"CommunityBoardNumber": "107",
	"LocationBoroughName": "MANHATTAN",
	"Longitude": -73.96725,
	"Latitude": 40.80045
 },
 {
	"Item Type Name": "Temporary DOB registered oil fired mobile boiler",
	"JFNPermitNumber": "M00787907-I1-LA",
	"FilingNumber": "I1",
	"Created On Date": "2022/8/4 12:00:00",
	"Work Type Name": "Oil Work",
	"Filing Type Name": "New Job Filing",
	"LocationBIN": "1019945",
	"Address": "200 EAST   30 STREET",
	"CommunityBoardNumber": "106",
	"LocationBoroughName": "MANHATTAN",
	"Longitude": -73.97975,
	"Latitude": 40.74291
 },
 {
	"Item Type Name": "Temporary DOB registered oil fired mobile boiler",
	"JFNPermitNumber": "M00789628-I1-LA",
	"FilingNumber": "I1",
	"Created On Date": "2022/8/8 12:00:00",
	"Work Type Name": "Oil Work",
	"Filing Type Name": "New Job Filing",
	"LocationBIN": "1008875",
	"Address": "33 WASHINGTON SQUARE WEST",
	"CommunityBoardNumber": "102",
	"LocationBoroughName": "MANHATTAN",
	"Longitude": -73.99957,
	"Latitude": 40.73158
 },
 {
	"Item Type Name": "Temporary DOB registered oil fired mobile boiler",
	"JFNPermitNumber": "M00789630-I1-LA",
	"FilingNumber": "I1",
	"Created On Date": "2022/8/8 12:00:00",
	"Work Type Name": "Oil Work",
	"Filing Type Name": "New Job Filing",
	"LocationBIN": "1008701",
	"Address": "110 WEST    3 STREET",
	"CommunityBoardNumber": "102",
	"LocationBoroughName": "MANHATTAN",
	"Longitude": -73.99992,
	"Latitude": 40.73009
 },
 {
	"Item Type Name": "Temporary DOB registered oil fired mobile boiler",
	"JFNPermitNumber": "M00790764-I1-LA",
	"FilingNumber": "I1",
	"Created On Date": "2022/8/10 12:00:00",
	"Work Type Name": "Oil Work",
	"Filing Type Name": "New Job Filing",
	"LocationBIN": "1062597",
	"Address": "596 EDGECOMBE AVENUE",
	"CommunityBoardNumber": "112",
	"LocationBoroughName": "MANHATTAN",
	"Longitude": -73.93777,
	"Latitude": 40.83555
 },
 {
	"Item Type Name": "Temporary DOB registered oil fired mobile boiler",
	"JFNPermitNumber": "M00792618-I1-LA",
	"FilingNumber": "I1",
	"Created On Date": "2022/8/12 12:00:00",
	"Work Type Name": "Oil Work",
	"Filing Type Name": "New Job Filing",
	"LocationBIN": "1028837",
	"Address": "165 WEST   66 STREET",
	"CommunityBoardNumber": "107",
	"LocationBoroughName": "MANHATTAN",
	"Longitude": -73.98376,
	"Latitude": 40.77486
 },
 {
	"Item Type Name": "Temporary DOB registered oil fired mobile boiler",
	"JFNPermitNumber": "M00794830-I1-LA",
	"FilingNumber": "I1",
	"Created On Date": "2022/8/17 12:00:00",
	"Work Type Name": "Oil Work",
	"Filing Type Name": "New Job Filing",
	"LocationBIN": "1048833",
	"Address": "211 EAST   88 STREET",
	"CommunityBoardNumber": "108",
	"LocationBoroughName": "MANHATTAN",
	"Longitude": -73.95211,
	"Latitude": 40.77998
 },
 {
	"Item Type Name": "Temporary DOB registered oil fired mobile boiler",
	"JFNPermitNumber": "M00796550-I1-LA",
	"FilingNumber": "I1",
	"Created On Date": "2022/8/19 12:00:00",
	"Work Type Name": "Oil Work",
	"Filing Type Name": "New Job Filing",
	"LocationBIN": "1062142",
	"Address": "537 WEST  150 STREET",
	"CommunityBoardNumber": "109",
	"LocationBoroughName": "MANHATTAN",
	"Longitude": -73.94673,
	"Latitude": 40.82925
 },
 {
	"Item Type Name": "Temporary DOB registered oil fired mobile boiler",
	"JFNPermitNumber": "M00801814-I1-LA",
	"FilingNumber": "I1",
	"Created On Date": "2022/12/20 12:00:00",
	"Work Type Name": "Oil Work",
	"Filing Type Name": "New Job Filing",
	"LocationBIN": "1014540",
	"Address": "154 WEST   15 STREET",
	"CommunityBoardNumber": "104",
	"LocationBoroughName": "MANHATTAN",
	"Longitude": -73.99867,
	"Latitude": 40.73878
 },
 {
	"Item Type Name": "Temporary DOB registered oil fired mobile boiler",
	"JFNPermitNumber": "M00802914-I1-LA",
	"FilingNumber": "I1",
	"Created On Date": "2022/12/21 12:00:00",
	"Work Type Name": "Oil Work",
	"Filing Type Name": "New Job Filing",
	"LocationBIN": "1061872",
	"Address": "536 WEST  143 STREET",
	"CommunityBoardNumber": "109",
	"LocationBoroughName": "MANHATTAN",
	"Longitude": -73.95093,
	"Latitude": 40.82469
 },
 {
	"Item Type Name": "Temporary DOB registered oil fired mobile boiler",
	"JFNPermitNumber": "M00804071-I1-LA",
	"FilingNumber": "I1",
	"Created On Date": "2022/12/23 12:00:00",
	"Work Type Name": "Oil Work",
	"Filing Type Name": "New Job Filing",
	"LocationBIN": "1009475",
	"Address": "20 WEST   10 STREET",
	"CommunityBoardNumber": "102",
	"LocationBoroughName": "MANHATTAN",
	"Longitude": -73.99683,
	"Latitude": 40.73376
 },
 {
	"Item Type Name": "Temporary DOB registered oil fired mobile boiler",
	"JFNPermitNumber": "M00804090-I1-LA",
	"FilingNumber": "I1",
	"Created On Date": "2022/12/23 12:00:00",
	"Work Type Name": "Oil Work",
	"Filing Type Name": "New Job Filing",
	"LocationBIN": "1009128",
	"Address": "34 EAST   12 STREET",
	"CommunityBoardNumber": "102",
	"LocationBoroughName": "MANHATTAN",
	"Longitude": -73.99266,
	"Latitude": 40.73369
 },
 {
	"Item Type Name": "Temporary DOB registered oil fired mobile boiler",
	"JFNPermitNumber": "M00804393-I1-LA",
	"FilingNumber": "I1",
	"Created On Date": "2022/12/26 12:00:00",
	"Work Type Name": "Oil Work",
	"Filing Type Name": "New Job Filing",
	"LocationBIN": "1082205",
	"Address": "53 WASHINGTON SQUARE SOUTH",
	"CommunityBoardNumber": "102",
	"LocationBoroughName": "MANHATTAN",
	"Longitude": -73.9987,
	"Latitude": 40.73033
 },
 {
	"Item Type Name": "Temporary DOB registered oil fired mobile boiler",
	"JFNPermitNumber": "M00804395-I1-LA",
	"FilingNumber": "I1",
	"Created On Date": "2022/12/26 12:00:00",
	"Work Type Name": "Oil Work",
	"Filing Type Name": "New Job Filing",
	"LocationBIN": "1008716",
	"Address": "40 WASHINGTON SQUARE SOUTH",
	"CommunityBoardNumber": "102",
	"LocationBoroughName": "MANHATTAN",
	"Longitude": -73.99949,
	"Latitude": 40.73055
 },
 {
	"Item Type Name": "Temporary DOB registered oil fired mobile boiler",
	"JFNPermitNumber": "M00804405-I1-LA",
	"FilingNumber": "I1",
	"Created On Date": "2022/12/26 12:00:00",
	"Work Type Name": "Oil Work",
	"Filing Type Name": "New Job Filing",
	"LocationBIN": "1063302",
	"Address": "3815 BROADWAY",
	"CommunityBoardNumber": "112",
	"LocationBoroughName": "MANHATTAN",
	"Longitude": -73.94449,
	"Latitude": 40.83528
 },
 {
	"Item Type Name": "Temporary DOB registered oil fired mobile boiler",
	"JFNPermitNumber": "M00805977-I1-LA",
	"FilingNumber": "I1",
	"Created On Date": "2022/12/30 12:00:00",
	"Work Type Name": "Oil Work",
	"Filing Type Name": "New Job Filing",
	"LocationBIN": "1057495",
	"Address": "102 WEST  119 STREET",
	"CommunityBoardNumber": "110",
	"LocationBoroughName": "MANHATTAN",
	"Longitude": -73.94897,
	"Latitude": 40.804
 },
 {
	"Item Type Name": "Temporary DOB registered oil fired mobile boiler",
	"JFNPermitNumber": "M00806298-I1-LA",
	"FilingNumber": "I1",
	"Created On Date": "2022/12/30 12:00:00",
	"Work Type Name": "Oil Work",
	"Filing Type Name": "New Job Filing",
	"LocationBIN": "1047522",
	"Address": "1414 3 AVENUE",
	"CommunityBoardNumber": "108",
	"LocationBoroughName": "MANHATTAN",
	"Longitude": -73.95694,
	"Latitude": 40.77525
 },
 {
	"Item Type Name": "Temporary DOB registered oil fired mobile boiler",
	"JFNPermitNumber": "M00808843-I1-LA",
	"FilingNumber": "I1",
	"Created On Date": "2023/1/6 12:00:00",
	"Work Type Name": "Oil Work",
	"Filing Type Name": "New Job Filing",
	"LocationBIN": "1008835",
	"Address": "25 WAVERLY PLACE",
	"CommunityBoardNumber": "102",
	"LocationBoroughName": "MANHATTAN",
	"Longitude": -73.99479,
	"Latitude": 40.73059
 },
 {
	"Item Type Name": "Temporary DOB registered oil fired mobile boiler",
	"JFNPermitNumber": "M00811381-I1-LA",
	"FilingNumber": "I1",
	"Created On Date": "2023/1/11 12:00:00",
	"Work Type Name": "Oil Work",
	"Filing Type Name": "New Job Filing",
	"LocationBIN": "1008830",
	"Address": "284 MERCER STREET",
	"CommunityBoardNumber": "102",
	"LocationBoroughName": "MANHATTAN",
	"Longitude": -73.99425,
	"Latitude": 40.7295
 },
 {
	"Item Type Name": "Temporary DOB registered oil fired mobile boiler",
	"JFNPermitNumber": "M00811744-I1-LA",
	"FilingNumber": "I1",
	"Created On Date": "2023/1/12 12:00:00",
	"Work Type Name": "Oil Work",
	"Filing Type Name": "New Job Filing",
	"LocationBIN": "1053503",
	"Address": "17 WEST  125 STREET",
	"CommunityBoardNumber": "110",
	"LocationBoroughName": "MANHATTAN",
	"Longitude": -73.94317,
	"Latitude": 40.80711
 },
 {
	"Item Type Name": "Temporary DOB registered oil fired mobile boiler",
	"JFNPermitNumber": "M00811937-I1-LA",
	"FilingNumber": "I1",
	"Created On Date": "2023/1/12 12:00:00",
	"Work Type Name": "Oil Work",
	"Filing Type Name": "New Job Filing",
	"LocationBIN": "1052579",
	"Address": "239 EAST  116 STREET",
	"CommunityBoardNumber": "111",
	"LocationBoroughName": "MANHATTAN",
	"Longitude": -73.93829,
	"Latitude": 40.79753
 },
 {
	"Item Type Name": "Temporary DOB registered oil fired mobile boiler",
	"JFNPermitNumber": "M00813133-I1-LA",
	"FilingNumber": "I1",
	"Created On Date": "2023/1/16 12:00:00",
	"Work Type Name": "Oil Work",
	"Filing Type Name": "New Job Filing",
	"LocationBIN": "1008820",
	"Address": "31 WASHINGTON PLACE",
	"CommunityBoardNumber": "102",
	"LocationBoroughName": "MANHATTAN",
	"Longitude": -73.9956,
	"Latitude": 40.73034
 },
 {
	"Item Type Name": "Temporary DOB registered oil fired mobile boiler",
	"JFNPermitNumber": "M00813426-I1-LA",
	"FilingNumber": "I1",
	"Created On Date": "2023/1/16 12:00:00",
	"Work Type Name": "Oil Work",
	"Filing Type Name": "New Job Filing",
	"LocationBIN": "1008828",
	"Address": "15 WASHINGTON PLACE",
	"CommunityBoardNumber": "102",
	"LocationBoroughName": "MANHATTAN",
	"Longitude": -73.99477,
	"Latitude": 40.72978
 },
 {
	"Item Type Name": "Temporary DOB registered oil fired mobile boiler",
	"JFNPermitNumber": "M00823137-I1-LA",
	"FilingNumber": "I1",
	"Created On Date": "2023/2/2 12:00:00",
	"Work Type Name": "Oil Work",
	"Filing Type Name": "New Job Filing",
	"LocationBIN": "1019629",
	"Address": "202 EAST   21 STREET",
	"CommunityBoardNumber": "106",
	"LocationBoroughName": "MANHATTAN",
	"Longitude": -73.98377,
	"Latitude": 40.73718
 },
 {
	"Item Type Name": "Temporary DOB registered oil fired mobile boiler",
	"JFNPermitNumber": "M00823340-I1-LA",
	"FilingNumber": "I1",
	"Created On Date": "2023/2/3 12:00:00",
	"Work Type Name": "Oil Work",
	"Filing Type Name": "New Job Filing",
	"LocationBIN": "1054336",
	"Address": "16 EAST  132 STREET",
	"CommunityBoardNumber": "111",
	"LocationBoroughName": "MANHATTAN",
	"Longitude": -73.93812,
	"Latitude": 40.8102
 },
 {
	"Item Type Name": "Temporary DOB registered oil fired mobile boiler",
	"JFNPermitNumber": "M00824224-I1-LA",
	"FilingNumber": "I1",
	"Created On Date": "2023/2/6 12:00:00",
	"Work Type Name": "Oil Work",
	"Filing Type Name": "New Job Filing",
	"LocationBIN": "1030836",
	"Address": "245 WEST   75 STREET",
	"CommunityBoardNumber": "107",
	"LocationBoroughName": "MANHATTAN",
	"Longitude": -73.98219,
	"Latitude": 40.78164
 },
 {
	"Item Type Name": "Temporary DOB registered oil fired mobile boiler",
	"JFNPermitNumber": "M00824567-I1-LA",
	"FilingNumber": "I1",
	"Created On Date": "2023/2/6 12:00:00",
	"Work Type Name": "Oil Work",
	"Filing Type Name": "New Job Filing",
	"LocationBIN": "1056477",
	"Address": "237 WEST  100 STREET",
	"CommunityBoardNumber": "107",
	"LocationBoroughName": "MANHATTAN",
	"Longitude": -73.97048,
	"Latitude": 40.7977
 },
 {
	"Item Type Name": "Temporary DOB registered oil fired mobile boiler",
	"JFNPermitNumber": "M00828705-I1-LA",
	"FilingNumber": "I1",
	"Created On Date": "2023/2/14 12:00:00",
	"Work Type Name": "Oil Work",
	"Filing Type Name": "New Job Filing",
	"LocationBIN": "1022671",
	"Address": "150 WEST   47 STREET",
	"CommunityBoardNumber": "105",
	"LocationBoroughName": "MANHATTAN",
	"Longitude": -73.98383,
	"Latitude": 40.75862
 },
 {
	"Item Type Name": "Temporary DOB registered oil fired mobile boiler",
	"JFNPermitNumber": "M00828967-I1-LA",
	"FilingNumber": "I1",
	"Created On Date": "2023/2/14 12:00:00",
	"Work Type Name": "Oil Work",
	"Filing Type Name": "New Job Filing",
	"LocationBIN": "1008042",
	"Address": "143 SULLIVAN STREET",
	"CommunityBoardNumber": "102",
	"LocationBoroughName": "MANHATTAN",
	"Longitude": -74.00169,
	"Latitude": 40.72692
 },
 {
	"Item Type Name": "Temporary DOB registered oil fired mobile boiler",
	"JFNPermitNumber": "M00831261-I1-LA",
	"FilingNumber": "I1",
	"Created On Date": "2023/2/17 12:00:00",
	"Work Type Name": "Oil Work",
	"Filing Type Name": "New Job Filing",
	"LocationBIN": "1086225",
	"Address": "780 8 AVENUE",
	"CommunityBoardNumber": "105",
	"LocationBoroughName": "MANHATTAN",
	"Longitude": -73.987,
	"Latitude": 40.76051
 },
 {
	"Item Type Name": "Temporary DOB registered oil fired mobile boiler",
	"JFNPermitNumber": "M00831433-I1-LA",
	"FilingNumber": "I1",
	"Created On Date": "2023/2/17 12:00:00",
	"Work Type Name": "Oil Work",
	"Filing Type Name": "New Job Filing",
	"LocationBIN": "1081366",
	"Address": "315 EAST  113 STREET",
	"CommunityBoardNumber": "111",
	"LocationBoroughName": "MANHATTAN",
	"Longitude": -73.93842,
	"Latitude": 40.795
 },
 {
	"Item Type Name": "Temporary DOB registered oil fired mobile boiler",
	"JFNPermitNumber": "M00837717-I1-LA",
	"FilingNumber": "I1",
	"Created On Date": "2023/3/2 12:00:00",
	"Work Type Name": "Oil Work",
	"Filing Type Name": "New Job Filing",
	"LocationBIN": "1062307",
	"Address": "626 RIVERSIDE DRIVE",
	"CommunityBoardNumber": "109",
	"LocationBoroughName": "MANHATTAN",
	"Longitude": -73.95444,
	"Latitude": 40.82355
 },
 {
	"Item Type Name": "Temporary DOB registered oil fired mobile boiler",
	"JFNPermitNumber": "M00837893-I1-LA",
	"FilingNumber": "I1",
	"Created On Date": "2023/3/2 12:00:00",
	"Work Type Name": "Oil Work",
	"Filing Type Name": "New Job Filing",
	"LocationBIN": "1006478",
	"Address": "185 FIRST AVENUE",
	"CommunityBoardNumber": "103",
	"LocationBoroughName": "MANHATTAN",
	"Longitude": -73.98448,
	"Latitude": 40.73
 },
 {
	"Item Type Name": "Temporary DOB registered oil fired mobile boiler",
	"JFNPermitNumber": "M00846095-I1-LA",
	"FilingNumber": "I1",
	"Created On Date": "2023/3/18 12:00:00",
	"Work Type Name": "Oil Work",
	"Filing Type Name": "New Job Filing",
	"LocationBIN": "1060453",
	"Address": "211 WEST  144 STREET",
	"CommunityBoardNumber": "110",
	"LocationBoroughName": "MANHATTAN",
	"Longitude": -73.94034,
	"Latitude": 40.82153
 },
 {
	"Item Type Name": "Temporary DOB registered oil fired mobile boiler",
	"JFNPermitNumber": "M00846948-I1-LA",
	"FilingNumber": "I1",
	"Created On Date": "2023/3/21 12:00:00",
	"Work Type Name": "Oil Work",
	"Filing Type Name": "New Job Filing",
	"LocationBIN": "1063376",
	"Address": "130 FT WASHINGTON AVENUE",
	"CommunityBoardNumber": "112",
	"LocationBoroughName": "MANHATTAN",
	"Longitude": -73.94289,
	"Latitude": 40.83972
 },
 {
	"Item Type Name": "Temporary DOB registered oil fired mobile boiler",
	"JFNPermitNumber": "M00850774-I1-LA",
	"FilingNumber": "I1",
	"Created On Date": "2023/3/27 12:00:00",
	"Work Type Name": "Oil Work",
	"Filing Type Name": "New Job Filing",
	"LocationBIN": "1033742",
	"Address": "433 WEST END AVENUE",
	"CommunityBoardNumber": "107",
	"LocationBoroughName": "MANHATTAN",
	"Longitude": -73.98064,
	"Latitude": 40.78558
 },
 {
	"Item Type Name": "Temporary DOB registered oil fired mobile boiler",
	"JFNPermitNumber": "M00850825-I1-LA",
	"FilingNumber": "I1",
	"Created On Date": "2023/3/28 12:00:00",
	"Work Type Name": "Oil Work",
	"Filing Type Name": "New Job Filing",
	"LocationBIN": "1064472",
	"Address": "801 WEST  190 STREET",
	"CommunityBoardNumber": "112",
	"LocationBoroughName": "MANHATTAN",
	"Longitude": -73.93442,
	"Latitude": 40.85714
 },
 {
	"Item Type Name": "Temporary DOB registered oil fired mobile boiler",
	"JFNPermitNumber": "M00851697-I1-LA",
	"FilingNumber": "I1",
	"Created On Date": "2023/3/29 12:00:00",
	"Work Type Name": "Oil Work",
	"Filing Type Name": "New Job Filing",
	"LocationBIN": "1005908",
	"Address": "278 EAST   10 STREET",
	"CommunityBoardNumber": "103",
	"LocationBoroughName": "MANHATTAN",
	"Longitude": -73.9832,
	"Latitude": 40.72802
 },
 {
	"Item Type Name": "Temporary DOB registered oil fired mobile boiler",
	"JFNPermitNumber": "M00852571-I1-LA",
	"FilingNumber": "I1",
	"Created On Date": "2023/3/30 12:00:00",
	"Work Type Name": "Oil Work",
	"Filing Type Name": "New Job Filing",
	"LocationBIN": "1008977",
	"Address": "111 4 AVENUE",
	"CommunityBoardNumber": "103",
	"LocationBoroughName": "MANHATTAN",
	"Longitude": -73.9897,
	"Latitude": 40.73235
 },
 {
	"Item Type Name": "Temporary DOB registered oil fired mobile boiler",
	"JFNPermitNumber": "M00854031-I1-LA",
	"FilingNumber": "I1",
	"Created On Date": "2023/4/3 12:00:00",
	"Work Type Name": "Oil Work",
	"Filing Type Name": "New Job Filing",
	"LocationBIN": "1028693",
	"Address": "305 COLUMBUS AVENUE",
	"CommunityBoardNumber": "107",
	"LocationBoroughName": "MANHATTAN",
	"Longitude": -73.97733,
	"Latitude": 40.77886
 },
 {
	"Item Type Name": "Temporary DOB registered oil fired mobile boiler",
	"JFNPermitNumber": "M00860947-I1-LA",
	"FilingNumber": "I1",
	"Created On Date": "2023/4/18 12:00:00",
	"Work Type Name": "Oil Work",
	"Filing Type Name": "New Job Filing",
	"LocationBIN": "1087113",
	"Address": "520 WEST   48 STREET",
	"CommunityBoardNumber": "104",
	"LocationBoroughName": "MANHATTAN",
	"Longitude": -73.9941,
	"Latitude": 40.76377
 },
 {
	"Item Type Name": "Temporary DOB registered oil fired mobile boiler",
	"JFNPermitNumber": "M00862163-I1-LA",
	"FilingNumber": "I1",
	"Created On Date": "2023/4/19 12:00:00",
	"Work Type Name": "Oil Work",
	"Filing Type Name": "New Job Filing",
	"LocationBIN": "1076237",
	"Address": "105 WEST   77 STREET",
	"CommunityBoardNumber": "107",
	"LocationBoroughName": "MANHATTAN",
	"Longitude": -73.97673,
	"Latitude": 40.78099
 },
 {
	"Item Type Name": "Temporary DOB registered oil fired mobile boiler",
	"JFNPermitNumber": "M00863880-I1-LA",
	"FilingNumber": "I1",
	"Created On Date": "2023/4/24 12:00:00",
	"Work Type Name": "Oil Work",
	"Filing Type Name": "New Job Filing",
	"LocationBIN": "1072696",
	"Address": "530 EAST   76 STREET",
	"CommunityBoardNumber": "108",
	"LocationBoroughName": "MANHATTAN",
	"Longitude": -73.95009,
	"Latitude": 40.76819
 },
 {
	"Item Type Name": "Temporary DOB registered oil fired mobile boiler",
	"JFNPermitNumber": "M00865598-I1-LA",
	"FilingNumber": "I1",
	"Created On Date": "2023/4/26 12:00:00",
	"Work Type Name": "Oil Work",
	"Filing Type Name": "New Job Filing",
	"LocationBIN": "1081243",
	"Address": "420 EAST   76 STREET",
	"CommunityBoardNumber": "108",
	"LocationBoroughName": "MANHATTAN",
	"Longitude": -73.95299,
	"Latitude": 40.76966
 },
 {
	"Item Type Name": "Temporary DOB registered oil fired mobile boiler",
	"JFNPermitNumber": "M00867105-I1-LA",
	"FilingNumber": "I1",
	"Created On Date": "2023/4/28 12:00:00",
	"Work Type Name": "Oil Work",
	"Filing Type Name": "New Job Filing",
	"LocationBIN": "1079988",
	"Address": "180 CABRINI BOULEVARD",
	"CommunityBoardNumber": "112",
	"LocationBoroughName": "MANHATTAN",
	"Longitude": -73.94006,
	"Latitude": 40.8534
 },
 {
	"Item Type Name": "Temporary DOB registered oil fired mobile boiler",
	"JFNPermitNumber": "M00869825-I1-LA",
	"FilingNumber": "I1",
	"Created On Date": "2023/5/4 12:00:00",
	"Work Type Name": "Oil Work",
	"Filing Type Name": "New Job Filing",
	"LocationBIN": "1051371",
	"Address": "200 EAST END AVENUE",
	"CommunityBoardNumber": "108",
	"LocationBoroughName": "MANHATTAN",
	"Longitude": -73.94353,
	"Latitude": 40.77734
 },
 {
	"Item Type Name": "Temporary DOB registered oil fired mobile boiler",
	"JFNPermitNumber": "M00870294-I1-LA",
	"FilingNumber": "I1",
	"Created On Date": "2023/5/4 12:00:00",
	"Work Type Name": "Oil Work",
	"Filing Type Name": "New Job Filing",
	"LocationBIN": "1074333",
	"Address": "216 EAST  120 STREET",
	"CommunityBoardNumber": "111",
	"LocationBoroughName": "MANHATTAN",
	"Longitude": -73.93716,
	"Latitude": 40.79972
 },
 {
	"Item Type Name": "Temporary DOB registered oil fired mobile boiler",
	"JFNPermitNumber": "M00872716-I1-LA",
	"FilingNumber": "I1",
	"Created On Date": "2023/5/10 12:00:00",
	"Work Type Name": "Oil Work",
	"Filing Type Name": "New Job Filing",
	"LocationBIN": "1019124",
	"Address": "105 EAST   38 STREET",
	"CommunityBoardNumber": "106",
	"LocationBoroughName": "MANHATTAN",
	"Longitude": -73.97872,
	"Latitude": 40.74952
 },
 {
	"Item Type Name": "Temporary DOB registered oil fired mobile boiler",
	"JFNPermitNumber": "M00875690-I1-LA",
	"FilingNumber": "I1",
	"Created On Date": "2023/5/16 12:00:00",
	"Work Type Name": "Oil Work",
	"Filing Type Name": "New Job Filing",
	"LocationBIN": "1062731",
	"Address": "540 WEST  158 STREET",
	"CommunityBoardNumber": "112",
	"LocationBoroughName": "MANHATTAN",
	"Longitude": -73.94353,
	"Latitude": 40.83406
 },
 {
	"Item Type Name": "Temporary DOB registered oil fired mobile boiler",
	"JFNPermitNumber": "M00878989-I1-LA",
	"FilingNumber": "I1",
	"Created On Date": "2023/5/22 12:00:00",
	"Work Type Name": "Oil Work",
	"Filing Type Name": "New Job Filing",
	"LocationBIN": "1078801",
	"Address": "236 EAST   33 STREET",
	"CommunityBoardNumber": "106",
	"LocationBoroughName": "MANHATTAN",
	"Longitude": -73.97736,
	"Latitude": 40.74428
 },
 {
	"Item Type Name": "Temporary DOB registered oil fired mobile boiler",
	"JFNPermitNumber": "M00881260-I1-LA",
	"FilingNumber": "I1",
	"Created On Date": "2023/5/25 12:00:00",
	"Work Type Name": "Oil Work",
	"Filing Type Name": "New Job Filing",
	"LocationBIN": "1030558",
	"Address": "253 WEST   73 STREET",
	"CommunityBoardNumber": "107",
	"LocationBoroughName": "MANHATTAN",
	"Longitude": -73.98296,
	"Latitude": 40.7803
 },
 {
	"Item Type Name": "Temporary DOB registered oil fired mobile boiler",
	"JFNPermitNumber": "M00885602-I1-LA",
	"FilingNumber": "I1",
	"Created On Date": "2023/6/6 12:00:00",
	"Work Type Name": "Oil Work",
	"Filing Type Name": "New Job Filing",
	"LocationBIN": "1030011",
	"Address": "141 WEST   73 STREET",
	"CommunityBoardNumber": "107",
	"LocationBoroughName": "MANHATTAN",
	"Longitude": -73.97974,
	"Latitude": 40.77896
 },
 {
	"Item Type Name": "Temporary DOB registered oil fired mobile boiler",
	"JFNPermitNumber": "M00885735-I1-LA",
	"FilingNumber": "I1",
	"Created On Date": "2023/6/6 12:00:00",
	"Work Type Name": "Oil Work",
	"Filing Type Name": "New Job Filing",
	"LocationBIN": "1050756",
	"Address": "1755 YORK AVENUE",
	"CommunityBoardNumber": "108",
	"LocationBoroughName": "MANHATTAN",
	"Longitude": -73.94487,
	"Latitude": 40.77956
 },
 {
	"Item Type Name": "Temporary DOB registered oil fired mobile boiler",
	"JFNPermitNumber": "M00894072-I1-LA",
	"FilingNumber": "I1",
	"Created On Date": "2023/6/21 12:00:00",
	"Work Type Name": "Oil Work",
	"Filing Type Name": "New Job Filing",
	"LocationBIN": "1017939",
	"Address": "119 EAST   19 STREET",
	"CommunityBoardNumber": "106",
	"LocationBoroughName": "MANHATTAN",
	"Longitude": -73.98687,
	"Latitude": 40.73758
 },
 {
	"Item Type Name": "Temporary DOB registered oil fired mobile boiler",
	"JFNPermitNumber": "M00896239-I1-LA",
	"FilingNumber": "I1",
	"Created On Date": "2023/6/26 12:00:00",
	"Work Type Name": "Oil Work",
	"Filing Type Name": "New Job Filing",
	"LocationBIN": "1005856",
	"Address": "95 EAST    7 STREET",
	"CommunityBoardNumber": "103",
	"LocationBoroughName": "MANHATTAN",
	"Longitude": -73.98513,
	"Latitude": 40.72696
 },
 {
	"Item Type Name": "Temporary DOB registered oil fired mobile boiler",
	"JFNPermitNumber": "M00897158-I1-LA",
	"FilingNumber": "I1",
	"Created On Date": "2023/6/28 12:00:00",
	"Work Type Name": "Oil Work",
	"Filing Type Name": "New Job Filing",
	"LocationBIN": "1033305",
	"Address": "590 WEST END AVENUE",
	"CommunityBoardNumber": "107",
	"LocationBoroughName": "MANHATTAN",
	"Longitude": -73.97628,
	"Latitude": 40.79049
 },
 {
	"Item Type Name": "Temporary DOB registered oil fired mobile boiler",
	"JFNPermitNumber": "M00903506-I1-LA",
	"FilingNumber": "I1",
	"Created On Date": "2023/7/12 12:00:00",
	"Work Type Name": "Oil Work",
	"Filing Type Name": "New Job Filing",
	"LocationBIN": "1064378",
	"Address": "350 CABRINI BOULEVARD",
	"CommunityBoardNumber": "112",
	"LocationBoroughName": "MANHATTAN",
	"Longitude": -73.93754,
	"Latitude": 40.85671
 },
 {
	"Item Type Name": "Temporary DOB registered oil fired mobile boiler",
	"JFNPermitNumber": "M00905326-I1-LA",
	"FilingNumber": "I1",
	"Created On Date": "2023/7/18 12:00:00",
	"Work Type Name": "Oil Work",
	"Filing Type Name": "New Job Filing",
	"LocationBIN": "1045997",
	"Address": "440 EAST   78 STREET",
	"CommunityBoardNumber": "108",
	"LocationBoroughName": "MANHATTAN",
	"Longitude": -73.952,
	"Latitude": 40.77091
 },
 {
	"Item Type Name": "Temporary DOB registered oil fired mobile boiler",
	"JFNPermitNumber": "M00906400-I1-LA",
	"FilingNumber": "I1",
	"Created On Date": "2023/7/19 12:00:00",
	"Work Type Name": "Oil Work",
	"Filing Type Name": "New Job Filing",
	"LocationBIN": "1001531",
	"Address": "166 DUANE STREET",
	"CommunityBoardNumber": "101",
	"LocationBoroughName": "MANHATTAN",
	"Longitude": -74.00941,
	"Latitude": 40.71674
 },
 {
	"Item Type Name": "Temporary DOB registered oil fired mobile boiler",
	"JFNPermitNumber": "M00907081-I1-LA",
	"FilingNumber": "I1",
	"Created On Date": "2023/7/20 12:00:00",
	"Work Type Name": "Oil Work",
	"Filing Type Name": "New Job Filing",
	"LocationBIN": "1033206",
	"Address": "251 WEST   87 STREET",
	"CommunityBoardNumber": "107",
	"LocationBoroughName": "MANHATTAN",
	"Longitude": -73.97617,
	"Latitude": 40.7893
 },