[
  {
	"Item Type Name": "Temporary DOB registered oil fired mobile boiler",
	"JFNPermitNumber": "M00178122-I1-LA",
	"FilingNumber": "I1",
	"Created On Date": "06/10/2019 00:00:00-0400",
	"Work Type Name": "Oil Work",
	"Filing Type Name": "New Job Filing",
	"LocationBIN": "1001416",
	"Address": "240 GREENWICH STREET",
	"CommunityBoardNumber": 101,
	"LocationBoroughName": "MANHATTAN",
	"Longitude": -74.01223754882812,
	"Latitude": 40.71451187133789
 },
 {
	"Item Type Name": "Temporary DOB registered oil fired mobile boiler",
	"JFNPermitNumber": "M00090177-I1-LA",
	"FilingNumber": "I1",
	"Created On Date": "10/19/2018 00:00:00-0400",
	"Work Type Name": "Oil Work",
	"Filing Type Name": "New Job Filing",
	"LocationBIN": "1002831",
	"Address": "67 VESTRY STREET",
	"CommunityBoardNumber": 101,
	"LocationBoroughName": "MANHATTAN",
	"Longitude": -74.0112075805664,
	"Latitude": 40.722740173339844
 },
 {
	"Item Type Name": "Temporary Oil Tank (above ground)",
	"JFNPermitNumber": "M00115489-I1-LA",
	"FilingNumber": "I1",
	"Created On Date": "01/03/2019 00:00:00-0500",
	"Work Type Name": "Oil Work",
	"Filing Type Name": "New Job Filing",
	"LocationBIN": "1005201",
	"Address": "204 AVENUE A",
	"CommunityBoardNumber": 103,
	"LocationBoroughName": "MANHATTAN",
	"Longitude": -73.98075103759766,
	"Latitude": 40.7293815612793
 },
 {
	"Item Type Name": "Temporary DOB registered oil fired mobile boiler",
	"JFNPermitNumber": "M00184197-I1-LA",
	"FilingNumber": "I1",
	"Created On Date": "06/24/2019 00:00:00-0400",
	"Work Type Name": "Oil Work",
	"Filing Type Name": "New Job Filing",
	"LocationBIN": "1008507",
	"Address": "686 BROADWAY",
	"CommunityBoardNumber": 102,
	"LocationBoroughName": "MANHATTAN",
	"Longitude": -73.99424743652344,
	"Latitude": 40.727909088134766
 },
 {
	"Item Type Name": "Temporary DOB registered oil fired mobile boiler",
	"JFNPermitNumber": "M00093537-I1-LA",
	"FilingNumber": "I1",
	"Created On Date": "10/29/2018 00:00:00-0400",
	"Work Type Name": "Oil Work",
	"Filing Type Name": "New Job Filing",
	"LocationBIN": "1008817",
	"Address": "2 WASHINGTON PLACE",
	"CommunityBoardNumber": 102,
	"LocationBoroughName": "MANHATTAN",
	"Longitude": -73.99413299560547,
	"Latitude": 40.72901153564453
 },
 {
	"Item Type Name": "Temporary DOB registered oil fired mobile boiler",
	"JFNPermitNumber": "M00087985-I1-LA",
	"FilingNumber": "I1",
	"Created On Date": "10/16/2018 00:00:00-0400",
	"Work Type Name": "Oil Work",
	"Filing Type Name": "New Job Filing",
	"LocationBIN": "1009134",
	"Address": "817 BROADWAY",
	"CommunityBoardNumber": 102,
	"LocationBoroughName": "MANHATTAN",
	"Longitude": -73.99152374267578,
	"Latitude": 40.73320007324219
 },
 {
	"Item Type Name": "Temporary DOB registered oil fired mobile boiler",
	"JFNPermitNumber": "M00087985-I1-LA",
	"FilingNumber": "I1",
	"Created On Date": "10/15/2018 00:00:00-0400",
	"Work Type Name": "Oil Work",
	"Filing Type Name": "New Job Filing",
	"LocationBIN": "1009134",
	"Address": "817 BROADWAY",
	"CommunityBoardNumber": 102,
	"LocationBoroughName": "MANHATTAN",
	"Longitude": -73.99152374267578,
	"Latitude": 40.73320007324219
 },
 {
	"Item Type Name": "Temporary DOB registered oil fired mobile boiler",
	"JFNPermitNumber": "M00121381-I1-LA",
	"FilingNumber": "I1",
	"Created On Date": "01/18/2019 00:00:00-0500",
	"Work Type Name": "Oil Work",
	"Filing Type Name": "New Job Filing",
	"LocationBIN": "1009204",
	"Address": "39 EAST   12 STREET",
	"CommunityBoardNumber": 102,
	"LocationBoroughName": "MANHATTAN",
	"Longitude": -73.99179077148438,
	"Latitude": 40.733760833740234
 },
 {
	"Item Type Name": "Temporary DOB registered oil fired mobile boiler",
	"JFNPermitNumber": "M00088130-S1-LA",
	"FilingNumber": "S1",
	"Created On Date": "04/26/2019 00:00:00-0400",
	"Work Type Name": "Oil Work",
	"Filing Type Name": "Subsequent Filing",
	"LocationBIN": "1009722",
	"Address": "55 WEST   13 STREET",
	"CommunityBoardNumber": 102,
	"LocationBoroughName": "MANHATTAN",
	"Longitude": -73.99649810791016,
	"Latitude": 40.7365608215332
 },
 {
	"Item Type Name": "Temporary DOB registered oil fired mobile boiler",
	"JFNPermitNumber": "M00088130-I1-LA",
	"FilingNumber": "I1",
	"Created On Date": "10/15/2018 00:00:00-0400",
	"Work Type Name": "Oil Work",
	"Filing Type Name": "New Job Filing",
	"LocationBIN": "1009722",
	"Address": "55 WEST   13 STREET",
	"CommunityBoardNumber": 102,
	"LocationBoroughName": "MANHATTAN",
	"Longitude": -73.99649810791016,
	"Latitude": 40.7365608215332
 },
 {
	"Item Type Name": "Temporary DOB registered oil fired mobile boiler",
	"JFNPermitNumber": "M00177190-I1-LA",
	"FilingNumber": "I1",
	"Created On Date": "06/06/2019 00:00:00-0400",
	"Work Type Name": "Oil Work",
	"Filing Type Name": "New Job Filing",
	"LocationBIN": "1010258",
	"Address": "129 WASHINGTON PLACE",
	"CommunityBoardNumber": 102,
	"LocationBoroughName": "MANHATTAN",
	"Longitude": -74.00173950195312,
	"Latitude": 40.73313903808594
 },
 {
	"Item Type Name": "Temporary DOB registered oil fired mobile boiler",
	"JFNPermitNumber": "M00192471-I1-LA",
	"FilingNumber": "I1",
	"Created On Date": "07/12/2019 00:00:00-0400",
	"Work Type Name": "Oil Work",
	"Filing Type Name": "New Job Filing",
	"LocationBIN": "1012136",
	"Address": "84 HORATIO STREET",
	"CommunityBoardNumber": 102,
	"LocationBoroughName": "MANHATTAN",
	"Longitude": -74.0074462890625,
	"Latitude": 40.73857116699219
 },
 {
	"Item Type Name": "Temporary Oil Tank (above ground)",
	"JFNPermitNumber": "Permit Not Yet Issued",
	"FilingNumber": "I1",
	"Created On Date": "05/14/2019 00:00:00-0400",
	"Work Type Name": "Oil Work",
	"Filing Type Name": "New Job Filing",
	"LocationBIN": "1012541",
	"Address": "75 9 AVENUE",
	"CommunityBoardNumber": 104,
	"LocationBoroughName": "MANHATTAN",
	"Longitude": -74.00605773925781,
	"Latitude": 40.742549896240234
 },
 {
	"Item Type Name": "Temporary DOB registered oil fired mobile boiler",
	"JFNPermitNumber": "M00089009-I1-LA",
	"FilingNumber": "I1",
	"Created On Date": "10/17/2018 00:00:00-0400",
	"Work Type Name": "Oil Work",
	"Filing Type Name": "New Job Filing",
	"LocationBIN": "1013561",
	"Address": "481 8 AVENUE",
	"CommunityBoardNumber": 104,
	"LocationBoroughName": "MANHATTAN",
	"Longitude": -73.99363708496094,
	"Latitude": 40.75271987915039
 },
 {
	"Item Type Name": "Temporary Oil Tank (above ground)",
	"JFNPermitNumber": "M00194569-I1-LA",
	"FilingNumber": "I1",
	"Created On Date": "07/16/2019 00:00:00-0400",
	"Work Type Name": "Oil Work",
	"Filing Type Name": "New Job Filing",
	"LocationBIN": "1020570",
	"Address": "321 EAST   22 STREET",
	"CommunityBoardNumber": 106,
	"LocationBoroughName": "MANHATTAN",
	"Longitude": -73.98023223876953,
	"Latitude": 40.73698043823242
 },
 {
	"Item Type Name": "Temporary Oil Tank (above ground)",
	"JFNPermitNumber": "M00173659-I1-LA",
	"FilingNumber": "I1",
	"Created On Date": "05/29/2019 00:00:00-0400",
	"Work Type Name": "Oil Work",
	"Filing Type Name": "New Job Filing",
	"LocationBIN": "1020570",
	"Address": "321 EAST   22 STREET",
	"CommunityBoardNumber": 106,
	"LocationBoroughName": "MANHATTAN",
	"Longitude": -73.98023223876953,
	"Latitude": 40.73698043823242
 },
 {
	"Item Type Name": "Temporary DOB registered oil fired mobile boiler",
	"JFNPermitNumber": "M00129743-I1-LA",
	"FilingNumber": "I1",
	"Created On Date": "02/11/2019 00:00:00-0500",
	"Work Type Name": "Oil Work",
	"Filing Type Name": "New Job Filing",
	"LocationBIN": "1024739",
	"Address": "205 WEST   46 STREET",
	"CommunityBoardNumber": 105,
	"LocationBoroughName": "MANHATTAN",
	"Longitude": -73.98592376708984,
	"Latitude": 40.759178161621094
 },
 {
	"Item Type Name": "Temporary DOB registered oil fired mobile boiler",
	"JFNPermitNumber": "M00090834-I1-LA",
	"FilingNumber": "I1",
	"Created On Date": "10/22/2018 00:00:00-0400",
	"Work Type Name": "Oil Work",
	"Filing Type Name": "New Job Filing",
	"LocationBIN": "1040138",
	"Address": "439 EAST   51 STREET",
	"CommunityBoardNumber": 106,
	"LocationBoroughName": "MANHATTAN",
	"Longitude": -73.96410369873047,
	"Latitude": 40.75407028198242
 },
 {
	"Item Type Name": "Temporary DOB registered oil fired mobile boiler",
	"JFNPermitNumber": "M00112144-I1-LA",
	"FilingNumber": "I1",
	"Created On Date": "12/19/2018 00:00:00-0500",
	"Work Type Name": "Oil Work",
	"Filing Type Name": "New Job Filing",
	"LocationBIN": "1052774",
	"Address": "312 EAST  106 STREET",
	"CommunityBoardNumber": 111,
	"LocationBoroughName": "MANHATTAN",
	"Longitude": -73.94175720214844,
	"Latitude": 40.79003143310547
 },
 {
	"Item Type Name": "Temporary DOB registered oil fired mobile boiler",
	"JFNPermitNumber": "M00169206-I1-LA",
	"FilingNumber": "I1",
	"Created On Date": "05/17/2019 00:00:00-0400",
	"Work Type Name": "Oil Work",
	"Filing Type Name": "New Job Filing",
	"LocationBIN": "1059836",
	"Address": "3041 BROADWAY",
	"CommunityBoardNumber": 109,
	"LocationBoroughName": "MANHATTAN",
	"Longitude": -73.96214294433594,
	"Latitude": 40.81142044067383
 },
 {
	"Item Type Name": "Temporary DOB registered oil fired mobile boiler",
	"JFNPermitNumber": "Permit Not Yet Issued",
	"FilingNumber": "I1",
	"Created On Date": "11/12/2018 00:00:00-0500",
	"Work Type Name": "Oil Work",
	"Filing Type Name": "New Job Filing",
	"LocationBIN": "1077403",
	"Address": "33 GOLD STREET",
	"CommunityBoardNumber": 101,
	"LocationBoroughName": "MANHATTAN",
	"Longitude": -74.00601196289062,
	"Latitude": 40.70891189575195
 },
 {
	"Item Type Name": "Temporary Oil Tank (above ground)",
	"JFNPermitNumber": "M00088406-I1-LA",
	"FilingNumber": "I1",
	"Created On Date": "10/16/2018 00:00:00-0400",
	"Work Type Name": "Oil Work",
	"Filing Type Name": "New Job Filing",
	"LocationBIN": "1082652",
	"Address": "66 WEST   94 STREET",
	"CommunityBoardNumber": 107,
	"LocationBoroughName": "MANHATTAN",
	"Longitude": -73.96842956542969,
	"Latitude": 40.79106903076172
 },
 {
	"Item Type Name": "Temporary DOB registered oil fired mobile boiler",
	"JFNPermitNumber": "M00116402-I1-LA",
	"FilingNumber": "I1",
	"Created On Date": "01/07/2019 00:00:00-0500",
	"Work Type Name": "Oil Work",
	"Filing Type Name": "New Job Filing",
	"LocationBIN": "1084164",
	"Address": "85 BRADHURST AVENUE",
	"CommunityBoardNumber": 110,
	"LocationBoroughName": "MANHATTAN",
	"Longitude": -73.94113159179688,
	"Latitude": 40.82658004760742
 },
 {
	"Item Type Name": "Temporary DOB registered oil fired mobile boiler",
	"JFNPermitNumber": "M00124295-I1-LA",
	"FilingNumber": "I1",
	"Created On Date": "01/28/2019 00:00:00-0500",
	"Work Type Name": "Oil Work",
	"Filing Type Name": "New Job Filing",
	"LocationBIN": "1085790",
	"Address": "140 EAST   14 STREET",
	"CommunityBoardNumber": 103,
	"LocationBoroughName": "MANHATTAN",
	"Longitude": -73.98828125,
	"Latitude": 40.73331069946289
 },
 {
	"Item Type Name": "Temporary DOB registered oil fired mobile boiler",
	"JFNPermitNumber": "X00194425-I1-LA",
	"FilingNumber": "I1",
	"Created On Date": "07/16/2019 00:00:00-0400",
	"Work Type Name": "Oil Work",
	"Filing Type Name": "New Job Filing",
	"LocationBIN": "2007654",
	"Address": "1985 CRESTON AVENUE",
	"CommunityBoardNumber": 205,
	"LocationBoroughName": "BRONX",
	"Longitude": -73.90666198730469,
	"Latitude": 40.85111999511719
 },
 {
	"Item Type Name": "Temporary DOB registered oil fired mobile boiler",
	"JFNPermitNumber": "X00168692-I1-LA",
	"FilingNumber": "I1",
	"Created On Date": "05/16/2019 00:00:00-0400",
	"Work Type Name": "Oil Work",
	"Filing Type Name": "New Job Filing",
	"LocationBIN": "2007710",
	"Address": "264 ECHO PLACE",
	"CommunityBoardNumber": 205,
	"LocationBoroughName": "BRONX",
	"Longitude": -73.90335083007812,
	"Latitude": 40.84928894042969
 },
 {
	"Item Type Name": "Temporary DOB registered oil fired mobile boiler",
	"JFNPermitNumber": "X00150442-I1-LA",
	"FilingNumber": "I1",
	"Created On Date": "04/04/2019 00:00:00-0400",
	"Work Type Name": "Oil Work",
	"Filing Type Name": "New Job Filing",
	"LocationBIN": "2008215",
	"Address": "54 EAST  176 STREET",
	"CommunityBoardNumber": 205,
	"LocationBoroughName": "BRONX",
	"Longitude": -73.91050720214844,
	"Latitude": 40.848201751708984
 },
 {
	"Item Type Name": "Temporary Oil Tank (above ground)",
	"JFNPermitNumber": "X00167035-I1-LA",
	"FilingNumber": "I1",
	"Created On Date": "05/14/2019 00:00:00-0400",
	"Work Type Name": "Oil Work",
	"Filing Type Name": "New Job Filing",
	"LocationBIN": "2010002",
	"Address": "801 CROTONA PARK NORTH",
	"CommunityBoardNumber": 206,
	"LocationBoroughName": "BRONX",
	"Longitude": -73.89076232910156,
	"Latitude": 40.84048843383789
 },
 {
	"Item Type Name": "Temporary Oil Tank (above ground)",
	"JFNPermitNumber": "X00110126-I1-LA",
	"FilingNumber": "I1",
	"Created On Date": "12/13/2018 00:00:00-0500",
	"Work Type Name": "Oil Work",
	"Filing Type Name": "New Job Filing",
	"LocationBIN": "2021309",
	"Address": "551 COMMONWEALTH AVENUE",
	"CommunityBoardNumber": 209,
	"LocationBoroughName": "BRONX",
	"Longitude": -73.86495971679688,
	"Latitude": 40.81642150878906
 },
 {
	"Item Type Name": "Temporary DOB registered oil fired mobile boiler",
	"JFNPermitNumber": "X00131086-I1-LA",
	"FilingNumber": "I1",
	"Created On Date": "02/14/2019 00:00:00-0500",
	"Work Type Name": "Oil Work",
	"Filing Type Name": "New Job Filing",
	"LocationBIN": "2023475",
	"Address": "1057 BOYNTON AVENUE",
	"CommunityBoardNumber": 209,
	"LocationBoroughName": "BRONX",
	"Longitude": -73.87786865234375,
	"Latitude": 40.825809478759766
 },
 {
	"Item Type Name": "Temporary Oil Tank (above ground)",
	"JFNPermitNumber": "X00149387-I1-LA",
	"FilingNumber": "I1",
	"Created On Date": "04/02/2019 00:00:00-0400",
	"Work Type Name": "Oil Work",
	"Filing Type Name": "New Job Filing",
	"LocationBIN": "2049528",
	"Address": "2155 PAULDING AVENUE",
	"CommunityBoardNumber": 211,
	"LocationBoroughName": "BRONX",
	"Longitude": -73.86070251464844,
	"Latitude": 40.85523986816406
 },
 {
	"Item Type Name": "Temporary DOB registered oil fired mobile boiler",
	"JFNPermitNumber": "B00102291-I1-LA",
	"FilingNumber": "I1",
	"Created On Date": "11/21/2018 00:00:00-0500",
	"Work Type Name": "Oil Work",
	"Filing Type Name": "New Job Filing",
	"LocationBIN": "3013802",
	"Address": "14 53 STREET",
	"CommunityBoardNumber": 307,
	"LocationBoroughName": "BROOKLYN",
	"Longitude": -74.02368927001953,
	"Latitude": 40.650020599365234
 },
 {
	"Item Type Name": "Temporary DOB registered oil fired mobile boiler",
	"JFNPermitNumber": "Permit Not Yet Issued",
	"FilingNumber": "I1",
	"Created On Date": "06/11/2019 00:00:00-0400",
	"Work Type Name": "Oil Work",
	"Filing Type Name": "New Job Filing",
	"LocationBIN": "3080068",
	"Address": "629 CHAUNCEY STREET",
	"CommunityBoardNumber": 304,
	"LocationBoroughName": "BROOKLYN",
	"Longitude": -73.90986633300781,
	"Latitude": 40.68321990966797
 },
 {
	"Item Type Name": "Temporary DOB registered oil fired mobile boiler",
	"JFNPermitNumber": "B00106796-I1-LA",
	"FilingNumber": "I1",
	"Created On Date": "12/05/2018 00:00:00-0500",
	"Work Type Name": "Oil Work",
	"Filing Type Name": "New Job Filing",
	"LocationBIN": "3102215",
	"Address": "290 EAST   53 STREET",
	"CommunityBoardNumber": 317,
	"LocationBoroughName": "BROOKLYN",
	"Longitude": -73.9278793334961,
	"Latitude": 40.65272903442383
 },
 {
	"Item Type Name": "Temporary Oil Tank (above ground)",
	"JFNPermitNumber": "B00089286-I1-LA",
	"FilingNumber": "I1",
	"Created On Date": "10/17/2018 00:00:00-0400",
	"Work Type Name": "Oil Work",
	"Filing Type Name": "New Job Filing",
	"LocationBIN": "3115909",
	"Address": "79 WOODRUFF AVENUE",
	"CommunityBoardNumber": 314,
	"LocationBoroughName": "BROOKLYN",
	"Longitude": -73.96369171142578,
	"Latitude": 40.65354919433594
 },
 {
	"Item Type Name": "Temporary Oil Tank (above ground)",
	"JFNPermitNumber": "B00106437-I1-LA",
	"FilingNumber": "I1",
	"Created On Date": "12/04/2018 00:00:00-0500",
	"Work Type Name": "Oil Work",
	"Filing Type Name": "New Job Filing",
	"LocationBIN": "3118209",
	"Address": "703 CONEY ISLAND AVENUE",
	"CommunityBoardNumber": 314,
	"LocationBoroughName": "BROOKLYN",
	"Longitude": -73.96875,
	"Latitude": 40.64038848876953
 },
 {
	"Item Type Name": "Temporary Oil Tank (above ground)",
	"JFNPermitNumber": "B00175238-I1-LA",
	"FilingNumber": "I1",
	"Created On Date": "06/03/2019 00:00:00-0400",
	"Work Type Name": "Oil Work",
	"Filing Type Name": "New Job Filing",
	"LocationBIN": "3137932",
	"Address": "5001 10 AVENUE",
	"CommunityBoardNumber": 312,
	"LocationBoroughName": "BROOKLYN",
	"Longitude": -73.99919891357422,
	"Latitude": 40.638118743896484
 },
 {
	"Item Type Name": "Temporary Oil Tank (above ground)",
	"JFNPermitNumber": "B00102792-I1-LA",
	"FilingNumber": "I1",
	"Created On Date": "11/24/2018 00:00:00-0500",
	"Work Type Name": "Oil Work",
	"Filing Type Name": "New Job Filing",
	"LocationBIN": "3326986",
	"Address": "409 14 STREET",
	"CommunityBoardNumber": 306,
	"LocationBoroughName": "BROOKLYN",
	"Longitude": -73.98245239257812,
	"Latitude": 40.66334915161133
 },
 {
	"Item Type Name": "Temporary Oil Tank (above ground)",
	"JFNPermitNumber": "B00101566-I1-LA",
	"FilingNumber": "I1",
	"Created On Date": "11/19/2018 00:00:00-0500",
	"Work Type Name": "Oil Work",
	"Filing Type Name": "New Job Filing",
	"LocationBIN": "3335262",
	"Address": "102 CUMBERLAND WALK",
	"CommunityBoardNumber": 302,
	"LocationBoroughName": "BROOKLYN",
	"Longitude": -73.97467803955078,
	"Latitude": 40.69466018676758
 },
 {
	"Item Type Name": "Temporary Oil Tank (above ground)",
	"JFNPermitNumber": "B00101564-I1-LA",
	"FilingNumber": "I1",
	"Created On Date": "11/19/2018 00:00:00-0500",
	"Work Type Name": "Oil Work",
	"Filing Type Name": "New Job Filing",
	"LocationBIN": "3335262",
	"Address": "102 CUMBERLAND WALK",
	"CommunityBoardNumber": 302,
	"LocationBoroughName": "BROOKLYN",
	"Longitude": -73.97467803955078,
	"Latitude": 40.69466018676758
 },
 {
	"Item Type Name": "Temporary DOB registered oil fired mobile boiler",
	"JFNPermitNumber": "null",
	"FilingNumber": "P1",
	"Created On Date": "12/27/2018 00:00:00-0500",
	"Work Type Name": "Oil Work",
	"Filing Type Name": "PAA",
	"LocationBIN": "3335262",
	"Address": "102 CUMBERLAND WALK",
	"CommunityBoardNumber": 302,
	"LocationBoroughName": "BROOKLYN",
	"Longitude": -73.97467803955078,
	"Latitude": 40.69466018676758
 },
 {
	"Item Type Name": "Temporary DOB registered oil fired mobile boiler",
	"JFNPermitNumber": "B00101563-I1-LA",
	"FilingNumber": "I1",
	"Created On Date": "11/19/2018 00:00:00-0500",
	"Work Type Name": "Oil Work",
	"Filing Type Name": "New Job Filing",
	"LocationBIN": "3335262",
	"Address": "102 CUMBERLAND WALK",
	"CommunityBoardNumber": 302,
	"LocationBoroughName": "BROOKLYN",
	"Longitude": -73.97467803955078,
	"Latitude": 40.69466018676758
 },
 {
	"Item Type Name": "Temporary DOB registered oil fired mobile boiler",
	"JFNPermitNumber": "B00101557-I1-LA",
	"FilingNumber": "I1",
	"Created On Date": "11/19/2018 00:00:00-0500",
	"Work Type Name": "Oil Work",
	"Filing Type Name": "New Job Filing",
	"LocationBIN": "3335262",
	"Address": "102 CUMBERLAND WALK",
	"CommunityBoardNumber": 302,
	"LocationBoroughName": "BROOKLYN",
	"Longitude": -73.97467803955078,
	"Latitude": 40.69466018676758
 },
 {
	"Item Type Name": "Temporary DOB registered oil fired mobile boiler",
	"JFNPermitNumber": "B00101546-I1-LA",
	"FilingNumber": "I1",
	"Created On Date": "11/19/2018 00:00:00-0500",
	"Work Type Name": "Oil Work",
	"Filing Type Name": "New Job Filing",
	"LocationBIN": "3335262",
	"Address": "102 CUMBERLAND WALK",
	"CommunityBoardNumber": 302,
	"LocationBoroughName": "BROOKLYN",
	"Longitude": -73.97467803955078,
	"Latitude": 40.69466018676758
 },
 {
	"Item Type Name": "Temporary Oil Tank (above ground)",
	"JFNPermitNumber": "B00152444-I1-LA",
	"FilingNumber": "I1",
	"Created On Date": "04/09/2019 00:00:00-0400",
	"Work Type Name": "Oil Work",
	"Filing Type Name": "New Job Filing",
	"LocationBIN": "3340264",
	"Address": "2675 WEST   36 STREET",
	"CommunityBoardNumber": 313,
	"LocationBoroughName": "BROOKLYN",
	"Longitude": -74.0022964477539,
	"Latitude": 40.580448150634766
 },
 {
	"Item Type Name": "Temporary DOB registered oil fired mobile boiler",
	"JFNPermitNumber": "B00090780-I1-LA",
	"FilingNumber": "I1",
	"Created On Date": "10/22/2018 00:00:00-0400",
	"Work Type Name": "Oil Work",
	"Filing Type Name": "New Job Filing",
	"LocationBIN": "3379800",
	"Address": "211 MCGUINESS BOULEVARD",
	"CommunityBoardNumber": 301,
	"LocationBoroughName": "BROOKLYN",
	"Longitude": -73.95137786865234,
	"Latitude": 40.72959899902344
 },
 {
	"Item Type Name": "Temporary Oil Tank (above ground)",
	"JFNPermitNumber": "Q00109003-I1-LA",
	"FilingNumber": "I1",
	"Created On Date": "12/11/2018 00:00:00-0500",
	"Work Type Name": "Oil Work",
	"Filing Type Name": "New Job Filing",
	"LocationBIN": "4000539",
	"Address": "2100 49 AVENUE",
	"CommunityBoardNumber": 402,
	"LocationBoroughName": "QUEENS",
	"Longitude": -73.94891357421875,
	"Latitude": 40.742191314697266
 },
 {
	"Item Type Name": "Temporary DOB registered oil fired mobile boiler",
	"JFNPermitNumber": "Q00109003-I1-LA",
	"FilingNumber": "I1",
	"Created On Date": "12/13/2018 00:00:00-0500",
	"Work Type Name": "Oil Work",
	"Filing Type Name": "New Job Filing",
	"LocationBIN": "4000539",
	"Address": "2100 49 AVENUE",
	"CommunityBoardNumber": 402,
	"LocationBoroughName": "QUEENS",
	"Longitude": -73.94891357421875,
	"Latitude": 40.742191314697266
 },
 {
	"Item Type Name": "Temporary Oil Tank (above ground)",
	"JFNPermitNumber": "Q00187222-I1-LA",
	"FilingNumber": "I1",
	"Created On Date": "07/01/2019 00:00:00-0400",
	"Work Type Name": "Oil Work",
	"Filing Type Name": "New Job Filing",
	"LocationBIN": "4005003",
	"Address": "41-18 CRESCENT STREET",
	"CommunityBoardNumber": 401,
	"LocationBoroughName": "QUEENS",
	"Longitude": -73.93981170654297,
	"Latitude": 40.75183868408203
 },
 {
	"Item Type Name": "Temporary Oil Tank (above ground)",
	"JFNPermitNumber": "Q00110400-I1-LA",
	"FilingNumber": "I1",
	"Created On Date": "12/14/2018 00:00:00-0500",
	"Work Type Name": "Oil Work",
	"Filing Type Name": "New Job Filing",
	"LocationBIN": "4007688",
	"Address": "28-27 30 STREET",
	"CommunityBoardNumber": 401,
	"LocationBoroughName": "QUEENS",
	"Longitude": -73.92156982421875,
	"Latitude": 40.76771926879883
 },
 {
	"Item Type Name": "Temporary Oil Tank (above ground)",
	"JFNPermitNumber": "Q00092377-I1-LA",
	"FilingNumber": "I1",
	"Created On Date": "10/25/2018 00:00:00-0400",
	"Work Type Name": "Oil Work",
	"Filing Type Name": "New Job Filing",
	"LocationBIN": "4032965",
	"Address": "26-49 96 STREET",
	"CommunityBoardNumber": 403,
	"LocationBoroughName": "QUEENS",
	"Longitude": -73.87254333496094,
	"Latitude": 40.7611083984375
 },
 {
	"Item Type Name": "Temporary Oil Tank (above ground)",
	"JFNPermitNumber": "Q00091863-I1-LA",
	"FilingNumber": "I1",
	"Created On Date": "10/24/2018 00:00:00-0400",
	"Work Type Name": "Oil Work",
	"Filing Type Name": "New Job Filing",
	"LocationBIN": "4047337",
	"Address": "96-05 HORACE HARDING EXPRESSWAY",
	"CommunityBoardNumber": 404,
	"LocationBoroughName": "QUEENS",
	"Longitude": -73.8635025024414,
	"Latitude": 40.73501968383789
 },
 {
	"Item Type Name": "Temporary DOB registered oil fired mobile boiler",
	"JFNPermitNumber": "Q00090147-I1-LA",
	"FilingNumber": "I1",
	"Created On Date": "10/19/2018 00:00:00-0400",
	"Work Type Name": "Oil Work",
	"Filing Type Name": "New Job Filing",
	"LocationBIN": "4047337",
	"Address": "96-05 HORACE HARDING EXPRESSWAY",
	"CommunityBoardNumber": 404,
	"LocationBoroughName": "QUEENS",
	"Longitude": -73.8635025024414,
	"Latitude": 40.73501968383789
 },
 {
	"Item Type Name": "Temporary DOB registered oil fired mobile boiler",
	"JFNPermitNumber": "Q00125669-I1-LA",
	"FilingNumber": "I1",
	"Created On Date": "01/31/2019 00:00:00-0500",
	"Work Type Name": "Oil Work",
	"Filing Type Name": "New Job Filing",
	"LocationBIN": "4437467",
	"Address": "55-15 GRAND AVENUE",
	"CommunityBoardNumber": 405,
	"LocationBoroughName": "QUEENS",
	"Longitude": -73.9142074584961,
	"Latitude": 40.7198600769043
 }
]